time;timestamp;recordtime;lat;long;alt;speed;course;verticalAccuracy;horizontalAccuracy;locTimeStamp;accelerationX;accelerationY;accelerationZ;HeadingX;HeadingY;HeadingZ;TrueHeading;MagneticHeading;HeadingAccuracy;RotationX;RotationY;RotationZ;motionYaw;motionRoll;motionPitch;motionRotationRateX;motionRotationRateY;motionRotationRateZ;motionUserAccelerationX;motionUserAccelerationY;motionUserAccelerationZ;en0;pdp_ip0;DeviceOrientation;State
2014-10-24 08:29:32.459;1;1;37.4239;-122.1956;55.62253;1.42;138.1089;3;10;1414164572;0.1294708;-0.6466064;-0.6764832;-53.57185;-18.49966;92.62998;172.2818;158.5827;30;0.2194389;-0.3680502;-0.01980087;-0.8392243;0.3237029;0.7907065;0.1847855;-0.5044346;-0.01697373;-0.03368598;0.1101576;-0.1159461;0.0.0.0;10.111.107.227;1;0
2014-10-24 08:29:33.458;2;2;37.42389;-122.1956;55.94308;1.65;138.1089;3;10;1414164573;0.4236145;-0.591156;-0.8736877;-39.99028;-30.9621;93.90937;190.9506;177.2515;30;0.4454805;0.4410858;0.9399289;-1.571071;0.5692682;0.7482526;0.3133311;0.1680277;0.81859;0.008607511;0.2048801;-0.2596219;0.0.0.0;10.111.107.227;1;0
2014-10-24 08:29:34.458;3;3;37.42388;-122.1956;56.15292;1.96;138.1089;3;10;1414164574;-0.4139252;-0.8615417;-0.2460022;-60.22027;-9.28389;89.95502;148.7996;135.1005;30;0.03425518;-0.4077497;-0.4623016;0.2387973;-0.8993189;1.318241;-0.01555021;-0.3540936;-0.1095589;-0.2117172;0.1095581;-0.08208805;0.0.0.0;10.111.107.227;1;0
2014-10-24 08:29:35.459;4;4;37.42386;-122.1956;56.48026;1.92;138.1089;3;10;1414164575;-0.02931213;-0.9986725;-0.04853821;-39.72233;-17.12997;83.00996;167.4031;153.704;30;-0.08006608;-0.2598965;-0.257901;-1.286309;0.4234299;1.424493;-0.09884952;-0.2279581;-0.4166348;-0.1343631;0.009961911;0.128482;0.0.0.0;10.111.107.227;1;0
2014-10-24 08:29:36.460;5;5;37.42385;-122.1956;56.32541;2.39;172.2656;3;10;1414164576;0.09805298;-0.9984131;-0.1723175;-24.06417;-19.48042;82.16261;179.0019;165.3028;25;0.3071634;-0.5965055;-0.5307398;-1.732961;0.5308313;1.270468;0.306153;-0.6533405;-0.6685858;-0.1539316;-0.03633768;0.04798491;0.0.0.0;10.111.107.227;1;0
2014-10-24 08:29:37.462;6;6;37.42382;-122.1956;56.30276;3.09;187.3828;3;10;1414164577;-0.2537537;-1.013275;-0.03466797;-15.50661;-22.37201;84.37241;183.1093;169.4102;25;0.3142434;-0.3385301;0.4307735;-1.785747;0.3004718;1.341601;0.4727983;-0.274891;0.651751;-0.2957278;-0.02277817;0.1584513;0.0.0.0;10.111.107.227;1;0
2014-10-24 08:29:38.458;7;7;37.42366;-122.1957;56.92276;6.71;229.514;3;10;1414164578;-0.01860046;-0.9369965;-0.2276917;-2.77913;-31.80763;85.90096;197.9979;184.2988;25;-0.2294723;-0.1050351;0.2800159;-2.498038;0.7353163;1.177429;-0.2363454;-0.0667555;0.325154;-0.2195593;-0.0004181648;-0.01311555;0.0.0.0;10.111.107.227;1;0
2014-10-24 08:29:39.458;8;8;37.42363;-122.1957;57.66837;7.19;229.514;3;10;1414164579;0.05244446;-0.8134003;-0.2962952;6.364563;-28.25659;77.52702;211.2964;197.5973;25;0.4022918;-0.5176716;-0.003856524;-2.728228;0.6428522;0.9236124;0.3608525;-0.6309475;0.3223526;-0.3311788;0.0320683;0.07754388;0.0.0.0;10.111.107.227;1;0
2014-10-24 08:29:40.458;9;9;37.42357;-122.1958;57.73679;8.27;230.9315;3;10;1414164580;0.1222992;-0.942749;-0.4055634;1.926691;-27.73236;77.14488;200.4996;186.8005;25;-0.1395608;-0.02495062;-0.325739;-2.409841;0.3162686;1.112211;-0.1061616;0.03036927;-0.3526224;-0.05971105;-0.0177339;0.05512384;0.0.0.0;10.111.107.227;1;0
2014-10-24 08:29:41.458;10;10;37.42352;-122.1959;58.22806;7.99;230.9315;3;10;1414164581;0.0383606;-0.8768158;-0.5700684;1.474528;-27.88449;75.59971;200.1708;186.4717;25;0.0305691;-0.006673083;0.06466901;-2.266984;0.2479172;1.027988;-0.0003970942;0.02968989;0.08219108;-0.0390139;-0.04653989;-0.05933969;0.0.0.0;10.111.107.227;1;0
2014-10-24 08:29:42.475;11;11;37.42352;-122.1959;58.22806;7.99;230.9315;3;10;1414164581;0.2057495;-0.8136139;-0.366394;-2.67865;-28.35794;76.16463;189.3578;175.6587;25;0.3398827;0.1861707;-0.8887858;-1.907779;-0.2163064;1.097574;0.3560499;-0.01164586;-0.6751272;-0.2650836;0.1493817;0.06348342;0.0.0.0;10.111.107.227;1;0
2014-10-24 08:29:43.466;12;12;37.42344;-122.196;58.44016;10.56;232.397;3;10;1414164582;0.06526184;-0.862854;-0.5;-0.20014;-26.39642;76.39727;195.1517;181.4526;25;-0.1712357;-0.03747494;0.02614878;-2.218982;0.09771899;1.13455;-0.2087227;-0.0003950033;-0.0313048;0.0613603;0.03619641;-0.01976783;0.0.0.0;10.111.107.227;1;0
2014-10-24 08:29:44.459;13;13;37.42332;-122.1962;59.47989;12.23;233.6486;3;10;1414164584;0.2028046;-0.8447418;-0.2214661;3.048719;-26.32883;76.92896;202.0675;188.3684;25;-0.8017971;-0.5146015;0.2272545;-2.559957;0.3787457;1.149367;-0.3571922;-0.3545354;0.004606282;0.07224149;0.08140476;0.2274558;0.0.0.0;10.111.107.227;1;0
2014-10-24 08:29:45.459;14;14;37.42332;-122.1962;59.47989;12.23;233.6486;3;10;1414164584;-0.06941223;-0.7885132;-0.4074554;2.864504;-28.07053;73.22386;202.4026;188.7035;25;0.4187733;-0.1428453;-0.7240938;-2.478331;0.2886116;1.004703;0.6898932;-0.1484206;-0.5121402;-0.2676439;0.02874077;0.1209981;0.0.0.0;10.111.107.227;1;0
2014-10-24 08:29:46.474;15;15;37.42319;-122.1965;59.85727;13.11;235.157;3;10;1414164586;-0.04048157;-0.6281128;-1.777878;-6.161963;-35.89972;70.21658;172.439;158.7399;25;0.8076633;0.5882379;-0.8529005;-1.615361;-0.1484924;0.6751137;0.2286342;0.08043169;-1.039034;-0.03862082;0.01304762;-1.16161;0.0.0.0;10.111.107.227;1;0
2014-10-24 08:29:47.464;16;16;37.42311;-122.1966;60.00656;14.1;235.157;3;10;1414164587;0.1917725;-0.6419373;-0.6269226;-0.7360353;-36.91432;72.27682;188.0032;174.3041;25;-0.1051035;-0.4353693;-0.06247936;-1.788052;0.06924687;0.8656;-0.09877282;-0.2309972;-0.3088119;0.1265837;0.1383306;0.05027066;0.0.0.0;10.111.107.227;1;0
2014-10-24 08:29:48.459;17;17;37.42311;-122.1966;60.00656;14.1;235.157;3;10;1414164587;-0.2842407;-0.4979553;-1.317886;-6.982548;-34.05659;63.42104;189.0058;175.3067;25;-0.9208218;-0.7423122;-1.904449;-1.924973;-0.1479332;0.4844668;-1.129385;-0.7096164;-1.886673;-0.1538082;-0.03221874;-0.4426282;0.0.0.0;10.111.107.227;1;0
2014-10-24 08:29:49.459;18;18;37.42292;-122.1969;60.10349;15.95;238.2908;3;10;1414164589;-0.4267578;-0.0340271;-0.8070679;3.601364;-27.52942;43.15086;207.3244;193.6254;25;0.9890248;-0.0128359;0.5806607;-2.373088;-0.2882195;0.3052604;0.6128092;1.386513;0.6923316;-8.99279e-05;0.2466475;0.4741806;0.0.0.0;10.111.107.227;1;0
2014-10-24 08:29:50.458;19;19;37.42283;-122.1971;61.01138;16.63;239.9667;3;10;1414164590;-0.045578;-0.03491211;-0.9782562;9.412466;-28.01979;50.17896;215.0146;201.3155;25;0.08296572;-0.1700106;-0.09278613;-2.181969;0.04821995;0.1075509;0.06370822;0.1775318;0.1855083;-0.10171;0.07678027;-0.1298279;0.0.0.0;10.111.107.227;1;0
2014-10-24 08:29:51.464;20;20;37.42274;-122.1973;61.88083;17.14;239.9667;3;10;1414164591;0.107666;0.1212311;-1.015427;6.532034;-27.51251;49.31496;206.1676;192.4685;30;-0.2758026;0.02392264;-0.6276208;-2.137832;0.01844875;0.05475647;-0.3876052;-0.0588804;-0.8893786;0.01682775;0.6119648;-0.1291101;0.0.0.0;10.111.107.227;1;0
2014-10-24 08:29:52.458;21;21;37.42266;-122.1974;61.74246;17.72;241.6183;3;10;1414164592;0.09266663;0.1337891;-0.9732056;15.45802;-23.77547;39.03029;246.7055;233.0064;35;2.42447;0.2338263;1.810893;-2.379584;0.04438377;-0.02966782;3.112335;0.4726791;2.042472;0.04831695;0.1041256;0.02537001;0.0.0.0;10.111.107.227;1;0
2014-10-24 08:29:53.459;22;22;37.42259;-122.1976;61.73215;17.85;243.435;3;10;1414164593;0.06639099;0.1894684;-0.8974762;22.39114;-71.49464;57.57253;224.9417;211.2426;35;0.01928262;-0.03775883;-0.0008458199;-2.426824;0.02700699;-0.1070747;0.06209384;0.009112559;-0.001952088;-0.001763609;0.07438897;0.01171741;0.0.0.0;10.111.107.227;1;0
2014-10-24 08:29:54.458;23;23;37.42251;-122.1978;62.52499;18.07;242.7835;3;10;1414164594;0.03578186;0.1191101;-0.9569855;19.74516;-36.32242;37.43526;262.4825;248.7834;36;-0.006345247;-0.0256489;-0.1829829;-2.47019;0.02174662;-0.07462952;0.03566864;0.01059103;-0.2221961;-0.003450131;0.02465238;0.06895643;0.0.0.0;10.111.107.227;1;0
2014-10-24 08:29:55.469;24;24;37.42244;-122.198;62.64291;18.8;245.4899;3;10;1414164595;-0.004241943;-0.03909302;-0.8368988;16.21159;-31.84137;40.01065;228.4705;214.7714;35;-1.505605;-0.2390432;0.1794917;-2.456521;0.02648412;-0.02499405;0.2457828;0.04389572;0.02371512;-0.02987546;-0.02906554;0.2587365;0.0.0.0;10.111.107.227;1;0
2014-10-24 08:29:56.458;25;25;37.42236;-122.1982;62.7374;19.44;246.4566;3;10;1414164596;0.02960205;0.02711487;-0.8695068;17.91975;-22.54102;48.91625;236.7496;223.0505;35;-0.5368885;-0.2446609;-0.1032928;-2.490543;0.08364499;0.04355155;-0.08914554;-0.3732862;0.3645564;-0.09431727;-0.1152147;-0.1728829;0.0.0.0;10.111.107.227;1;0
2014-10-24 08:29:57.457;26;26;37.42229;-122.1984;62.98044;19.77;247.2666;3;10;1414164597;0.04031372;0.02288818;-0.9357758;15.65894;-21.57718;47.33782;231.1084;217.4093;35;0.0201287;-0.01124893;0.02998799;-2.488711;0.03859948;0.06467071;0.06218982;-0.003543166;-0.04378453;0.001575612;0.0437974;-0.0843767;0.0.0.0;10.111.107.227;1;0
2014-10-24 08:29:58.458;27;27;37.42223;-122.1986;63.12808;20.2;247.2666;3;10;1414164598;0.009689331;-0.1025696;-1.018768;15.30724;-22.74397;46.45725;229.5756;215.8765;30;-0.02873577;0.01608975;-0.01430064;-2.502937;0.01583529;0.06697515;0.004056281;0.02956319;-0.0123696;0.02004377;-0.02087399;-0.006654811;0.0.0.0;10.111.107.227;1;0
2014-10-24 08:29:59.464;28;28;37.42223;-122.1986;63.12808;20.2;247.2666;3;10;1414164598;-0.02618408;-0.0774231;-1.096405;14.26894;-21.5265;47.12186;228.1529;214.4538;30;0.02896507;0.0762013;-0.008399344;-2.522179;0.02201295;0.07740358;0.0522305;0.1121065;-0.02139212;0.04443047;-0.09128331;-0.1822671;0.0.0.0;10.111.107.227;1;0
2014-10-24 08:30:00.460;29;29;37.42217;-122.1989;63.9429;20.67;249.8374;3;10;1414164599;0.03636169;-0.09461975;-0.8774109;16.21156;-22.9131;47.22147;227.9357;214.2366;30;-0.06573135;-0.07441112;-0.0405666;-2.550868;0.0187866;0.06828784;-0.04893425;0.09368121;-0.01984498;0.008403671;-0.01458992;0.1601977;0.0.0.0;10.111.107.227;1;0
2014-10-24 08:30:01.488;30;30;37.42206;-122.1993;64.94156;21.51;252.5361;3;10;1414164601;0.009368896;-0.02420044;-1.012924;15.96036;-21.6787;47.93591;228.232;214.5329;30;0.01001535;-0.07389633;-0.0320104;-2.582556;-0.0008840234;0.06579106;0.0004138852;-0.06667808;-0.01682772;0.01992508;-0.05541117;-0.1205415;0.0.0.0;10.111.107.227;1;0
2014-10-24 08:30:02.472;31;31;37.42206;-122.1993;64.94156;21.51;252.5361;3;10;1414164601;0.06936646;-0.07301331;-1.094711;16.46275;-21.06996;47.67006;228.0157;214.3166;35;0.007375891;-0.08368637;-0.01132056;-2.601637;0.01402969;0.06284647;0.002763451;-0.05065481;-0.01667087;0.0294555;0.002670222;0.01550572;0.0.0.0;10.111.107.227;1;0
2014-10-24 08:30:03.458;32;32;37.422;-122.1995;65.25394;21.84;254.1975;3;10;1414164602;-0.02935791;-0.1294556;-0.6708374;16.26179;-19.61575;46.97224;228.3331;214.634;35;-0.03451856;-0.05531359;-0.03331907;-2.63184;0.003126301;0.05801563;-0.03333603;0.003559256;-0.02690328;0.01224456;-0.0653537;0.09581635;0.0.0.0;10.111.107.227;1;0
2014-10-24 08:30:04.459;33;33;37.4219;-122.2;65.11905;22.41;255.9638;4;10;1414164604;0.02719116;-0.06863403;-0.9640961;15.72589;-19.14227;43.54956;231.5629;217.8638;35;0.00259312;-0.05451864;-0.0149675;-2.654617;0.01735018;0.05159473;-0.006693181;-0.05459291;-0.02455785;0.02663435;0.01656818;0.06382659;0.0.0.0;10.111.107.227;1;0
2014-10-24 08:30:05.459;34;34;37.42185;-122.2003;63.88736;22.56;257.125;4;10;1414164605;0.029953;-0.06462097;-1.102631;16.86466;-19.58199;48.40112;230.129;216.4299;35;0.0397871;0.06275979;-0.006911436;-2.671304;0.03471456;0.04034913;0.009937884;0.03024076;-0.00606778;-0.0342521;0.04534306;-0.1071746;0.0.0.0;10.111.107.227;1;0
2014-10-24 08:30:06.458;35;35;37.42185;-122.2003;63.88736;22.56;257.125;4;10;1414164605;0.03979492;-0.01048279;-0.9604797;16.73068;-19.44673;49.19863;231.5987;217.8996;35;-0.02997441;-0.002110023;-0.01077835;-2.684165;0.03291741;0.002783125;-0.0454463;0.02617091;-0.007242879;0.01812931;0.005224528;0.03897467;0.0.0.0;10.111.107.227;1;0
2014-10-24 08:30:07.458;36;36;37.4218;-122.2005;64.41171;22.43;257.6881;4;10;1414164606;0.03643799;0.0453186;-0.9594269;16.63019;-19.44669;47.96912;234.4184;220.7193;35;-0.01916038;0.006277603;-0.009153551;-2.685982;0.04739868;-0.01996121;0.004382637;0.03120007;-0.005723957;0.01631869;0.02529768;0.02161186;0.0.0.0;10.111.107.227;1;0
2014-10-24 08:30:08.459;37;37;37.42175;-122.2007;65.3804;21.89;258.8262;4;10;1414164607;-0.01826477;-0.04217529;-0.9568481;17.26656;-19.64961;48.89957;236.7581;223.059;35;-0.01671932;-0.04831134;-0.01064412;-2.703753;0.0418696;-0.02657098;-0.0007293313;-0.01451792;-0.01751617;-0.03312982;-0.008638774;0.2403938;0.0.0.0;10.111.107.227;1;0
2014-10-24 08:30:09.458;38;38;37.42171;-122.201;69.43906;21.28;260.2725;3;10;1414164608;0.01368713;-0.001602173;-0.9859314;17.61824;-19.09161;49.64724;238.7393;225.0403;35;-0.007109309;-0.001098021;-0.01003985;-2.719168;0.04881813;-0.040189;-0.03268967;0.01636321;-0.01004319;-0.03984821;0.008009074;0.05336101;0.0.0.0;10.111.107.227;1;0
2014-10-24 08:30:10.458;39;39;37.42167;-122.2012;70.01736;20.65;260.2725;3;10;1414164609;0.01641846;0.005630493;-1.042374;17.18283;-18.00937;47.52052;240.711;227.0119;35;0.03864886;-0.03908908;-0.01003905;-2.72793;0.03034797;-0.02887167;0.009890305;-0.02176941;-0.004671594;0.009052271;0.01039321;-0.03740657;0.0.0.0;10.111.107.227;1;0
2014-10-24 08:30:11.459;40;40;37.42165;-122.2014;70.56839;20.1;261.8019;3;10;1414164610;0.08358765;0.0534668;-0.9989777;17.06561;-18.56741;48.63374;241.1097;227.4106;35;0.001205613;-0.08249168;0.001971005;-2.72549;0.05330553;-0.02432191;0.007612505;-0.02792557;0.004092432;0.01744469;-0.02004706;0.003899488;0.0.0.0;10.111.107.227;1;0
2014-10-24 08:30:12.459;41;41;37.42162;-122.2017;70.85074;19.59;262.6492;3;10;1414164611;0.05937195;-0.009307861;-1.038055;17.24981;-15.70969;47.62021;242.1413;228.4422;35;6.338323e-05;-0.0218041;-0.005037902;-2.726742;0.06232677;-0.02665994;0.01544092;0.02403289;-0.007022015;-0.02799305;0.03421053;0.0002366095;0.0.0.0;10.111.107.227;1;0
2014-10-24 08:30:13.458;42;42;37.4216;-122.2019;70.76566;19.16;262.6492;3;10;1414164612;0.06111145;-0.02397156;-0.950882;17.18283;-17.13013;48.05216;242.0505;228.3514;35;-0.01195573;0.01105824;-0.007667241;-2.728817;0.04953049;0.002199744;-0.01192775;-0.004946009;0.000703847;-0.01322472;-0.06103268;0.02028609;0.0.0.0;10.111.107.227;1;0
2014-10-24 08:30:14.458;43;43;37.42154;-122.2023;71.63254;18.83;262.6492;3;10;1414164614;0.04322815;-0.03134155;-1.000504;18.12065;-18.82109;48.21833;241.4539;227.7548;35;-0.0831636;-0.03450551;0.009376724;-2.727216;0.04811564;0.01513826;-0.06330009;0.003866975;0.005605563;0.03783067;-0.002806651;0.1326241;0.0.0.0;10.111.107.227;1;0
2014-10-24 08:30:15.458;44;44;37.42154;-122.2023;71.63254;18.83;262.6492;3;10;1414164614;0.03811646;-0.05981445;-0.9767609;18.03692;-21.13771;50.99302;240.3837;226.6846;35;-0.002486327;-0.04974758;0.008186824;-2.722405;0.05686848;0.02680881;0.01998969;0.02251744;0.01470079;-0.005990383;-0.009296693;-0.009391102;0.0.0.0;10.111.107.227;1;0
2014-10-24 08:30:16.458;45;45;37.4215;-122.2027;72.71866;18.89;262.6492;3;10;1414164616;-0.03234863;-0.008804321;-0.8771667;17.33357;-16.97794;47.96909;240.3117;226.6126;35;-0.01323351;-0.01201166;-0.0004993427;-2.718754;0.05527261;0.04162602;0.001150252;-0.01964561;-0.003263754;-0.01920114;-0.05535561;0.05621695;0.0.0.0;10.111.107.227;1;0
2014-10-24 08:30:17.482;46;46;37.4215;-122.2027;72.71866;18.89;262.6492;3;10;1414164616;-0.01159668;-0.0786438;-0.9173126;17.96994;-18.97331;50.52782;239.5649;225.8658;35;-0.02893951;-0.03373612;0.004989432;-2.716481;0.06452929;0.04339474;-0.01333062;0.004703681;0.008707926;0.005110493;0.03749123;-0.03259227;0.0.0.0;10.111.107.227;1;0
2014-10-24 08:30:18.458;47;47;37.42148;-122.2029;72.71854;19.07;262.6492;3;10;1414164617;0.03613281;-0.1032715;-0.972702;17.04886;-17.19775;46.98881;239.6525;225.9534;35;-0.009724799;-0.03877563;0.009249691;-2.715186;0.07419784;0.04920027;-0.01182846;-0.05356482;0.002177133;-0.002949383;-0.01516589;-0.01218264;0.0.0.0;10.111.107.227;1;0
2014-10-24 08:30:19.459;48;48;37.42146;-122.2031;72.70987;19.29;261.8698;3;10;1414164618;0.0871582;-0.06520081;-1.006409;17.56802;-18.80414;46.73962;240.6964;226.9973;35;0.008278969;0.01562716;0.01261912;-2.709464;0.08976047;0.05048623;0.00980319;0.02967527;0.01679446;0.04169982;-0.003322443;-0.006607052;0.0.0.0;10.111.107.227;1;0
2014-10-24 08:30:20.458;49;49;37.42141;-122.2036;73.92575;19.83;262.2275;3;5;1414164620;0.1224518;-0.1037903;-0.8864441;18.43884;-19.37906;49.33153;240.1561;226.457;30;-0.04691344;-0.05658791;-0.001857555;-2.704712;0.08186843;0.06588667;-0.03083573;0.003239047;0.000568661;0.03619828;-0.06685142;0.04874843;0.0.0.0;10.111.107.227;1;0
2014-10-24 08:30:21.459;50;50;37.42138;-122.2038;74.63504;20.06;262.2275;3;5;1414164621;0.104248;-0.0398407;-1.023865;18.40535;-19.00711;49.69706;239.656;225.9569;30;-0.009751431;-0.04121402;0.01168462;-2.70295;0.08171504;0.06858396;-0.006845532;-0.0529634;0.0131532;0.00923549;0.01013481;0.03574768;0.0.0.0;10.111.107.227;1;0
2014-10-24 08:30:22.458;51;51;37.42136;-122.204;74.85648;20.3;262.2275;3;5;1414164622;0.08996582;-0.1379547;-1.070145;17.98667;-21.39133;49.74693;239.0659;225.3668;30;0.004881042;0.04244253;-0.006931143;-2.700218;0.08527387;0.07323331;0.01728444;0.010731;-0.0007519433;0.007373405;0.03128249;0.1992317;0.0.0.0;10.111.107.227;1;0
2014-10-24 08:30:23.458;52;52;37.42133;-122.2043;75.26126;20.45;261.4308;3;5;1414164623;0.1060791;-0.06335449;-0.7799988;18.45558;-18.41519;49.74695;238.0105;224.3114;30;0.03121518;0.01182044;0.007201188;-2.698035;0.09556383;0.06990382;0.03406103;0.0009905797;-0.004028312;-0.05442918;-0.07946035;-0.06868517;0.0.0.0;10.111.107.227;1;0
2014-10-24 08:30:24.459;53;53;37.42131;-122.2045;75.82614;20.56;262.6975;3;5;1414164624;0.1053009;-0.03045654;-0.9727173;18.17089;-19.71724;49.73031;240.7401;227.041;30;-0.06141329;-0.08559933;0.00362403;-2.677361;0.09928115;0.0606677;-0.06848862;-0.06012532;0.008141132;0.05465919;-0.04215271;0.04936684;0.0.0.0;10.111.107.227;1;0
2014-10-24 08:30:25.458;54;54;37.42129;-122.2047;75.85837;20.65;262.6975;3;5;1414164625;0.1448059;-0.05474854;-1.047012;19.46039;-20.0047;48.6836;240.0656;226.3665;30;-0.001209075;0.01456323;5.246427e-05;-2.671119;0.0972141;0.05271702;-0.04803877;-0.06516653;7.246895e-05;-0.006456851;-0.01444607;0.02615285;0.0.0.0;10.111.107.227;1;0
2014-10-24 08:30:26.458;55;55;37.42126;-122.205;76.48697;20.52;262.258;3;5;1414164626;0.1463928;-0.03392029;-0.9468079;18.32163;-19.26065;47.98574;240.4465;226.7474;30;-0.01217145;0.03157897;0.0108388;-2.661683;0.1110504;0.05207062;-0.01110361;0.0277061;0.01369305;0.02285759;0.005172091;0.09721429;0.0.0.0;10.111.107.227;1;0
2014-10-24 08:30:27.459;56;56;37.42124;-122.2052;77.93369;20.41;262.258;3;5;1414164627;0.0629425;-0.1170959;-1.046082;18.77378;-19.04079;48.79987;241.0011;227.302;30;-0.01213975;-0.01692492;0.009309612;-2.649477;0.1038528;0.05002269;0.01205258;0.08563414;-0.002935565;0.001321899;-0.02093628;-0.05134024;0.0.0.0;10.111.107.227;1;0
2014-10-24 08:30:28.458;57;57;37.42121;-122.2054;79.54617;20.41;261.4966;3;5;1414164628;0.07354736;-0.09924316;-0.9825439;18.43885;-20.2245;49.23189;240.6719;226.9728;30;-0.02888145;-0.04098712;4.287689e-05;-2.642055;0.1016947;0.05710259;-0.01044432;-0.04165735;0.002080089;0.01545196;-0.03237546;-0.05444114;0.0.0.0;10.111.107.227;1;0
2014-10-24 08:30:29.458;58;58;37.42121;-122.2054;79.54617;20.41;261.4966;3;5;1414164628;0.08122253;-0.07691956;-1.069107;19.64462;-18.77026;48.13529;240.4306;226.7315;30;0.02396552;0.01429612;0.009435846;-2.639737;0.09422759;0.0536776;0.004327265;-0.03795007;0.01030971;-0.0178266;0.04950144;0.03194124;0.0.0.0;10.111.107.227;1;0
2014-10-24 08:30:30.458;59;59;37.42118;-122.2056;80.26767;20.42;261.4966;3;5;1414164629;0.1109772;-0.05809021;-0.9777069;18.55608;-19.53123;49.0491;240.0438;226.3447;30;-0.01096876;0.03399419;0.0108926;-2.637069;0.08876997;0.06358861;-0.02903423;-0.02283553;0.005236441;-0.0032234;0.0062185;-0.005599632;0.0.0.0;10.111.107.227;1;0
2014-10-24 08:30:31.458;60;60;37.42113;-122.2061;82.04483;20.51;260.9018;3;5;1414164631;0.09414673;-0.1005249;-0.7802734;20.01306;-19.51428;49.03251;241.3446;227.6455;30;-0.005189436;0.07628492;0.03095366;-2.636358;0.1035486;0.06968436;-0.03716702;-0.1375656;0.007327219;0.02452702;0.01558135;-0.06709651;0.0.0.0;10.111.107.227;1;0
2014-10-24 08:30:32.458;61;61;37.4211;-122.2063;82.40909;20.59;259.5204;3;5;1414164632;0.2047729;-0.1065216;-1.061523;18.42211;-20.74873;49.614;238.4857;224.7867;30;0.05144082;0.1910525;0.02368216;-2.620903;0.121921;0.07057407;-0.04800095;-0.1367178;0.02746775;0.0300202;-0.03141321;0.02948893;0.0.0.0;10.111.107.227;1;0
2014-10-24 08:30:33.458;62;62;37.42107;-122.2066;82.01511;20.62;258.1882;3;5;1414164633;0.1561737;-0.05455017;-0.9733887;18.95802;-19.76796;49.34821;241.472;227.7729;30;-0.04352431;-0.1719542;0.0208126;-2.606555;0.133259;0.06861107;0.01103044;0.07114688;0.02686454;0.02137834;0.09443616;-0.0104959;0.0.0.0;10.111.107.227;1;0
2014-10-24 08:30:34.458;63;63;37.42103;-122.2068;82.37411;20.59;258.1882;3;5;1414164634;0.1388397;-0.04736328;-1.099014;20.16377;-21.45892;48.98267;241.4409;227.7419;30;0.06356273;0.06605119;0.01960806;-2.583097;0.15183;0.06985784;0.03771888;-0.03612568;0.01786455;0.008545361;0.03971071;-0.06767178;0.0.0.0;10.111.107.227;1;0
2014-10-24 08:30:35.458;64;64;37.42098;-122.207;84.14975;20.53;256.2392;3;5;1414164635;0.1472015;-0.03224182;-1.105438;18.82405;-20.95164;49.31493;242.1868;228.4877;30;0.03703445;0.09658353;0.02262728;-2.56007;0.1586521;0.05632454;-0.02137993;-0.1048189;0.02513243;0.01610655;-0.01670328;-0.1039838;0.0.0.0;10.111.107.227;1;0
2014-10-24 08:30:36.458;65;65;37.42094;-122.2072;84.32248;20.4;256.2392;3;5;1414164636;0.1335297;-0.04945374;-1.001709;18.70683;-21.34058;49.86321;241.22;227.5209;30;-0.03620328;-0.06765601;0.009445966;-2.549053;0.1401152;0.05690269;-0.02123138;0.04664493;0.007012891;-0.003215907;-0.02955379;0.0473436;0.0.0.0;10.111.107.227;1;0
2014-10-24 08:30:37.458;66;66;37.42091;-122.2075;84.54526;20.31;255.7169;3;5;1414164637;0.1102142;-0.06477356;-1.013336;18.03694;-21.23917;49.96294;238.7121;225.013;30;0.01678164;-0.08508693;0.008581238;-2.54838;0.1236304;0.05046029;0.02354974;-0.08152088;-0.0008257032;0.04104114;0.06224918;-0.05476356;0.0.0.0;10.111.107.227;1;0
2014-10-24 08:30:38.464;67;67;37.42085;-122.2077;84.88394;20.35;255.7169;3;5;1414164638;0.07597351;-0.04647827;-0.9237671;18.17091;-21.30681;49.96292;238.611;224.9119;30;-0.03002528;-0.01547616;-0.005961486;-2.549645;0.1079482;0.05392937;-0.02559073;-0.05574603;-0.009169681;-0.003547626;-0.05672298;-0.02473744;0.0.0.0;10.111.107.227;1;0
2014-10-24 08:30:39.465;68;68;37.42085;-122.2077;84.88394;20.35;255.7169;3;5;1414164638;0.009857178;-0.100708;-0.9865417;18.60633;-20.76572;49.66385;236.9883;223.2892;30;-0.03449033;-0.01891137;-0.03676627;-2.565245;0.084181;0.06150455;-0.03215078;-0.04594363;-0.04653757;-0.08982778;-0.07473417;-0.02350691;0.0.0.0;10.111.107.227;1;0
2014-10-24 08:30:40.458;69;69;37.42076;-122.2081;87.24423;20.34;256.8835;3;5;1414164640;0.08222961;0.004684448;-0.9973602;18.47236;-20.4951;49.63064;236.4101;222.711;30;-0.006986537;0.005023521;-0.02102779;-2.59756;0.06463833;0.05908871;-0.02493594;-0.07145582;-0.03286259;-0.005535901;0.02527137;-0.04263302;0.0.0.0;10.111.107.227;1;0
2014-10-24 08:30:41.458;70;70;37.42076;-122.2081;87.24423;20.34;256.8835;3;5;1414164640;0.06852722;-0.05300903;-0.9594574;18.70683;-20.08931;49.63062;236.6393;222.9402;30;0.02518472;0.04704314;0.007229417;-2.609534;0.08140764;0.0644739;0.03016077;0.06775568;-0.001057836;0.07838184;0.03066155;-0.06251152;0.0.0.0;10.111.107.227;1;0
2014-10-24 08:30:42.459;71;71;37.42068;-122.2086;85.4194;20.4;258.3045;3;5;1414164642;0.084198;-0.03593445;-1.015198;19.27621;-20.2923;49.79675;239.4918;225.7927;30;0.002568086;-0.06180798;-0.01256293;-2.616071;0.1031142;0.05934269;0.01108174;-0.05050778;-0.012416;0.02162405;0.03371888;0.02142569;0.0.0.0;10.111.107.227;1;0
2014-10-24 08:30:43.458;72;72;37.42065;-122.2088;85.5549;20.46;258.8624;4;5;1414164643;0.1154327;-0.06266785;-0.9290161;18.92453;-20.03859;49.94628;239.6165;225.9174;30;-0.02278334;-0.03493748;-0.007077351;-2.628272;0.09485133;0.05449005;-0.02968521;0.05064205;-0.01546895;-0.02089916;0.00783223;0.03017551;0.0.0.0;10.111.107.227;1;0
2014-10-24 08:30:44.458;73;73;37.42065;-122.2088;85.5549;20.46;258.8624;4;5;1414164643;0.04188538;-0.08363342;-0.9915314;18.95803;-20.00484;49.51428;239.52;225.8209;30;-0.01904293;-0.04825142;-0.01807195;-2.640634;0.07834291;0.06062821;0.007756166;-0.02854562;-0.01382452;-0.03540966;-0.03238072;0.01469336;0.0.0.0;10.111.107.227;1;0
2014-10-24 08:30:45.458;74;74;37.42059;-122.2092;86.95279;20.33;260.8305;3;5;1414164645;0.08477783;-0.07971191;-0.9705658;18.65657;-19.39607;49.51427;239.2367;225.5376;30;0.0169915;0.02417751;-0.0127861;-2.653488;0.07814061;0.05983897;0.01513416;0.04971131;-0.01414686;0.01154088;-0.02878927;0.05819828;0.0.0.0;10.111.107.227;1;0
2014-10-24 08:30:46.458;75;75;37.42056;-122.2095;88.52438;20.42;261.5967;3;5;1414164646;0.05574036;-0.08534241;-1.067307;19.12548;-18.55055;49.51425;239.5215;225.8224;30;-0.009460347;-0.00226422;-0.01502502;-2.664066;0.07367951;0.06986831;-0.02322865;-0.09465338;-0.008941437;-0.01944766;0.002428671;-0.05316569;0.0.0.0;10.111.107.227;1;0
2014-10-24 08:30:47.473;76;76;37.42053;-122.2097;88.86002;20.5;262.1787;3;5;1414164647;0.08973694;-0.08804321;-1.026672;19.74511;-18.66895;49.82991;240.1687;226.4696;30;0.008577775;-0.07884581;-0.01125186;-2.680875;0.06858402;0.06853912;0.02495733;0.0194659;-0.004295921;-0.007563096;0.02203772;0.05136746;0.0.0.0;10.111.107.227;1;0
2014-10-24 08:30:48.458;77;77;37.42051;-122.2099;91.9631;20.62;264.289;3;5;1414164648;-0.01806641;-0.05635071;-0.9450531;19.46043;-18.11092;49.34809;239.8893;226.1902;30;-0.03103834;-0.0784522;-0.02109676;-2.695956;0.06069596;0.07619318;-0.01099654;-0.05222498;-0.008319221;-0.0419738;0.03849131;-0.01557113;0.0.0.0;10.111.107.227;1;0
2014-10-24 08:30:49.458;78;78;37.42049;-122.2102;92.32022;20.72;263.5956;3;5;1414164649;0.04029846;-0.08668518;-0.9390869;19.05852;-17.87421;49.6139;239.9224;226.2233;30;-0.03117576;-0.006950584;-0.01084706;-2.708632;0.06180464;0.07090662;-0.007315571;0.04745456;-0.01113601;0.009907846;0.03604192;0.0346757;0.0.0.0;10.111.107.227;1;0
2014-10-24 08:30:50.458;79;79;37.42047;-122.2104;93.06284;20.65;265.4962;3;5;1414164650;0.01266479;0.02374268;-0.9279327;19.27622;-17.24852;50.0625;241.6661;227.967;30;-0.001102549;-0.08606378;-0.006704508;-2.7247;0.04988926;0.02902665;0.03236114;0.0302929;-0.01372556;-0.01629348;0.05711401;-0.004258925;0.0.0.0;10.111.107.227;1;0
2014-10-24 08:30:51.458;80;80;37.42046;-122.2106;94.70169;20.14;267.166;3;5;1414164651;0.1259613;-0.09825134;-0.8598785;20.26429;-17.6713;49.31481;247.0504;233.3513;35;-0.03371642;-0.05914908;0.002225337;-2.73326;0.06580117;0.007544722;-0.03043128;-0.009074324;0.0002889684;0.03695509;0.001303806;0.1565599;0.0.0.0;10.111.107.227;1;0
2014-10-24 08:30:52.458;81;81;37.42045;-122.2108;95.17032;19.91;268.196;3;5;1414164652;0.0796814;-0.00819397;-0.9202271;20.68297;-16.06488;51.59106;248.4975;234.7984;35;-0.04204066;-0.06630658;-0.00666536;-2.726257;0.07838012;0.008340411;0.007932393;0.1107977;0.01116328;-0.007389575;0.03675218;0.05909;0.0.0.0;10.111.107.227;1;0
2014-10-24 08:30:53.458;82;82;37.42044;-122.2111;95.37143;19.78;267.0891;3;5;1414164653;0.1061554;-0.06036377;-1.33902;19.02504;-16.14941;48.61702;248.6321;234.933;35;0.09279252;0.3679879;-0.0180043;-2.722485;0.08640353;-0.00181551;-0.06166909;-0.3153262;-0.006971702;0.01985948;-0.06217928;-0.3427519;0.0.0.0;10.111.107.227;1;0
2014-10-24 08:30:54.458;83;83;37.42043;-122.2113;95.18332;19.49;267.8906;3;5;1414164654;0.0594635;-0.008987427;-0.9380951;19.22599;-16.0141;49.31483;248.92;235.2209;35;-0.05375431;-0.1072934;-0.03426157;-2.7252;0.07446801;-0.01497064;0.0008670212;0.05416359;-0.01960767;-0.03352783;0.005125743;0.06202768;0.0.0.0;10.111.107.227;1;0
2014-10-24 08:30:55.458;84;84;37.42042;-122.2115;95.33035;19.2;268.9453;3;5;1414164655;0.0333252;-0.06452942;-0.9069366;19.05854;-12.29391;47.45397;251.9237;238.2246;35;-0.0117773;-0.02039582;-0.02256683;-2.742744;0.0620889;0.01527617;-0.0003317038;0.04083327;-0.01222861;-0.01870681;-0.07261505;0.01449718;0.0.0.0;10.111.107.227;1;0
2014-10-24 08:30:56.458;85;85;37.42042;-122.2117;96.36044;19.43;270.3516;3;5;1414164656;0.02037048;-0.001800537;-0.97966;19.35998;-13.74815;45.82571;248.2581;234.559;35;0.01094559;-0.01095864;-0.009523997;-2.75598;0.05443655;0.03356573;0.004501602;0.006904319;-0.01096322;0.008075199;-0.05242385;0.04573152;0.0.0.0;10.111.107.227;1;0
2014-10-24 08:30:57.458;86;86;37.42043;-122.2119;96.94705;19.84;271.7578;3;5;1414164657;0.08322144;-0.01197815;-0.9595795;19.64465;-13.02109;48.66688;251.8871;238.188;35;-0.0469739;-0.1184774;0.00510528;-2.76179;0.07543296;0.01040361;-0.01776004;0.004741337;0.01530701;0.0727597;0.001339703;0.0653854;0.0.0.0;10.111.107.227;1;0
2014-10-24 08:30:58.458;87;87;37.42044;-122.2122;96.97147;19.8;271.7578;3;5;1414164658;0.1308899;-0.0271759;-1.001511;19.74513;-13.39308;49.36467;255.5394;241.8403;35;0.005909022;-0.009806825;0.009932259;-2.749961;0.09866847;-0.01226465;-0.01810044;-0.02898598;0.0187383;0.06888787;0.007770444;-0.04805997;0.0.0.0;10.111.107.227;1;0
2014-10-24 08:30:59.458;88;88;37.42045;-122.2124;96.76901;19.78;271.1883;3;5;1414164659;0.05839539;0.02575684;-0.9830627;19.04178;-13.62975;48.13516;256.0645;242.3654;35;-0.01693025;-0.1175485;0.009749566;-2.733965;0.1037875;-0.01809805;0.01759432;0.09345501;0.01808424;-0.022255;-0.03787245;-0.005559237;0.0.0.0;10.111.107.227;1;0
2014-10-24 08:31:00.458;89;89;37.42046;-122.2126;97.09818;19.68;271.1883;3;5;1414164660;0.09886169;0.1296692;-0.9302521;19.52744;-12.22623;50.41136;260.9364;247.2373;35;-0.05399373;-0.09770046;-0.01337333;-2.725814;0.09734039;-0.04215102;-0.01872224;0.1568641;-0.003905023;-0.02190511;0.0574098;0.01945234;0.0.0.0;10.111.107.227;1;0
2014-10-24 08:31:01.458;90;90;37.42046;-122.2128;96.55954;19.06;271.1883;3;5;1414164661;-0.01365662;0.1231232;-1.043549;20.38153;-13.35922;52.15591;263.7754;250.0763;35;0.01838114;0.04608653;-0.02976296;-2.74134;0.0678929;-0.09334603;-0.01164785;-0.09678727;-0.01406317;-0.05216454;0.09712761;0.001378737;0.0.0.0;10.111.107.227;1;0
2014-10-24 08:31:02.458;91;91;37.42048;-122.2131;95.82791;17.91;271.1883;3;5;1414164662;0.05160522;0.1605682;-0.918457;19.10878;-10.99187;50.69382;271.3372;257.6381;35;0.01939314;0.001107342;-0.01162896;-2.750839;0.06508024;-0.1241864;0.006061811;0.09224429;-0.01250909;-0.05238747;0.06674533;0.04043004;0.0.0.0;10.111.107.227;1;0
2014-10-24 08:31:03.458;92;92;37.42049;-122.2132;95.32242;16.53;271.1883;3;5;1414164663;0.007553101;0.1405487;-0.8754272;18.69012;-12.86884;49.51415;271.5406;257.8415;35;-0.0001547297;0.07998405;0.01152776;-2.741444;0.06789713;-0.1359615;0.00322008;0.04128234;0.01260505;0.05100624;0.01147547;0.02091354;0.0.0.0;10.111.107.227;1;0
2014-10-24 08:31:04.458;93;93;37.42051;-122.2134;94.63828;15.02;271.1883;3;5;1414164664;0.08532715;0.1659393;-0.9808197;17.76905;-11.66823;49.29813;272.9443;259.2452;35;-0.02283581;-0.1186566;-0.0002514024;-2.729333;0.06667526;-0.1571057;-0.01270471;-0.05072101;0.01715028;-0.03786648;0.01068452;-0.04501267;0.0.0.0;10.111.107.227;1;0
2014-10-24 08:31:05.458;94;94;37.42052;-122.2135;94.24985;13.57;271.1883;3;5;1414164665;0.02853394;0.1287994;-1.002747;18.18771;-11.61751;49.18181;274.0281;260.329;35;0.01073227;0.03988696;0.007947405;-2.715803;0.07193939;-0.1598769;0.002790177;-0.04089947;0.01676683;0.04045898;-0.01808341;-0.0106985;0.0.0.0;10.111.107.227;1;0
2014-10-24 08:31:06.458;95;95;37.42053;-122.2137;94.10526;12.2;270;3;5;1414164666;0.1075745;0.07398987;-0.9682159;17.71881;-11.85426;48.98241;271.1347;257.4356;35;-0.0004364921;-0.02203553;0.03906697;-2.683599;0.07307489;-0.14282;0.01936647;0.0440822;0.04507031;0.002776201;-0.04325967;-0.02405353;0.0.0.0;10.111.107.227;1;0
2014-10-24 08:31:07.458;96;96;37.42053;-122.2138;93.65536;11.29;270;3;5;1414164667;0.1200409;0.00617981;-0.936615;17.55135;-12.4292;47.6532;267.402;253.7029;35;0.002977148;0.02029515;0.05537564;-2.62805;0.1008675;-0.03966092;-0.003316659;-0.002603768;0.06284263;0.004546236;-0.0324026;0.05571927;0.0.0.0;10.111.107.227;1;0
2014-10-24 08:31:08.458;97;97;37.42052;-122.2139;93.30856;11.33;267.0331;3;5;1414164668;0.04156494;0.02679443;-1.009705;17.43412;-14.50911;49.39778;261.8104;248.1113;35;-0.01327027;-0.02537114;0.003092196;-2.585829;0.08431709;-0.01831458;0.01392361;-0.004941069;0.0286428;-0.02069601;0.02868352;0.035236;0.0.0.0;10.111.107.227;1;0
2014-10-24 08:31:09.458;98;98;37.42052;-122.2139;93.30856;11.33;267.0331;3;5;1414164668;0.0483551;0.08076477;-1.014069;17.5681;-14.13712;48.96578;258.7706;245.0715;35;0.01426576;-0.01476377;0.01629641;-2.566187;0.07165857;-0.06052035;0.007637478;0.01334746;0.02441827;-0.02335521;0.1176477;0.01814476;0.0.0.0;10.111.107.227;1;0
2014-10-24 08:31:10.459;99;99;37.42052;-122.2141;93.04355;11.1;267.0331;3;5;1414164669;0.04405212;0.1095123;-0.9727478;16.74752;-13.37621;48.31786;258.9096;245.2105;35;-0.02893205;-0.05435299;0.004860003;-2.553919;0.06552365;-0.09410889;-0.0154679;0.006530775;0.01298198;0.003263885;0.03182342;-0.01469432;0.0.0.0;10.111.107.227;1;0
2014-10-24 08:31:11.459;100;100;37.42051;-122.2142;92.7247;10.23;266.1328;3;5;1414164670;0.06208801;0.05802917;-1.019882;16.68051;-15.64207;48.71662;258.0133;244.3142;35;0.004806207;-0.05584249;0.002253833;-2.554307;0.06324494;-0.1003269;-0.003304544;0.005214049;0.0004434815;-0.00113265;0.0008087172;-0.01071039;0.0.0.0;10.111.107.227;1;0
2014-10-24 08:31:12.459;101;101;37.42051;-122.2143;92.50674;9.29;265.7812;3;5;1414164671;0.05699158;0.0524292;-1.026443;18.0035;-14.74582;49.79659;257.8119;244.1128;35;0.007132212;-0.02557673;0.008646485;-2.552237;0.06947204;-0.09804872;0.02188342;0.03160765;0.008223209;-0.0157533;-0.0342778;0.001036194;0.0.0.0;10.111.107.227;1;0
2014-10-24 08:31:13.458;102;102;37.42049;-122.2145;91.79501;7.76;265.7812;3;5;1414164673;0.05943298;0.0222168;-1.011963;16.12789;-15.55751;47.86923;256.5103;242.8112;35;-0.02530562;0.01476164;0.001733451;-2.550568;0.06307834;-0.04418253;-0.03309064;-0.04432248;0.001781976;0.01218979;-0.01981513;-0.01092781;0.0.0.0;10.111.107.227;1;0
2014-10-24 08:31:14.458;103;103;37.42049;-122.2146;91.44485;7.46;265.452;3;5;1414164674;0.008605957;0.03594971;-1.019455;16.93172;-15.08405;48.83288;250.0323;236.3332;35;-0.01915958;-0.1089539;-0.006200904;-2.548279;0.05950614;-0.05811333;0.03067144;-0.00485037;-0.006237989;-0.05076468;-0.02213092;-0.02291004;0.0.0.0;10.111.107.227;1;0
2014-10-24 08:31:15.458;104;104;37.42048;-122.2146;90.47183;6.78;265.452;3;5;1414164675;0.01649475;0.08248901;-1.019104;17.11593;-14.66138;48.98238;251.9017;238.2026;35;-0.02168585;-0.0107376;0.001688977;-2.559036;0.05182559;-0.05616331;-0.001879513;0.06697296;-0.00809786;-0.03522597;0.02635522;-0.02202128;0.0.0.0;10.111.107.227;1;0
2014-10-24 08:31:16.458;105;105;37.42048;-122.2147;90.72775;6.08;265.452;3;5;1414164676;0.06637573;0.0994873;-1.008682;17.40063;-14.10336;48.60027;252.8312;239.1321;35;-0.004899418;-0.03274783;0.008216118;-2.563072;0.05464117;-0.07939446;0.01373468;-0.01910299;0.002510998;0.01887653;0.02258711;-0.01751626;0.0.0.0;10.111.107.227;1;0
2014-10-24 08:31:17.457;106;106;37.42047;-122.2148;90.82449;5.14;265.452;3;5;1414164677;0.07406616;0.09889221;-0.9795074;18.38868;-15.10101;48.58367;254.5104;240.8113;35;0.008231298;-0.08143228;0.01936118;-2.56642;0.06102813;-0.09640341;0.01741155;0.002791405;0.0004709046;0.01647189;0.01197643;-0.01018883;0.0.0.0;10.111.107.227;1;0
2014-10-24 08:31:18.458;107;107;37.42047;-122.2148;90.89767;4.05;264.9994;3;5;1414164678;0.03097534;0.174469;-0.9538269;18.47242;-14.77972;48.86609;255.9945;242.2954;35;-0.03017628;-0.05799992;0.008474179;-2.566254;0.05750397;-0.1144945;-0.01627726;-0.06249506;0.002845663;0.02026607;0.04536247;-0.02231905;0.0.0.0;10.111.107.227;1;0
2014-10-24 08:31:19.458;108;108;37.42047;-122.2148;91.42245;2.18;264.9994;3;5;1414164679;0.056427;0.1557922;-1.024872;18.02028;-15.54065;49.0821;258.7804;245.0813;35;0.02523265;0.03008387;0.003447728;-2.566954;0.05839816;-0.1547361;0.01247217;0.05113722;0.005910702;-0.01620951;0.01433767;0.02878735;0.0.0.0;10.111.107.227;1;0
2014-10-24 08:31:20.459;109;109;37.42047;-122.2149;91.81198;0.68;264.9994;3;5;1414164680;0.07385254;0.1289368;-0.9763184;18.62315;-15.06715;49.21497;264.1634;250.4643;35;0.01077728;0.06780621;0.003221892;-2.567927;0.05787418;-0.1539839;0.004352148;0.00871989;-0.001807605;-0.008176774;-0.0023904;-0.05470054;0.0.0.0;10.111.107.227;1;0
2014-10-24 08:31:21.459;110;110;37.42047;-122.2149;91.95651;0;264.9994;3;5;1414164681;0.06111145;0.0001678467;-0.9279327;18.84086;-15.38841;49.69682;254.5308;240.8317;35;0.04573527;0.1742677;-0.003569435;-2.568904;0.05940071;-0.08238492;-0.0493493;-0.1826791;0.003958726;0.02260742;-0.1087963;-0.04054983;0.0.0.0;10.111.107.227;1;0
2014-10-24 08:31:22.458;111;111;37.42047;-122.2149;91.95651;0;264.9994;3;5;1414164681;0.04299927;-0.0001525879;-0.9956512;18.92459;-15.13478;49.84635;250.8271;237.128;35;-0.05175161;-0.2166692;0.004335094;-2.569182;0.06208611;-0.03279541;0.02184279;0.07600517;0.005479801;-0.01294061;-0.03310997;0.07805722;0.0.0.0;10.111.107.227;1;0
2014-10-24 08:31:23.458;112;112;37.42047;-122.2149;92.02408;0;264.9994;3;5;1414164683;0.04489136;0.001022339;-0.966507;18.63989;-15.5237;49.59712;248.75;235.0509;35;0.02765267;0.145301;-0.0006532734;-2.569629;0.06004481;-0.01318384;-0.02851214;-0.1188153;-0.000985314;-0.00459886;-0.02723681;-0.0414702;0.0.0.0;10.111.107.227;1;0
2014-10-24 08:31:24.460;113;113;37.42047;-122.2149;92.02408;0;264.9994;3;5;1414164683;0.04920959;-0.007080078;-0.9467468;18.90784;-15.11786;49.33124;249.3254;235.6263;35;-0.05051617;-0.1899795;0.0008655274;-2.568976;0.06277017;-0.003369387;0.03415933;0.154502;-0.002110902;-0.02667209;-0.006390621;0.007058138;0.0.0.0;10.111.107.227;1;0
2014-10-24 08:31:25.459;114;114;37.42047;-122.2149;91.68033;0;264.9994;3;5;1414164685;0.07270813;-0.01893616;-1.028732;18.9581;-15.37152;49.38108;248.8152;235.1161;35;0.01190486;0.01075065;0.01147902;-2.569614;0.06175068;0.0005040935;0.0307696;0.1323381;-0.00354831;-0.01186097;-0.006301327;0.002671543;0.0.0.0;10.111.107.227;1;0
2014-10-24 08:31:26.459;115;115;37.42047;-122.2149;91.83255;0;264.9994;3;5;1414164686;0.0489502;-0.005905151;-0.9483948;18.25474;-15.37146;49.28138;247.9634;234.2643;35;0.007295197;0.0218041;-0.006983341;-2.569119;0.06104679;0.002440119;0.01767442;0.05683805;0.002941057;-0.002704861;-0.02346931;-0.04367483;0.0.0.0;10.111.107.227;1;0
2014-10-24 08:31:27.458;116;116;37.42047;-122.2149;91.88235;0;264.9994;3;5;1414164687;0.0499115;-0.01837158;-1.030365;18.80737;-15.59125;49.59704;248.1943;234.4952;35;0.01802827;0.0992941;-2.47674e-05;-2.569754;0.06052633;0.001919809;-0.03631197;-0.1334325;0.008601731;0.006893548;-0.009737907;0.01098438;0.0.0.0;10.111.107.227;1;0
2014-10-24 08:31:28.458;117;117;37.42047;-122.2149;92.18698;0;264.9994;3;5;1414164688;0.04518127;-0.001586914;-0.9937286;18.27148;-15.1516;49.5638;248.2126;234.5135;35;0.02654985;0.09926507;-0.008331699;-2.569966;0.06087372;0.00396266;-0.004851094;-0.0005680999;0.009226546;0.009171675;0.01282801;0.04699857;0.0.0.0;10.111.107.227;1;0
2014-10-24 08:31:29.458;118;118;37.42047;-122.2149;92.36618;0;264.9994;3;5;1414164689;0.0599823;0.004333496;-1.003311;18.37197;-15.35454;50.02904;248.1129;234.4138;35;-0.03860145;-0.1670939;0.0111954;-2.569412;0.06049876;0.004275868;0.01234189;0.05248479;-0.005799384;-0.006506233;0.002811011;-0.01552575;0.0.0.0;10.111.107.227;1;0
2014-10-24 08:31:30.458;119;119;37.42047;-122.2149;92.45493;0;264.9994;3;5;1414164690;0.05874634;-0.0216217;-0.988327;18.82412;-15.91254;49.77978;247.9519;234.2528;35;0.02284353;0.09561361;0.0001062601;-2.569105;0.06105513;0.005499221;-0.02967727;-0.05047269;-0.0004266513;0.01378231;-0.01108711;-0.003587362;0.0.0.0;10.111.107.227;1;0
2014-10-24 08:31:31.458;120;120;37.42047;-122.2149;92.63431;0;264.9994;3;5;1414164691;0.06802368;-0.006149292;-1.020767;18.84088;-15.48976;49.9293;248.2818;234.5827;35;-0.05307494;-0.1924547;0.01424978;-2.56858;0.05903653;0.00364267;-0.01624653;-0.03010071;-0.00720772;0.008182594;-0.02478446;-0.006753656;0.0.0.0;10.111.107.227;1;0
2014-10-24 08:31:32.458;121;121;37.42047;-122.2149;92.51932;0;264.9994;3;5;1414164692;0.06744385;-0.0002746582;-0.9934998;18.4892;-15.16843;49.77979;248.802;235.103;35;0.01677871;0.0362086;0.005666674;-2.568924;0.06071724;0.004684026;0.04036456;0.1002237;-0.002108986;0.003422902;0.00567583;-0.001334876;0.0.0.0;10.111.107.227;1;0
2014-10-24 08:31:33.458;122;122;37.42047;-122.2149;92.47183;0;264.9994;3;5;1414164693;0.05686951;0.01062012;-0.9622192;18.69017;-15.40517;49.71334;248.1376;234.4385;35;-0.004816327;0.006105563;-0.0001161138;-2.568398;0.05973599;0.004322325;-0.0389159;-0.133307;2.87052e-05;-0.01990499;-0.0002248077;0.05281822;0.0.0.0;10.111.107.227;1;0
2014-10-24 08:31:34.458;123;123;37.42047;-122.2149;92.55783;0;264.9994;3;5;1414164694;0.04444885;-0.01498413;-0.9580994;18.82414;-15.26988;49.68009;248.6089;234.9098;35;-0.04937581;-0.1706117;0.005926332;-2.568477;0.05927841;0.00386414;0.0189813;0.05408475;-0.00428634;0.01875968;-0.01968018;-0.05268248;0.0.0.0;10.111.107.227;1;0
2014-10-24 08:31:35.458;124;124;37.42047;-122.2149;92.40848;0;264.9994;3;5;1414164695;0.06781006;-0.01939392;-1.046677;18.27152;-15.42206;49.16503;247.6177;233.9186;35;0.02045441;0.0471241;-0.0002751045;-2.568745;0.0603645;0.004712192;0.02630131;0.09756954;-0.003778033;-0.01090396;0.01504237;0.0394273;0.0.0.0;10.111.107.227;1;0
2014-10-24 08:31:36.459;125;125;37.42047;-122.2149;92.3812;0;264.9994;3;5;1414164696;0.05140686;0.01298523;-0.946991;18.48922;-15.33751;49.71334;248.1104;234.4113;35;-0.03371322;-0.1428424;0.004150803;-2.568796;0.06034013;0.004149608;0.02633984;0.1095369;0.003663427;-0.01687649;0.01843182;0.05780284;0.0.0.0;10.111.107.227;1;0
2014-10-24 08:31:37.458;126;126;37.42047;-122.2149;92.2952;0;264.9994;3;5;1414164697;0.06840515;-0.007461548;-1.034119;18.80741;-15.28674;49.43088;248.5215;234.8224;35;0.01432328;0.05440172;0.009379121;-2.568624;0.05827882;0.004165738;0.004994808;0.01290199;-0.01723353;0.01015982;-0.003295821;-0.03582504;0.0.0.0;10.111.107.227;1;0
2014-10-24 08:31:38.458;127;127;37.42047;-122.2149;92.25119;0;264.9994;3;5;1414164698;0.04182434;0.01489258;-0.9227295;18.82415;-15.40506;49.91273;248.2614;234.5623;35;-0.04813264;-0.1645389;0.002327336;-2.568828;0.05993632;0.006399835;0.02173117;0.08896308;-0.0002810337;-0.01807487;0.02129237;0.07545442;0.0.0.0;10.111.107.227;1;0
2014-10-24 08:31:39.458;128;128;37.42047;-122.2149;92.18588;0;264.9994;3;5;1414164699;0.07156372;-0.02853394;-1.041245;18.52272;-15.54037;49.71334;248.0364;234.3373;35;-0.002446113;-0.007274957;0.00355239;-2.568232;0.05927778;0.006001755;-0.03713134;-0.1156955;0.002712544;-0.01699041;0.01259352;0.07279531;0.0.0.0;10.111.107.227;1;0
2014-10-24 08:31:40.458;129;129;37.42047;-122.2149;92.41464;0;264.9994;3;5;1414164700;0.05455017;0.01074219;-0.9727631;18.67344;-15.86176;49.66349;247.644;233.9449;35;-0.03131665;-0.1149703;0.004402738;-2.567891;0.05895779;0.005766264;0.02436687;0.08255939;-0.003858159;0.01315986;-0.01350562;-0.04383784;0.0.0.0;10.111.107.227;1;0
2014-10-24 08:31:41.458;130;130;37.42047;-122.2149;92.44937;0;264.9994;3;5;1414164701;0.06556702;-0.02593994;-0.990448;18.67345;-15.08391;49.72988;248.6156;234.9165;35;-0.02530802;-0.09076772;0.004747351;-2.56793;0.05872075;0.005961161;0.04244128;0.1271377;0.0006695071;0.005049995;-0.004826839;-0.04094113;0.0.0.0;10.111.107.227;1;0
2014-10-24 08:31:42.460;131;131;37.42047;-122.2149;92.44937;0;264.9994;3;5;1414164701;0.05606079;-0.0001525879;-1.008881;18.58972;-15.30373;50.1785;248.2078;234.5087;35;0.02525422;0.08467761;0.0001147822;-2.56709;0.05952644;0.004761059;-0.009255732;-0.02049666;0.005441413;-0.009685932;0.01452667;0.05238621;0.0.0.0;10.111.107.227;1;0
2014-10-24 08:31:43.458;132;132;37.42047;-122.2149;92.37973;0;264.9994;3;5;1414164703;0.04515076;0.002044678;-0.9457245;18.63996;-15.11774;49.99579;248.6314;234.9323;35;-0.03010544;-0.09920834;0.003315103;-2.566581;0.05871195;0.005899221;-0.03198871;-0.07491487;-0.001765233;0.0138173;-0.01885057;-0.02098176;0.0.0.0;10.111.107.227;1;0
2014-10-24 08:31:44.462;133;133;37.42047;-122.2149;92.37973;0;264.9994;3;5;1414164703;0.07809448;-0.07626343;-1.0121;18.67345;-15.35442;48.69981;247.1623;233.4632;35;-0.01082895;-0.04357091;0.0006045375;-2.565634;0.06075073;0.03599391;0.01264266;0.03138015;-0.00458602;0.0006357735;-0.02260761;-0.002384462;0.0.0.0;10.111.107.227;1;0
2014-10-24 08:31:45.459;134;134;37.42048;-122.2148;92.30142;0.24;264.9994;3;5;1414164704;0.08181763;-0.08543396;-1.004761;18.32176;-15.43898;48.58353;245.7553;232.0562;35;-0.008426508;0.006137255;-0.0002314287;-2.565511;0.05818357;0.06295317;0.008973592;-0.007492318;-0.001314844;0.005746179;0.0007930657;-0.0043106;0.0.0.0;10.111.107.227;1;0
2014-10-24 08:31:46.459;135;135;37.42048;-122.2148;92.15146;1.39;264.9994;3;5;1414164706;0.06010437;-0.07461548;-0.9862518;17.80262;-14.88092;49.8629;244.5475;230.8484;35;0.001171525;0.04728016;0.001559547;-2.564989;0.05640867;0.06553645;-0.01642736;-0.04729152;-0.006122796;0.002519129;0.002379192;0.02396083;0.0.0.0;10.111.107.227;1;0
2014-10-24 08:31:47.458;136;136;37.42048;-122.2148;92.15146;1.39;264.9994;3;5;1414164706;0.07122803;0.00189209;-1.021591;18.33852;-15.38818;49.66351;244.2381;230.539;35;0.005995574;0.0193444;0.001538508;-2.564957;0.05856074;0.0297903;-0.009671773;-0.03161269;0.001483919;0.01135343;0.01742627;0.004251564;0.0.0.0;10.111.107.227;1;0
2014-10-24 08:31:48.458;137;137;37.42048;-122.2149;92.09225;1.6;264.9994;3;5;1414164708;0.04904175;-0.03422546;-0.9706726;18.03707;-15.72633;48.63335;244.3932;230.6941;35;-0.01095598;-0.03756522;0.01166917;-2.564385;0.05855416;0.03561966;-0.006298691;-0.05111801;0.008787807;-0.002254944;-0.01814459;0.01970192;0.0.0.0;10.111.107.227;1;0
2014-10-24 08:31:49.458;138;138;37.42048;-122.2149;92.29227;1.72;264.9994;3;5;1414164709;0.09785461;-0.1322174;-1.053787;18.94139;-15.35432;48.40073;243.2606;229.5615;35;0.008438226;-0.1152997;0.001996306;-2.56442;0.05874255;0.05868832;0.02626318;-0.03076345;-0.007226111;0.00789011;-0.08528152;-0.0609997;0.0.0.0;10.111.107.227;1;0
2014-10-24 08:31:50.459;139;139;37.42048;-122.2149;92.27066;1.72;264.9994;3;5;1414164710;0.07122803;-0.1865234;-0.9954376;18.63997;-15.96306;48.79951;240.4526;226.7535;35;-0.001302818;-0.03278591;0.009556754;-2.565004;0.05943092;0.1697799;0.009403329;0.05165233;8.571528e-05;-0.0116822;-0.0328779;0.01667301;0.0.0.0;10.111.107.227;1;0
2014-10-24 08:31:51.458;140;140;37.42047;-122.215;92.93491;2.74;264.9994;4;5;1414164711;0.07807922;-0.1450043;-1.006149;18.03707;-15.48964;48.6666;238.5579;224.8588;35;0.0289411;-0.04753236;-0.003049319;-2.565092;0.0608587;0.1676914;0.02928632;-0.04697995;0.001306385;0.01902677;0.04376813;-0.04466122;0.0.0.0;10.111.107.227;1;0
2014-10-24 08:31:52.458;141;141;37.42047;-122.2151;92.74167;6.55;264.9994;4;5;1414164712;0.06021118;-0.001831055;-1.014328;17.58491;-15.03305;48.64993;237.4942;223.7951;30;-0.003655721;0.009714146;0.003620301;-2.561877;0.04865205;0.1142096;0.00794319;0.001906564;0.01194355;-0.02042295;0.06104402;-0.0107269;0.0.0.0;10.111.107.227;1;0
2014-10-24 08:31:53.458;142;142;37.42046;-122.2151;92.2142;6.56;262.9332;3;5;1414164713;0.01953125;-0.0153656;-0.9888916;17.09925;-16.09836;47.80257;238.4528;224.7537;35;0.07914115;-0.05541372;0.02914856;-2.557292;0.0427583;0.05101869;0.07859469;-0.02377638;0.009054537;-0.02653059;0.06918503;-0.01939538;0.0.0.0;10.111.107.227;1;0
2014-10-24 08:31:54.458;143;143;37.42046;-122.2151;92.2142;6.56;262.9332;3;5;1414164713;0.03315735;-0.1205292;-0.9746094;17.80261;-16.70712;48.20127;239.2389;225.5398;35;-0.00962493;-0.007192133;-0.0003536678;-2.553195;0.04564939;0.06458703;-0.01873655;-0.01999662;-0.008997612;0.01810602;-0.06698862;0.07519877;0.0.0.0;10.111.107.227;1;0
2014-10-24 08:31:55.458;144;144;37.42045;-122.2152;92.29672;6.5;262.9332;3;5;1414164714;0.06312561;-0.1147614;-1.013367;17.65188;-16.28435;48.15142;238.8138;225.1147;35;0.002182461;-0.07047763;0.02168772;-2.542117;0.05444823;0.09999187;0.02525784;0.01131495;0.0302207;-0.000621661;-0.01031261;0.05360429;0.0.0.0;10.111.107.227;1;0
2014-10-24 08:31:56.473;145;145;37.42044;-122.2153;92.56161;7.46;262.1467;3;5;1414164715;0.08921814;-0.1169281;-0.9487305;17.78585;-17.12982;48.18459;238.0597;224.3606;35;-0.001533981;-0.008633436;0.02931128;-2.517689;0.05968911;0.115331;-0.002655897;-0.02102927;0.0126451;-0.003532278;-0.01497514;0.01114948;0.0.0.0;10.111.107.227;1;0
2014-10-24 08:31:57.458;146;146;37.42043;-122.2154;92.69376;8.37;262.1467;3;5;1414164716;0.09481812;-0.08395386;-0.9573822;17.2667;-18.05983;48.30091;236.901;223.2019;35;-0.01256985;-0.09354141;0.04925996;-2.493599;0.05895193;0.1218648;0.006217724;0.001956445;0.02660552;0.01434936;0.01923793;-0.01226866;0.0.0.0;10.111.107.227;1;0
2014-10-24 08:31:58.458;147;147;37.42042;-122.2155;92.55869;9.2;261.1074;3;5;1414164717;0.09259033;-0.09494019;-1.005951;17.04899;-17.9753;48.28429;236.1736;222.4745;35;-0.007660317;-0.05108476;0.03987897;-2.466666;0.06510836;0.1111197;0.01014595;0.005797653;0.03115172;0.0270137;0.0537928;-0.03029161;0.0.0.0;10.111.107.227;1;0
2014-10-24 08:31:59.469;148;148;37.42039;-122.2157;90.53104;10.15;258.4078;3;5;1414164719;0.05096436;-0.05709839;-1.05629;17.06574;-18.87152;48.36734;235.0221;221.323;35;-0.002761432;-0.05715277;0.03264396;-2.439969;0.07192819;0.09783348;-0.006101293;0.01699795;0.01543855;-0.01863557;0.04297474;-0.04237415;0.0.0.0;10.111.107.227;1;0
2014-10-24 08:32:00.471;149;149;37.42039;-122.2157;90.53104;10.15;258.4078;3;5;1414164719;0.04611206;-0.0811615;-0.9611664;16.98201;-19.73392;48.21779;234.6878;220.9887;35;-0.04112134;-0.04946715;0.01798246;-2.424235;0.08137928;0.1028041;-0.01248719;0.02797929;0.01068469;-0.01750581;-0.005470125;0.01747507;0.0.0.0;10.111.107.227;1;0
2014-10-24 08:32:01.474;150;150;37.42037;-122.2158;92.15677;10.66;253.4123;3;5;1414164720;0.07801819;-0.06898499;-0.9958038;16.19492;-19.91992;48.53345;232.981;219.2819;35;-0.007480021;-0.08860364;0.02494157;-2.415373;0.07256705;0.08792631;-0.01936653;-0.05678727;0.007977566;0.005794895;0.01882807;-0.002288527;0.0.0.0;10.111.107.227;1;0
2014-10-24 08:32:02.458;151;151;37.42036;-122.2159;92.44809;11.27;253.4123;3;5;1414164721;0.1080017;-0.009384155;-1.062393;15.87674;-20.84995;48.91556;233.5689;219.8698;30;-0.02432132;0.006158826;0.02132073;-2.403007;0.06869514;0.05007032;-0.04782699;-0.03010792;0.004353199;0.03944661;0.04066524;-0.06600207;0.0.0.0;10.111.107.227;1;0
2014-10-24 08:32:03.473;152;152;37.42027;-122.2162;92.24637;11.49;249.9377;3;5;1414164723;0.08462524;-0.08462524;-0.9990082;15.99397;-20.69775;49.29771;235.229;221.5299;30;0.03455771;-0.052623;0.0326413;-2.392572;0.0616414;0.04240732;0.0001149385;-0.02078306;-0.002554969;0.03699427;-0.02088359;-0.02887385;0.0.0.0;10.111.107.227;1;0
2014-10-24 08:32:04.488;153;153;37.42027;-122.2162;92.24637;11.49;249.9377;3;5;1414164724;0.03367615;-0.09103394;-0.9955139;16.06095;-21.20503;48.36723;232.1389;218.4398;30;0.009430786;-0.07052823;0.01946824;-2.393288;0.05038683;0.05941309;0.02043697;0.003415403;-0.009022857;-0.02572525;-0.03304435;0.036199;0.0.0.0;10.111.107.227;1;0
2014-10-24 08:32:05.459;154;154;37.42023;-122.2163;92.63193;11.55;249.9377;3;5;1414164724;-0.03813171;-0.1120148;-0.9515839;15.59205;-21.54326;48.33401;228.8454;215.1463;30;-0.009836651;-0.07400365;0.02005493;-2.397866;0.04523149;0.08332168;-0.002432871;0.0465553;-0.02268022;-0.01405334;-0.08329386;-0.08862543;0.0.0.0;10.111.107.227;1;0
2014-10-24 08:32:06.459;155;155;37.42019;-122.2164;93.01627;11.92;249.9377;3;5;1414164725;0.0461731;-0.1277924;-1.04805;15.74277;-21.42488;48.2177;228.2757;214.5766;30;0.009561281;-0.009819075;0.006372145;-2.409487;0.03618839;0.09210622;-0.01571277;-0.06576793;-0.01932544;0.04263193;0.01728427;0.02599306;0.0.0.0;10.111.107.227;1;0
2014-10-24 08:32:07.458;156;156;37.42015;-122.2166;93.32938;12.52;249.9377;3;5;1414164726;0.07559204;0.0005340576;-1.082642;15.44133;-20.51173;48.35069;229.0293;215.3302;30;0.0517644;-0.007724765;0.0003826962;-2.422596;0.03242144;0.05317703;0.04063489;-0.02113764;-0.01467905;-0.008413645;0.06700695;-0.02053881;0.0.0.0;10.111.107.227;1;0
2014-10-24 08:32:08.458;157;157;37.42011;-122.2167;93.61032;13.06;249.7885;3;5;1414164727;-0.01725769;-0.0962677;-0.8516998;15.45807;-21.6786;48.06821;230.1636;216.4645;35;0.01685888;0.08233882;-0.002620018;-2.437551;0.03398338;0.03614246;-0.001374312;-0.08644379;-0.001131886;-0.01803973;-0.03198064;-0.08088095;0.0.0.0;10.111.107.227;1;0
2014-10-24 08:32:09.458;158;158;37.42007;-122.2169;94.2258;12.93;249.7885;3;5;1414164728;0.08544922;-0.04797363;-1.018158;16.26191;-21.44189;48.43375;230.9496;217.2505;35;-0.03128229;-0.133149;0.00183838;-2.452527;0.04765257;0.05525026;0.02110057;0.08403909;-0.01925663;0.02316264;0.04328978;0.04120968;0.0.0.0;10.111.107.227;1;0
2014-10-24 08:32:10.458;159;159;37.4201;-122.217;94.55307;13.29;252.0127;3;5;1414164729;0.06326294;-0.1053772;-0.9994507;16.66383;-21.9492;49.39742;231.4479;217.7488;35;-0.00960549;0.01465005;-0.002667156;-2.466375;0.05319053;0.07028744;-0.002354982;0.05189689;-0.02639423;0.0382439;-0.05576225;-0.03070489;0.0.0.0;10.111.107.227;1;0
2014-10-24 08:32:11.459;160;160;37.42006;-122.2171;94.56223;13.32;252.0127;3;5;1414164730;0.03250122;-0.1310883;-0.9837799;17.63513;-21.40802;49.39744;231.4338;217.7347;35;-0.008015849;-0.05310769;-0.03490792;-2.499106;0.0404986;0.07065506;0.02114864;0.06909642;-0.03773225;-0.02859147;0.004357888;0.0002728742;0.0.0.0;10.111.107.227;1;0
2014-10-24 08:32:12.458;161;161;37.42002;-122.2173;95.72177;13.51;254.7448;3;5;1414164731;-0.01054382;-0.02705383;-1.000259;18.45572;-20.13976;50.01222;235.2927;221.5936;35;-0.02687103;-0.04426307;-0.07099934;-2.554;0.04837658;0.08413716;0.01125802;0.04726781;-0.09140399;-0.03730714;-0.02779374;-0.0261876;0.0.0.0;10.111.107.227;1;0
2014-10-24 08:32:13.458;162;162;37.42;-122.2174;96.14273;13.76;253.8281;3;5;1414164732;0.05397034;-0.143219;-0.9393311;20.08014;-19.20972;50.79312;236.8979;223.1988;35;-0.1364087;-0.01541384;-0.07309898;-2.62929;0.04521897;0.09486083;-0.1354413;-0.03057629;-0.09125265;-0.04541232;0.04091613;0.05369058;0.0.0.0;10.111.107.227;1;0
2014-10-24 08:32:14.459;163;163;37.41997;-122.2176;97.14426;14.35;257.3438;3;5;1414164733;0.002288818;-0.07749939;-0.971817;21.70457;-18.11053;50.71002;238.8668;225.1677;35;0.02510935;-0.1489248;-0.08715142;-2.711843;0.03583537;0.09860992;0.02609971;-0.1304205;-0.1034416;-0.04746396;0.004913815;-0.05778879;0.0.0.0;10.111.107.227;1;0
2014-10-24 08:32:15.458;164;164;37.41995;-122.2178;97.17007;14.96;260.8594;3;5;1414164734;-0.1675568;-0.1825867;-1.119415;20.71653;-14.272;50.3279;238.2169;224.5178;35;0.07635629;0.1311524;-0.1548378;-2.844399;-0.0301006;0.09929772;0.00535586;-0.08515765;-0.1928552;-0.07475801;0.07613963;0.03547105;0.0.0.0;10.111.107.227;1;0
2014-10-24 08:32:16.458;165;165;37.41994;-122.2179;97.6041;15.27;266.8359;3;5;1414164735;-0.09922791;0.03346252;-0.9856873;20.78351;-10.11223;49.26454;238.8826;225.1835;35;0.0646256;0.09864855;-0.1811557;-3.008598;-0.1139161;0.0900207;0.03524108;0.05744608;-0.1979376;-0.08544454;0.1198369;-0.05328996;0.0.0.0;10.111.107.227;1;0
2014-10-24 08:32:17.476;166;166;37.41994;-122.2181;97.55618;15.59;279.4622;3;5;1414164736;0.02519226;-0.005981445;-1.030716;20.5658;-7.017776;48.91562;244.541;230.8419;35;-0.02470428;-0.0334786;-0.05002642;3.12619;-0.07729612;0.05627505;-0.002392308;0.05964904;-0.07245032;0.1238193;0.09446862;0.05917181;0.0.0.0;10.111.107.227;1;0
2014-10-24 08:32:18.458;167;167;37.41998;-122.2183;97.5159;15.27;287.1027;3;5;1414164737;0.1268616;-0.02030945;-0.9411163;19.79545;-5.732666;48.31749;261.3626;247.6635;35;0.03239629;0.1100501;0.006630738;3.079085;-0.008040155;0.03088468;0.02351979;0.0994968;-0.01585413;0.1077372;0.006267347;-0.03546708;0.0.0.0;10.111.107.227;1;0
2014-10-24 08:32:19.458;168;168;37.42002;-122.2184;97.46347;14.58;290.4994;3;5;1414164738;0.1823273;-0.02233887;-0.9756775;19.77871;-5.817169;47.63628;265.4222;251.7231;35;0.01260874;0.00929603;0.05561479;3.087825;0.05671758;0.02886143;0.008505466;-0.05181557;0.04433684;0.1382064;-0.02605896;0.04378308;0.0.0.0;10.111.107.227;1;0
2014-10-24 08:32:20.458;169;169;37.42007;-122.2186;97.2999;14.24;290.4994;3;5;1414164739;0.1353912;0.02967834;-0.9421692;18.74043;-6.764069;47.40372;265.4174;251.7182;35;-0.0340834;-0.04355014;0.03417794;-3.139668;0.1052082;0.02281268;-0.0373316;-0.09451161;0.04692645;-0.02295561;0.006941561;0.1853588;0.0.0.0;10.111.107.227;1;0
2014-10-24 08:32:21.458;170;170;37.42012;-122.2188;96.93918;15.47;288.3511;3;5;1414164740;0.1396332;0.04396057;-1.026917;17.09927;-7.440475;47.03825;265.2826;251.5835;35;-0.01496111;-0.09715158;0.0479353;-3.099017;0.1049266;0.01089077;-0.009739757;-0.01554333;0.05090323;-0.0001289811;0.00736577;0.008677724;0.0.0.0;10.111.107.227;1;0
2014-10-24 08:32:22.459;171;171;37.42016;-122.2189;95.94449;15.65;288.3511;3;5;1414164741;0.1490936;-0.05273438;-1.019989;17.51794;-9.148346;47.08805;262.4171;248.718;35;-0.005748433;-0.1034934;0.0849591;-3.038652;0.1126459;0.01123612;0.005535634;0.06588359;0.07279823;0.04313213;0.01176994;0.01265766;0.0.0.0;10.111.107.227;1;0
2014-10-24 08:32:23.464;172;172;37.4202;-122.2191;94.70853;15.67;284.0363;3;5;1414164742;0.1891479;-0.04423523;-1.015213;17.73565;-11.49878;46.90531;254.2836;240.5845;35;0.03744325;0.06588075;0.09353421;-2.954478;0.1480214;0.03340926;0.02462928;0.03926235;0.08803318;-0.001876037;-0.0174545;0.01597871;0.0.0.0;10.111.107.227;1;0
2014-10-24 08:32:24.488;173;173;37.42022;-122.2193;93.6127;15.91;277.5946;3;5;1414164743;0.2255554;-0.05915833;-1.059891;18.12081;-13.30812;47.81919;251.1475;237.4484;35;0.04468145;-0.01908208;0.09445753;-2.861355;0.1751344;0.05099215;0.01964829;-0.04789238;0.1008788;0.07473479;0.02853963;-0.04816249;0.0.0.0;10.111.107.227;1;0
2014-10-24 08:32:25.458;174;174;37.42023;-122.2195;93.18546;16.47;269.3487;3;5;1414164744;0.1273346;-0.08656311;-0.9990845;17.83612;-15.38806;47.8025;250.348;236.6489;30;0.008959407;0.002031726;0.0591291;-2.787926;0.1898292;0.06630558;0.005536376;0.003498429;0.0640516;-0.06094194;-0.02030611;-0.01920593;0.0.0.0;10.111.107.227;1;0
2014-10-24 08:32:26.458;175;175;37.42022;-122.2197;92.56918;17.25;266.222;3;5;1414164745;0.06364441;-0.06774902;-0.9119415;18.07058;-15.92918;48.16799;245.4153;231.7162;30;-0.03019732;-0.07620423;0.0108103;-2.764962;0.1421995;0.06623722;-0.03334367;-0.02269881;-0.01569748;-0.136756;0.0008811801;0.130604;0.0.0.0;10.111.107.227;1;0
2014-10-24 08:32:27.458;176;176;37.4202;-122.2199;92.21188;17.61;263.4153;3;5;1414164746;0.01286316;-0.06095886;-0.9927521;18.6567;-16.01376;48.48365;245.517;231.8179;30;0.04577122;0.1524511;-0.00615643;-2.769849;0.1296049;0.04001366;-0.03346597;-0.02414527;-0.01182797;-0.08856577;-0.06439765;-0.07801308;0.0.0.0;10.111.107.227;1;0
2014-10-24 08:32:28.458;177;177;37.42019;-122.2201;91.94638;18.26;263.4153;3;5;1414164747;0.102005;0.003036499;-1.065674;18.48924;-15.67555;49.2479;248.6395;234.9404;30;0.01565326;0.01320901;-0.0006415555;-2.776916;0.1063551;0.01689632;0.002698662;0.1038018;-0.02314968;-0.002929151;0.01596473;-0.03331917;0.0.0.0;10.111.107.227;1;0
2014-10-24 08:32:29.458;178;178;37.42017;-122.2203;91.4144;18.56;263.4153;3;5;1414164748;0.1090393;-0.08306885;-0.9684601;19.9127;-15.92915;48.83254;247.9644;234.2653;30;0.008384963;0.02901887;0.002901514;-2.796497;0.09639946;0.002938504;-0.004496409;0.08423904;-0.02193371;0.01967121;-0.07700229;-0.05770194;0.0.0.0;10.111.107.227;1;0
