time,timestamp,recordtime,lat,long,alt,speed,course,verticalAccuracy,horizontalAccuracy,locTimeStamp,accelerationX,accelerationY,accelerationZ,HeadingX,HeadingY,HeadingZ,TrueHeading,MagneticHeading,HeadingAccuracy,RotationX,RotationY,RotationZ,motionYaw,motionRoll,motionPitch,motionRotationRateX,motionRotationRateY,motionRotationRateZ,motionUserAccelerationX,motionUserAccelerationY,motionUserAccelerationZ,en0,pdp_ip0,DeviceOrientation,State
2014-11-19 12:55:16.041,1,1,37.44987,-122.1554,13.93704,3.45,308.4469,3,5,1416430515,0.05421448,-0.5408325,-0.6634521,14.51402,-0.4381104,-10.67108,305.7664,292.0828,25,-0.04931935,0.01621173,-0.003928429,-0.0750145,0.09398589,0.560024,0.06926577,0.167479,0.05347657,-0.02628898,-0.02428964,0.1641513,0.0.0.0,10.181.213.137,1,0
2014-11-19 12:55:17.041,2,2,37.44987,-122.1554,14.12796,2.17,308.4469,3,5,1416430516,0.0249176,-0.6292877,-0.7183533,14.13888,-2.354431,-9.802643,302.2571,288.5734,25,0.8655247,0.2557298,-0.001326787,0.006612871,0.1086626,0.6460773,0.7015242,0.4155564,0.04351319,-0.07369755,-0.01334326,0.07899018,0.0.0.0,10.181.213.137,1,0
2014-11-19 12:55:18.041,3,3,37.44988,-122.1555,13.95499,1.92,308.4469,3,5,1416430517,-0.03210449,-0.698822,-0.5106354,16.30445,-3.295471,-12.09061,307.0528,293.3692,25,0.251592,-0.2890044,0.1153186,-0.03928211,0.02231031,0.7541589,0.0743275,-0.3577751,0.0651978,-0.01806001,-0.05436829,0.1367626,0.0.0.0,10.181.213.137,1,0
2014-11-19 12:55:19.041,4,4,37.44988,-122.1555,13.466,1.6,308.4469,3,5,1416430518,-0.1579285,-0.8055267,-0.7566071,15.48595,-4.424683,-10.85477,304.3057,290.6221,25,-0.2104198,-0.2644287,-0.3344145,0.004865342,0.01694232,0.7868079,-0.2573953,-0.1587754,-0.3008235,-0.169891,-0.09742383,-0.05059914,0.0.0.0,10.181.213.137,1,0
2014-11-19 12:55:20.041,5,5,37.44991,-122.1555,13.33554,3.13,308.4469,3,5,1416430519,0.1324768,-0.7891388,-0.6402893,13.88311,1.97467,-11.75656,323.5524,309.8688,25,0.08383791,0.1731731,0.139816,-0.1865953,0.1656546,0.7387868,0.1024881,0.4394562,0.2193859,0.08866451,-0.1123294,0.05890818,0.0.0.0,10.181.213.137,1,0
2014-11-19 12:55:21.040,6,6,37.44993,-122.1555,14.21078,3.98,308.4469,3,5,1416430520,0.3256836,-0.5580292,-1.173965,13.26923,8.784363,-8.917511,331.5851,317.9014,25,0.8865642,-0.7338101,0.3988116,-0.2265264,0.2208537,0.5335743,0.268323,-0.5142139,0.2702183,0.1644308,-0.04779768,-0.3689179,0.0.0.0,10.181.213.137,1,0
2014-11-19 12:55:22.040,7,7,37.44994,-122.1555,14.13525,4.78,308.4469,3,5,1416430521,-0.06365967,-0.6883087,-0.6647339,10.48978,2.26532,-15.88153,330.0648,316.3812,25,0.2071404,0.07046059,0.09776944,-0.05703375,-0.1591475,0.7441093,0.05739151,-0.04439317,0.0740991,-0.0360286,-0.0248927,-0.04171779,0.0.0.0,10.181.213.137,1,0
2014-11-19 12:55:23.042,8,8,37.44994,-122.1555,14.27075,5.81,308.4469,3,5,1416430522,-0.1622314,-0.7035217,-0.5911865,10.5239,-0.6776123,-16.71652,325.2194,311.5357,25,-0.2195899,0.05988491,0.04114557,0.03500185,-0.2102604,0.7953231,-0.224965,0.2275399,0.02383399,-0.03398798,0.01238391,0.1319631,0.0.0.0,10.181.213.137,1,0
2014-11-19 12:55:24.041,9,9,37.45004,-122.1557,14.15097,6.87,308.5006,3,5,1416430523,0.004318237,-0.6632233,-0.6869507,12.10971,2.24823,-14.82941,323.9478,310.2641,25,0.1609449,0.1530521,-0.07722901,-0.01327453,-0.1289597,0.7401304,0.4135546,0.4726419,-0.1306306,0.06193763,0.04790413,-0.02814199,0.0.0.0,10.181.213.137,1,0
2014-11-19 12:55:25.040,10,10,37.45008,-122.1558,14.26355,7.56,308.5006,3,5,1416430524,0.09091187,-0.5679626,-0.6812744,13.64437,0.9821167,-13.09259,317.934,304.2503,25,0.6416935,0.7361784,-0.1280357,-0.02463343,-0.04645745,0.7512096,0.3681092,0.2997623,-0.1601703,0.0725466,0.08581308,-0.1860624,0.0.0.0,10.181.213.137,1,0
2014-11-19 12:55:26.043,11,11,37.45012,-122.1558,14.14377,7.73,308.5006,3,5,1416430525,-0.03565979,-0.5518494,-0.7784729,14.44583,1.204529,-11.57281,314.929,301.2453,25,0.44859,0.240296,-0.07237513,-0.01451646,-0.02776794,0.7304397,0.08007814,-0.05620348,-0.02211634,0.01404358,-0.01709845,-0.2674147,0.0.0.0,10.181.213.137,1,0
2014-11-19 12:55:27.041,12,12,37.45016,-122.1559,14.14169,7.72,308.5006,3,5,1416430526,0.01499939,-0.6278229,-0.9925842,13.76378,1.717712,-12.60834,317.1688,303.4851,25,-0.04612542,-0.2108382,0.03886937,-0.004302901,-0.03638976,0.6921918,-0.2813048,-0.1572912,-0.008668412,0.03838442,0.0162778,-0.1430447,0.0.0.0,10.181.213.137,1,0
2014-11-19 12:55:28.041,13,13,37.45021,-122.156,14.37668,8.05,308.5006,3,10,1416430527,-0.08183289,-0.6170349,-0.7944336,13.98547,2.35083,-12.19083,316.981,303.2974,25,0.3955982,-0.1291361,0.1515738,-0.006986073,-0.02471447,0.6754434,0.1559438,-0.2359378,0.204143,-0.005326484,-0.01524428,-0.1444454,0.0.0.0,10.181.213.137,1,0
2014-11-19 12:55:29.041,14,14,37.45026,-122.1561,14.33414,8.15,308.5006,3,10,1416430528,0.07061768,-0.5272827,-0.8246765,13.86611,3.018066,-13.17615,320.769,307.0854,25,-0.04699574,0.00515801,-0.208603,-0.0905081,0.004350101,0.689584,-0.1745631,-0.1518289,-0.2303706,0.03443988,0.17299,-0.07452011,0.0.0.0,10.181.213.137,1,0
2014-11-19 12:55:30.041,15,15,37.45031,-122.1561,14.65765,7.84,308.5006,3,5,1416430529,-0.07731628,-0.5918427,-1.026993,12.38262,4.403992,-14.69586,326.9386,313.2549,25,0.4011671,-0.2688884,0.1949964,-0.09177202,-0.02959089,0.6506954,0.1212755,-0.3398466,0.2263867,0.02479215,-0.04335373,-0.3314861,0.0.0.0,10.181.213.137,1,0
2014-11-19 12:55:31.041,16,16,37.45035,-122.1562,14.80246,7.6,308.5006,3,5,1416430530,-0.09291077,-0.6148682,-0.6501617,11.66642,2.384949,-13.96097,324.3369,310.6533,25,-0.241403,-0.3098734,0.2758955,-0.06237519,-0.03080953,0.6704138,0.2771041,0.2049431,0.1697542,0.05111498,0.1235686,0.2843372,0.0.0.0,10.181.213.137,1,0
2014-11-19 12:55:32.042,17,17,37.45039,-122.1563,15.01147,7.05,308.5006,3,5,1416430531,-0.03921509,-0.3448334,-0.8853455,11.78579,3.428955,-14.54535,328.016,314.3324,25,0.5124095,0.2906976,-0.07491765,-0.1430966,-0.02166788,0.6588002,-0.1559309,-0.3886234,0.05280423,-0.06024528,0.1837628,-0.417222,0.0.0.0,10.181.213.137,1,0
2014-11-19 12:55:33.041,18,18,37.45044,-122.1563,15.6077,6.69,308.5006,3,5,1416430532,-0.03871155,-0.7163849,-0.7103577,10.02945,3.035583,-16.93347,333.8509,320.1673,25,-0.2908822,-0.2477195,0.07247394,-0.1829315,-0.086096,0.7664611,-0.06590126,-0.01880482,-0.03526197,0.03566873,0.07234393,0.1700025,0.0.0.0,10.181.213.137,1,0
2014-11-19 12:55:34.041,19,19,37.45048,-122.1564,16.08105,6.34,308.5006,3,5,1416430533,0.2140961,-0.265564,-0.9936981,14.13894,12.18988,-4.39151,333.4421,319.7585,25,-0.8299928,-2.536129,0.006518885,-0.3381831,0.3905229,0.4072561,-1.007042,-1.940695,0.5158009,0.04807627,-0.04223263,-0.03063584,0.0.0.0,10.181.213.137,1,0
2014-11-19 12:55:35.043,20,20,37.45051,-122.1564,16.59964,5.95,308.5006,3,5,1416430534,-0.06446838,-0.5203552,-1.08432,8.648262,8.391479,-16.38239,340.9526,327.269,25,-0.2267365,-0.2680869,0.1491626,-0.3040143,-0.06236812,0.6218141,-0.3036647,-0.09623301,0.118542,0.03109962,0.08464691,-0.0820068,0.0.0.0,10.181.213.137,5,0
2014-11-19 12:55:36.041,21,21,37.45055,-122.1564,16.70041,4.95,308.5006,3,5,1416430535,0.09489441,-0.2842102,-0.8824463,13.76382,8.391663,-11.73965,329.064,315.3804,25,-0.8363362,0.7499416,0.5858493,-0.1748083,0.1211039,0.3983264,-0.7969221,0.8340821,0.6760921,0.01343616,0.08250213,0.0082377,0.0.0.0,10.181.213.137,5,0
2014-11-19 12:55:37.041,22,22,37.45058,-122.1565,16.68628,4.27,308.5006,3,5,1416430536,0.0471344,-0.3301849,-0.9306488,13.47393,5.773499,-11.28876,318.202,304.5184,25,0.5559461,-0.2146708,0.2395119,-0.04840188,0.03524462,0.2758735,0.5335743,-0.1307491,0.2555022,0.01322948,-0.05779738,0.03094127,0.0.0.0,10.181.213.137,5,0
2014-11-19 12:55:38.042,23,23,37.4506,-122.1565,16.2529,3.25,308.211,3,10,1416430537,-0.07270813,-0.4836273,-0.8232117,12.9112,3.976807,-13.44302,318.9147,305.2311,25,0.08879884,0.05125679,0.02399988,-0.01653521,-0.03612728,0.4730756,0.09506394,-0.002277731,0.08665639,-0.05602807,-0.03604247,0.04277331,0.0.0.0,10.181.213.137,1,0
2014-11-19 12:55:39.041,24,24,37.45058,-122.1565,16.47772,0.93,308.211,3,5,1416430538,-0.1055145,-0.5979614,-0.7920685,12.26324,4.661316,-12.04025,322.8576,309.174,25,-0.2417865,-0.2088837,-0.01150432,-0.07951847,-0.03662411,0.5220799,-0.2400788,-0.0621495,0.04248027,-0.07357807,-0.1247442,0.1151497,0.0.0.0,10.181.213.137,1,0
2014-11-19 12:55:40.041,25,25,37.45058,-122.1565,16.09583,1.24,308.211,3,5,1416430539,-0.0005340576,-0.4756317,-0.933136,12.84299,4.387878,-13.10922,319.8116,306.1279,25,0.3415565,-0.02065388,0.1370433,-0.007850654,-0.107379,0.501481,0.2981918,-0.08897123,0.1405051,0.09615876,0.005932244,-0.09874465,0.0.0.0,10.181.213.137,1,0
2014-11-19 12:55:41.041,26,26,37.4506,-122.1565,15.84109,2.23,308.211,3,5,1416430540,-0.1301727,-0.5159149,-0.8367767,11.85397,5.380249,-12.94229,325.171,311.4874,25,0.1680234,0.09720325,0.1493871,-0.041636,-0.07812583,0.5324194,0.1484516,0.07593253,0.1796621,-0.05688693,-0.02833036,-0.01755722,0.0.0.0,10.181.213.137,1,0
2014-11-19 12:55:42.041,27,27,37.45062,-122.1565,16.16586,3.28,308.211,3,5,1416430541,-0.04640198,-0.4553986,-1.001129,12.9794,5.551453,-12.37445,322.4348,308.7511,25,0.006805708,0.09257521,0.1405206,-0.02066087,-0.06155772,0.5151888,-0.2050682,0.02592922,0.1411493,0.03023352,0.0251241,-0.08545853,0.0.0.0,10.181.213.137,5,0
2014-11-19 12:55:43.041,28,28,37.45064,-122.1566,15.58765,4.26,308.211,3,5,1416430542,-0.005050659,-0.220871,-1.017303,13.55917,5.072144,-12.8421,317.4519,303.7683,25,0.1833312,-0.2457155,0.2947981,0.06094483,-0.0425182,0.3844246,0.1231948,-0.2069134,0.282566,0.04944339,0.1500655,-0.04976032,0.0.0.0,10.181.213.137,5,0
2014-11-19 12:55:44.041,29,29,37.45067,-122.1566,15.54654,5.01,308.211,3,5,1416430543,-0.06916809,-0.4257812,-0.8786316,9.637253,6.440796,-13.91098,330.2402,316.5565,25,0.5582726,-1.287072,0.06248602,-0.1163996,-0.1154154,0.4846202,0.5161124,-1.185339,0.04388387,0.08374097,0.0309663,-0.0293296,0.0.0.0,10.181.213.137,5,0
2014-11-19 12:55:45.040,30,30,37.4507,-122.1567,15.42566,4.83,308.211,4,5,1416430544,0.002334595,-0.317276,-0.937149,10.02943,11.83032,-15.3638,341.4486,327.765,25,-0.1422647,-0.3113286,-0.2920819,-0.2865954,-0.04322548,0.4544451,-0.05021989,-0.05646661,-0.3716037,0.05515311,0.08390705,0.3298402,0.0.0.0,10.181.213.137,5,0
2014-11-19 12:55:46.040,31,31,37.45073,-122.1567,15.21805,4.76,308.211,3,5,1416430545,-0.2350311,-0.3224182,-0.8330994,3.106392,14.08905,-18.36984,358.1049,344.4213,25,-0.1477279,-0.143061,-0.4517565,-0.4784297,-0.1628542,0.4327955,-0.219093,-0.0570526,-0.4542178,-0.07185402,0.09166664,0.1112242,0.0.0.0,10.181.213.137,5,0
2014-11-19 12:55:47.041,32,32,37.45077,-122.1567,15.67856,3.7,308.211,3,5,1416430546,-0.2355194,-0.2934723,-0.6504974,3.507805,16.40607,-16.62903,357.5534,343.8698,25,0.2499624,-0.1340856,-0.2759607,-0.905857,-0.2286226,0.4631724,0.3017108,-0.006555201,-0.3158645,-0.009385275,0.1376149,0.1631697,0.0.0.0,10.181.213.137,5,0
2014-11-19 12:55:48.041,33,33,37.45074,-122.1567,15.78635,3.18,348.0469,3,5,1416430547,-0.1850739,-0.3917389,-0.9237976,-3.99472,17.15887,-14.0907,18.61649,4.932848,25,-0.3292786,-0.3911044,-0.04118792,-1.388208,-0.2333697,0.4657678,-0.3817185,-0.3279386,-0.1277383,0.02080145,-0.009890669,0.09269165,0.0.0.0,10.181.213.137,5,0
2014-11-19 12:55:49.041,34,34,37.45081,-122.1567,15.67599,3.15,5.273438,3,5,1416430548,0.1767426,-0.4651031,-0.6316071,-7.314171,21.00092,-12.85641,28.62141,14.93777,25,0.2870826,0.3515652,0.4722344,-1.552793,-0.1334711,0.4913346,0.4419575,0.4791333,0.4772387,0.3398061,0.02664314,0.1686924,0.0.0.0,10.181.213.137,1,0
2014-11-19 12:55:50.041,35,35,37.45084,-122.1567,15.52438,3.24,38.52481,3,5,1416430549,0.3309174,-0.3916168,-0.9936829,-6.658241,20.26788,-17.18362,28.8587,15.17506,25,0.05382755,-0.1316283,0.03398753,-1.632169,-0.01791436,0.4414385,-0.2745827,0.1022531,-0.01873124,0.2785406,-0.1086329,-0.2064044,0.0.0.0,10.181.213.137,1,0
2014-11-19 12:55:51.042,36,36,37.45087,-122.1567,15.67932,4.4,38.52481,3,5,1416430550,0.108017,-0.568634,-0.861969,-7.084526,15.66589,-14.39484,31.99089,18.30725,25,0.0399357,-0.07666282,-0.01636246,-1.631654,-0.02769637,0.4862989,-0.04188502,-0.1506855,-0.0313657,0.03667413,0.03884454,-0.05619659,0.0.0.0,10.181.213.137,1,0
2014-11-19 12:55:52.041,37,37,37.45092,-122.1566,15.67993,6.09,38.52481,3,5,1416430551,0.0184021,-0.4963989,-0.5669403,-6.266037,18.09521,-16.5325,28.67566,14.99203,25,0.3072641,0.1637373,0.1836782,-1.647591,-0.0009279124,0.5030683,0.3781395,0.2308154,0.0812217,-0.003352699,0.1434472,0.05487899,0.0.0.0,10.181.213.137,5,0
2014-11-19 12:55:53.040,38,38,37.45096,-122.1566,15.2847,7.31,38.52481,3,5,1416430552,-0.005508423,-0.4849091,-0.7984772,-4.612038,20.88397,-12.00693,23.83588,10.15224,25,0.2881223,0.03117763,0.2827337,-1.503097,-0.09713868,0.4850306,0.3057164,-0.1495183,0.1058851,0.02281141,0.08761912,-0.1705658,0.0.0.0,10.181.213.137,5,0
2014-11-19 12:55:54.041,39,39,37.45104,-122.1565,15.35422,8.34,38.52481,3,5,1416430553,-0.1531677,-0.276062,-0.7945862,-8.090515,18.76251,-14.47842,28.99528,15.31164,25,-0.1429151,-0.03370497,0.1827336,-1.540794,-0.171323,0.4278907,0.4322601,-0.05043136,0.1950938,0.1325021,0.01401264,0.2328878,0.0.0.0,10.181.213.137,5,0
2014-11-19 12:55:55.041,40,40,37.45111,-122.1564,15.12503,9.57,38.52481,3,5,1416430554,-0.1667023,-0.2579041,-0.7992859,-6.36834,19.19031,-14.69556,25.38087,11.69723,25,0.0978472,0.03998736,0.07569503,-1.516136,-0.1688314,0.3784273,0.2711862,0.01597869,0.05428254,-0.0009474683,0.09399256,-0.06801993,0.0.0.0,10.181.213.137,5,0
2014-11-19 12:55:56.041,41,41,37.45118,-122.1563,15.32974,10.27,38.36749,3,5,1416430555,-0.08538818,-0.3814087,-0.773819,-7.459633,20.5246,-12.62469,27.10687,13.42323,25,0.2673651,0.05475566,-0.01070697,-1.473582,-0.1968137,0.3847777,0.2371159,0.04758908,-0.1304808,-0.01171505,0.1601889,-0.1554345,0.0.0.0,10.181.213.137,5,0
2014-11-19 12:55:57.042,42,42,37.45124,-122.1563,15.15039,10.02,38.36749,3,5,1416430556,-0.2431946,-0.4458923,-0.6591339,-9.028366,15.90552,-12.49115,33.57372,19.89008,25,-0.379481,-0.02774668,0.1298499,-1.542318,-0.2115051,0.3716233,-0.1273979,-0.1692354,0.1751241,-0.04870693,-0.02937338,0.3051413,0.0.0.0,10.181.213.137,5,0
2014-11-19 12:55:58.040,43,43,37.45135,-122.1562,15.03824,11.13,38.36749,3,10,1416430557,-0.1621246,-0.2861633,-0.9572601,-6.248985,17.15436,-15.01279,25.29148,11.60784,25,-0.2049249,-0.005070659,-0.08258143,-1.521204,-0.171409,0.378398,-0.08626324,-0.1829966,-0.05284941,0.06371669,-0.05863779,-0.01932728,0.0.0.0,10.181.213.137,5,0
2014-11-19 12:55:59.042,44,44,37.45145,-122.1561,14.65054,11.41,38.22997,3,10,1416430558,-0.1205139,-0.3396759,-1.066483,-8.056435,17.87292,-14.11093,30.30887,16.62523,25,-0.1821059,-0.04467559,0.02943246,-1.53404,-0.1529012,0.3702339,-0.2846253,0.0427093,0.02185549,0.03805865,0.0005663683,-0.00894649,0.0.0.0,10.181.213.137,5,0
2014-11-19 12:56:00.042,45,45,37.45153,-122.1561,14.27698,11.19,38.22997,3,10,1416430559,-0.1648254,-0.2598724,-0.9016571,-7.51078,14.55408,-13.37616,30.83335,17.14971,25,-0.02464409,-0.07048456,-0.1605638,-1.526317,-0.1529999,0.3848124,-0.1256491,-0.01751427,-0.08622386,-0.02370453,0.0818977,0.03142846,0.0.0.0,10.181.213.137,5,0
2014-11-19 12:56:01.041,46,46,37.45159,-122.156,14.29901,11.32,38.22997,3,5,1416430560,-0.2134399,-0.3509064,-0.8746948,-6.760529,15.88855,-18.11905,23.83291,10.14927,25,0.2021094,0.03336834,0.01158182,-1.494793,-0.2206775,0.4762985,0.1204945,0.08680087,-0.03847143,0.02515525,0.06028421,-0.1961316,0.0.0.0,10.181.213.137,5,0
2014-11-19 12:56:02.041,47,47,37.45167,-122.1559,14.86423,11.4,38.22997,3,5,1416430561,-0.1166382,-0.4238129,-0.827301,-7.664268,15.28998,-17.40088,27.49247,13.80883,25,0.008198275,-0.06689195,0.0219029,-1.561873,-0.2169119,0.4826261,0.01299501,0.00744929,-0.001997132,0.05841545,0.07068953,0.04600699,0.0.0.0,10.181.213.137,5,0
2014-11-19 12:56:03.041,48,48,37.45174,-122.1558,14.94183,11.47,38.22997,3,5,1416430562,-0.2275696,-0.3883667,-0.6681366,-9.028389,15.66644,-14.62872,32.97718,19.29354,25,0.02270664,0.08948514,0.01231925,-1.526491,-0.2076195,0.4681971,0.002322833,-0.08150955,0.09389701,-0.07951027,-0.0001226315,0.1031383,0.0.0.0,10.181.213.137,5,0
2014-11-19 12:56:04.041,49,49,37.45182,-122.1557,14.59766,11.51,38.22997,3,5,1416430563,-0.1620331,-0.3929443,-0.894455,-9.966217,17.66791,-14.01083,33.51017,19.82653,25,0.3502842,-0.005954295,0.3224849,-1.547418,-0.2081595,0.4527557,0.2466156,0.05401862,0.2116035,0.1472023,-0.006967039,-0.02017615,0.0.0.0,10.181.213.137,5,0
2014-11-19 12:56:05.041,50,50,37.45192,-122.1556,14.58704,11.65,38.22997,3,5,1416430564,-0.06396484,-0.4362793,-0.4730835,-8.585045,14.09229,-14.99612,31.15702,17.47338,25,-0.3386542,0.1306741,-0.07742981,-1.581068,-0.2057476,0.4610458,0.2750696,0.3062413,-0.278652,0.04560813,0.08044405,0.2535905,0.0.0.0,10.181.213.137,5,0
2014-11-19 12:56:06.043,51,51,37.45199,-122.1555,14.15518,11.82,38.34278,3,10,1416430565,-0.2883301,-0.4692383,-0.9320526,-8.73851,16.36761,-15.04633,31.52046,17.83682,25,-0.2952687,-0.09836119,-0.1816585,-1.578217,-0.2288807,0.5052708,-0.4440909,-0.1844681,-0.1136119,-0.05472891,-0.07126874,0.01717067,0.0.0.0,10.181.213.137,5,0
2014-11-19 12:56:07.041,52,52,37.45208,-122.1555,14.2605,11.88,38.34278,3,10,1416430566,-0.3302002,-0.5100861,-0.8954315,-9.318245,14.65692,-16.8165,30.3513,16.66766,25,0.527781,0.2170103,-0.1545547,-1.543378,-0.2639429,0.5877093,0.2400133,0.1596694,-0.03076012,-0.07725744,-0.03920234,-0.06252856,0.0.0.0,10.181.213.137,1,0
2014-11-19 12:56:08.041,53,53,37.45218,-122.1554,14.2139,12.96,38.34278,3,10,1416430567,-0.3061218,-0.7454834,-0.6188049,-10.75055,13.49371,-16.95007,34.27139,20.58775,25,-0.146145,-0.3737739,0.05180221,-1.474042,-0.2873937,0.6888552,-0.1030483,-0.2774948,0.1919906,0.05345951,-0.2265288,0.1271379,0.0.0.0,10.181.213.137,1,0
2014-11-19 12:56:09.041,54,54,37.45227,-122.1553,13.76694,14.12,38.34278,3,10,1416430568,-0.02461243,-0.7159271,-0.6171722,-7.954147,10.79071,-17.45105,34.023,20.33936,25,-0.6239142,-0.3051367,0.4597806,-1.613794,-0.03289571,0.719624,-0.6108859,0.2662065,0.4818632,0.0989994,0.01837016,0.4979694,0.0.0.0,10.181.213.137,1,0
2014-11-19 12:56:10.041,55,55,37.4524,-122.1552,13.50784,15.12,38.34278,3,10,1416430569,-0.0758667,-0.6147614,-0.7697601,-9.352371,12.33032,-18.48648,36.63261,22.94897,25,-0.1677445,-0.06724109,0.1437335,-1.668173,-0.04901931,0.7014227,-0.07611446,0.07235735,0.04055445,0.08738935,0.0335498,0.2183143,0.0.0.0,10.181.213.137,1,0
2014-11-19 12:56:11.040,56,56,37.45251,-122.1551,13.23654,15.68,38.34278,3,10,1416430570,-0.06352234,-0.5191193,-0.4283905,-10.64829,12.5697,-17.95215,38.93334,25.2497,25,0.1257396,0.2115943,0.371817,-1.772434,-0.07668491,0.6369823,0.5291339,0.8985623,0.1471923,0.06938341,0.2188109,0.2803983,0.0.0.0,10.181.213.137,1,0
2014-11-19 12:56:12.041,57,57,37.45264,-122.155,13.15854,16.11,38.34278,3,10,1416430571,0.09954834,-0.2517242,-0.9211884,-10.05482,15.85284,-16.06378,46.54297,32.85933,25,-0.8353971,-0.3473345,-1.060904,-2.020416,0.2046106,0.3457651,-0.7537543,-0.2648126,-1.139081,-0.1994919,0.06990412,0.07368751,0.0.0.0,10.181.213.137,1,0
2014-11-19 12:56:13.040,58,58,37.45275,-122.1548,13.06149,15.94,38.34278,3,10,1416430572,0.1474304,-0.2093506,-0.8503571,-17.9974,15.39587,-11.22705,60.60826,46.92462,25,0.4596613,0.2252659,0.225712,-2.091239,0.1071948,0.3351705,0.3097644,0.262253,0.1863882,0.1067275,0.1717494,-0.20781,0.0.0.0,10.181.213.137,5,0
2014-11-19 12:56:14.041,59,59,37.45285,-122.1547,13.20096,15.59,38.34278,3,10,1416430573,-0.09960938,-0.2081299,-1.550629,-13.70079,15.43005,-14.09897,49.17286,35.48922,25,-0.2352991,-0.01464339,-0.05787555,-1.972933,-0.001794221,0.3586308,-0.6705346,-0.8023328,0.1250021,0.006120377,0.0169623,-0.2922609,0.0.0.0,10.181.213.137,5,0
2014-11-19 12:56:15.041,60,60,37.45296,-122.1546,13.45456,15.73,38.34278,3,10,1416430574,-0.02629089,-0.2433319,-0.7438507,-15.8491,13.27515,-13.39771,56.00676,42.32312,25,0.4750419,0.216438,0.03740197,-2.035015,0.03640372,0.3686338,0.4277312,0.3286054,0.05570632,-0.06024153,0.1170095,0.1883518,0.0.0.0,10.181.213.137,5,0
2014-11-19 12:56:16.041,61,61,37.45306,-122.1545,13.50537,14.76,38.34278,3,10,1416430575,0.01960754,-0.3115082,-0.5549164,-12.09809,13.2406,-15.93561,48.31922,34.63558,25,-0.278524,0.01148675,0.5684257,-1.948067,0.06471524,0.3706854,0.0833414,0.3813935,0.4874433,-0.003148738,0.1287948,0.3611279,0.0.0.0,10.181.213.137,5,0
2014-11-19 12:56:17.041,62,62,37.45315,-122.1544,13.39594,14.46,38.34278,3,10,1416430576,-0.004135132,-0.3664856,-1.069687,-13.29157,15.7038,-13.86517,46.24623,32.5626,25,0.202457,-0.005285576,-0.01806502,-1.846396,-0.07146342,0.3614867,0.1750789,-0.07862978,-0.0481307,0.1184085,-0.08713064,-0.07729983,0.0.0.0,10.181.213.137,5,0
2014-11-19 12:56:18.040,63,63,37.45325,-122.1543,13.51706,14.36,38.29668,3,10,1416430577,-0.3587646,-0.5630951,-0.927063,-11.31376,13.2066,-15.80203,37.81433,24.13069,25,-0.5388571,-0.3691136,-1.094445,-1.693768,-0.1947002,0.4931594,-0.8436032,-0.02718511,-0.7692479,-0.1883461,-0.08968391,-0.0628643,0.0.0.0,10.181.213.137,5,0
2014-11-19 12:56:19.042,64,64,37.45336,-122.1542,13.36731,14.45,38.29668,3,10,1416430578,-0.2638092,-0.4626617,-0.9281769,-13.34272,12.23163,-14.75006,43.93108,30.24744,25,0.2031624,0.002318548,-0.0805015,-1.763271,-0.2198584,0.5080928,-0.1290802,0.09459608,0.02773171,0.04585695,-0.1148981,-0.09063988,0.0.0.0,10.181.213.137,5,0
2014-11-19 12:56:20.041,65,65,37.45346,-122.1541,13.29495,14.74,38.29668,3,10,1416430579,-0.1490936,-0.484726,-1.059937,-14.16113,13.2923,-17.25461,42.07145,28.38781,25,0.4298635,-0.4385537,-0.1017527,-1.756582,-0.2379611,0.5607548,-0.2619228,-0.4340682,-0.2372482,0.002951303,-0.07997563,-0.1843799,0.0.0.0,10.181.213.137,1,0
2014-11-19 12:56:21.041,66,66,37.45353,-122.1539,13.4454,15.09,38.29668,3,10,1416430580,-0.4491272,-0.4069519,-1.071335,-14.97953,12.16357,-12.17871,46.86623,33.18259,25,-0.2706768,0.0485931,0.193868,-1.755049,-0.3198337,0.5068931,-0.3789328,0.1746852,0.191776,0.009844079,-0.09006763,-0.09230451,0.0.0.0,10.181.213.137,5,0
2014-11-19 12:56:22.041,67,67,37.45365,-122.1538,12.96118,15.72,38.29668,3,10,1416430581,-0.2084961,-0.3310699,-0.6585083,-13.76896,14.47235,-14.43283,41.69988,28.01624,25,0.7983395,-0.1559915,-0.0109669,-1.716692,-0.309911,0.4639077,0.5300056,-0.1055757,-0.1204032,-0.03061854,0.1077703,-0.3346491,0.0.0.0,10.181.213.137,5,0
2014-11-19 12:56:23.041,68,68,37.45376,-122.1537,12.91687,15.63,38.29668,3,10,1416430582,-0.2586212,-0.2261505,-1.354111,-14.74082,14.90002,-13.54791,44.60174,30.9181,25,-0.2814754,0.1037006,-0.3417302,-1.743199,-0.2640841,0.4256657,-0.3906653,0.3748969,-0.264535,-0.1121821,0.06568291,-0.3962162,0.0.0.0,10.181.213.137,5,0
2014-11-19 12:56:24.041,69,69,37.45388,-122.1536,12.35483,15.42,38.29668,3,10,1416430583,-0.2932281,-0.3087921,-1.016998,-13.56438,16.42242,-14.49966,42.01842,28.33479,25,-0.2034453,0.1212726,0.102104,-1.758656,-0.2523789,0.3783497,-0.2785929,0.230974,0.1511544,-0.05904423,0.07072708,0.0301777,0.0.0.0,10.181.213.137,5,0
2014-11-19 12:56:25.040,70,70,37.45399,-122.1535,12.42825,15.15,38.29668,3,10,1416430584,-0.2042389,-0.3689728,-0.7533569,-14.86018,12.96771,-12.52945,44.83479,31.15115,25,-0.08237317,0.007101319,-0.06142262,-1.651955,-0.3524701,0.4767674,-0.2352273,0.1722729,-0.05988894,0.08087419,0.07528822,0.063186,0.0.0.0,10.181.213.137,5,0
2014-11-19 12:56:26.041,71,71,37.45408,-122.1534,12.49973,14.74,38.29668,3,10,1416430585,-0.322052,-0.4658203,-0.8667297,-13.9395,13.37823,-14.3327,39.48024,25.7966,25,-0.1401345,-0.003306048,-0.06333689,-1.631691,-0.395779,0.4651426,-0.1663796,0.04320321,-0.07934481,0.0009246036,-0.001156799,-0.02396577,0.0.0.0,10.181.213.137,5,0
2014-11-19 12:56:27.041,72,72,37.45418,-122.1533,12.25858,13.95,38.29668,3,10,1416430586,-0.3038483,-0.5460815,-0.972641,-15.01368,13.94257,-14.64993,41.92754,28.2439,25,-0.9253843,-0.00268207,0.1774896,-1.641556,-0.3688555,0.4814211,-0.8569408,0.3001095,0.1918,-0.01382185,0.03655606,0.2969686,0.0.0.0,10.181.213.137,5,0
2014-11-19 12:56:28.041,73,73,37.45428,-122.1532,12.05643,13.95,38.29668,3,10,1416430587,-0.3277435,-0.1466522,-1.373734,-11.55253,14.64392,-15.86887,39.50454,25.8209,25,0.9297167,-0.8653207,-1.386372,-1.673939,-0.2213534,0.3891446,-0.3938413,-1.752461,-1.109071,-0.3019917,0.007631994,-1.042119,0.0.0.0,10.181.213.137,5,0
2014-11-19 12:56:29.040,74,74,37.45435,-122.1532,12.28076,14.15,38.29668,3,10,1416430588,-0.2613678,-0.4358368,-0.9750977,-13.03588,14.66101,-14.08215,40.45551,26.77187,25,-0.1359837,-0.0382635,-0.1099976,-1.688088,-0.2710316,0.4321707,-0.138051,0.03447606,-0.03803487,-0.03861249,-0.02947558,0.01544366,0.0.0.0,10.181.213.137,5,0
2014-11-19 12:56:30.040,75,75,37.45449,-122.153,12.20047,14.4,39.54775,4,10,1416430589,-0.17836,-0.450058,-0.8322296,-13.61558,14.07922,-14.75006,41.9096,28.22596,25,-0.09984537,0.003321761,-0.00685258,-1.711951,-0.2644985,0.4571503,-0.05654977,0.03110936,-0.004606687,0.0001597688,-0.06135376,0.02228244,0.0.0.0,10.181.213.137,5,0
2014-11-19 12:56:31.040,76,76,37.45456,-122.1529,11.61295,14.13,39.54775,6,10,1416430590,-0.2881775,-0.4961853,-0.9108734,-13.15523,14.30164,-14.29922,41.42451,27.74087,25,-0.08497614,-0.5811819,0.1835994,-1.706202,-0.2493386,0.4581369,-0.107707,-0.3134938,0.361247,0.1005125,-0.02386284,0.2465538,0.0.0.0,10.181.213.137,5,0
2014-11-19 12:56:32.041,77,77,37.45468,-122.1528,11.39828,14.67,39.54775,6,10,1416430591,-0.1762238,-0.4450989,-0.6691895,-13.30868,13.8056,-15.05054,42.17672,28.49308,25,-0.06434224,-0.2671207,0.1604951,-1.734035,-0.2141309,0.4839565,0.009689344,0.05402231,0.1788928,0.09281926,0.03526174,0.250138,0.0.0.0,10.181.213.137,5,0
2014-11-19 12:56:33.041,78,78,37.45479,-122.1527,12.77011,15.05,39.54775,3,10,1416430592,-0.2321014,-0.3992767,-0.870636,-11.91058,14.72919,-15.71841,37.85363,24.16999,25,-0.01797793,-0.08714129,-0.004800348,-1.720575,-0.2231161,0.4753203,-0.02287529,0.05251897,0.06035492,-3.634063e-05,0.02079464,0.02672884,0.0.0.0,10.181.213.137,5,0
2014-11-19 12:56:34.042,79,79,37.4549,-122.1526,12.40714,15.47,39.54775,3,10,1416430593,-0.1019745,-0.4216766,-0.6667938,-12.14926,13.77112,-14.81674,39.82926,26.14562,25,0.3440405,-0.03834286,-0.1877792,-1.72814,-0.2076106,0.4694335,0.503059,-0.1055791,-0.2702911,0.03915649,0.09204482,0.02454459,0.0.0.0,10.181.213.137,5,0
2014-11-19 12:56:35.040,80,80,37.45501,-122.1525,13.3334,15.21,39.54775,3,10,1416430594,-0.2262268,-0.3873749,-1.059418,-12.98471,13.61743,-15.43445,40.34879,26.66515,25,-0.004858938,0.02242222,-0.1029677,-1.727391,-0.2270364,0.4748811,-0.2823321,0.1048954,-0.05367281,-0.06792816,0.01353766,-0.08582237,0.0.0.0,10.181.213.137,5,0
2014-11-19 12:56:36.041,81,81,37.45512,-122.1524,13.72577,14.83,39.54775,3,10,1416430595,-0.2208405,-0.4404297,-0.7647858,-14.45102,13.13843,-15.13397,43.57368,29.89004,25,0.06715587,-0.1122949,0.02595623,-1.744709,-0.2485268,0.462745,0.1769548,-0.0917735,-0.04356881,0.0119467,0.0519206,0.1022161,0.0.0.0,10.181.213.137,5,0
2014-11-19 12:56:37.041,82,82,37.45523,-122.1523,13.68631,15.13,39.54775,3,10,1416430596,-0.298996,-0.5262299,-0.9468384,-14.26347,12.57397,-15.01715,42.68365,29.00001,25,-0.1771186,-0.1380362,0.01674889,-1.749913,-0.3062258,0.4700714,-0.4041868,0.01488757,0.01214537,-0.002216452,-0.04723315,-0.04396769,0.0.0.0,10.181.213.137,5,0
2014-11-19 12:56:38.041,83,83,37.45535,-122.1522,13.47824,15.46,40.62161,3,10,1416430597,-0.4151154,-0.4277191,-0.8727264,-14.5363,12.81305,-14.31589,43.42435,29.74072,25,-0.1946891,-0.07279991,-0.1341554,-1.767254,-0.3177898,0.4454302,-0.3579873,-0.1489842,-0.03390573,-0.1331365,0.003126984,-0.01548693,0.0.0.0,10.181.213.137,5,0
2014-11-19 12:56:39.041,84,84,37.45545,-122.1521,13.43799,14.27,40.62161,3,10,1416430598,0.02307129,-0.474472,-0.5802612,-13.35983,8.34845,-17.03754,53.10949,39.42585,25,0.1791996,-0.5341989,-0.1826899,-2.031903,0.005482452,0.5273445,0.05006456,-0.09533376,-0.2567483,0.003792046,0.04230287,0.3578469,0.0.0.0,10.181.213.137,5,0
2014-11-19 12:56:40.041,85,85,37.45554,-122.152,13.409,14.26,48.23928,3,10,1416430599,-0.115448,-0.6867218,-0.6103363,-15.93439,4.636841,-16.65347,59.12547,45.44183,25,0.05533037,0.1626065,-0.1062881,-2.095243,-0.07940222,0.6899033,0.116256,0.3310988,-0.04834696,-0.1226892,-0.007870284,0.1480583,0.0.0.0,10.181.213.137,1,0
2014-11-19 12:56:41.041,86,86,37.45562,-122.1519,13.0943,14.34,57.14438,3,10,1416430600,-0.07896423,-0.6629486,-0.8192291,-17.07673,2.73822,-15.10074,65.81452,52.13088,25,0.1751755,-0.1321431,0.1616573,-2.220093,-0.114626,0.6793287,0.1115688,-0.1290812,0.06152089,0.05036326,0.03421575,-0.08671474,0.0.0.0,10.181.213.137,1,0
2014-11-19 12:56:42.042,87,87,37.45568,-122.1517,13.20453,14.53,60.06857,3,10,1416430601,-0.07292175,-0.6197815,-0.9055634,-17.23019,2.208008,-13.78177,69.38181,55.69817,25,-0.2087996,-0.06645466,-0.163982,-2.319109,-0.1373737,0.6511461,-0.2343984,0.1150237,-0.1170193,0.02786756,-0.04642852,-0.06534456,0.0.0.0,10.181.213.137,1,0
2014-11-19 12:56:43.042,88,88,37.45575,-122.1516,13.47171,14.88,65.28269,3,10,1416430602,0.06193542,-0.5834503,-0.6464081,-16.5141,0.7026367,-14.28278,74.65646,60.97282,25,-0.03445784,0.1235118,-0.3618871,-2.402024,-0.02063294,0.6326339,0.02988167,0.229054,-0.2867058,-0.06580451,0.07810268,0.1601984,0.0.0.0,10.181.213.137,1,0
2014-11-19 12:56:44.041,89,89,37.45581,-122.1514,13.56168,14.32,71.36543,3,10,1416430603,-0.03627014,-0.5031891,-0.8299866,-16.70166,-2.393433,-13.13055,86.31525,72.63161,25,0.1971698,0.1612821,-0.08704835,-2.530052,0.01072905,0.6005622,0.1870498,0.1711554,-0.1336609,-0.04512163,0.06191734,-0.00501604,0.0.0.0,10.181.213.137,1,0
2014-11-19 12:56:45.041,90,90,37.45583,-122.1513,13.51431,14.36,79.96309,3,10,1416430604,0.02999878,-0.4991913,-0.7963715,-15.57635,-4.069641,-12.29568,90.53573,76.85209,25,0.04221084,-0.04464044,-0.1116871,-2.621225,0.01554439,0.6075147,0.01778519,0.009141868,-0.1718918,-0.002676448,0.05126683,-0.007063393,0.0.0.0,10.181.213.137,1,0
2014-11-19 12:56:46.041,91,91,37.45586,-122.1511,13.58386,14.1,84.98677,3,10,1416430605,0.1221008,-0.5743256,-1.008881,-12.74606,-7.182373,-12.29581,100.4987,86.81508,25,0.3021077,0.1724479,-0.5297472,-2.787744,0.08730784,0.5923623,0.2041018,0.183181,-0.5765865,0.04127624,-0.03945595,-0.1693702,0.0.0.0,10.181.213.137,1,0
2014-11-19 12:56:47.042,92,92,37.45587,-122.1509,13.53729,14.57,90,3,10,1416430606,0.1268005,-0.4959717,-0.5718231,-11.41514,-9.823059,-12.29175,108.0143,94.33067,25,0.06840276,0.2964855,0.01140605,-2.853051,0.0827265,0.6368485,0.0783301,0.3741504,0.0003450327,0.03587608,0.09953225,0.116303,0.0.0.0,10.181.213.137,1,0
2014-11-19 12:56:48.042,93,93,37.45586,-122.1507,13.54181,14.35,94.28909,3,10,1416430607,-0.141571,-0.3343811,-0.6846313,-17.80833,-2.79364,-10.138,95.28431,81.60067,25,-0.02219319,0.2965536,0.1445508,-2.537217,-0.2156847,0.4316918,0.1345382,0.3863382,0.140725,0.08235224,0.04256874,0.1034167,0.0.0.0,10.181.213.137,1,0
2014-11-19 12:56:49.042,94,94,37.45585,-122.1506,13.60489,14.84,96.78951,3,10,1416430608,0.7239838,-0.1431122,-0.5913544,-6.758904,-6.002502,-18.15363,100.6132,86.92952,25,0.8854041,-0.9852005,1.144827,-2.764854,0.4176282,0.4311162,0.7180605,-0.9151965,1.056994,0.3359708,0.2497485,0.1722602,0.0.0.0,10.181.213.137,1,0
2014-11-19 12:56:50.045,95,95,37.45581,-122.1504,13.52728,15.57,97.60888,3,10,1416430609,0.1279907,0.1719818,-0.9662628,13.35072,-27.14227,-16.78055,208.8808,195.1971,25,-0.08729203,-2.645672,0.01735023,1.771948,0.2563414,-0.07211012,0.1943505,-3.4031,0.1728109,-0.4288639,0.2012678,0.5693024,0.0.0.0,10.181.213.137,1,0
2014-11-19 12:56:51.041,96,96,37.45578,-122.1502,13.63071,15.82,98.14629,3,10,1416430610,0.05725098,0.4026642,-0.897934,46.63338,-32.03314,-52.04196,249.407,235.7234,25,0.07577599,-0.07952785,0.008053665,0.9528929,0.1956121,-0.4046117,0.01575527,0.009709539,0.01693261,-0.1539689,0.01242028,-0.01365067,0.0.0.0,10.181.213.137,1,0
2014-11-19 12:56:52.045,97,97,37.45575,-122.15,13.51312,15.99,98.14629,3,10,1416430611,0.01928711,0.4319611,-0.8493042,39.23002,-32.05579,-52.40323,229.0981,215.4144,25,-0.05788168,-0.06019543,0.01002494,0.9227593,0.08787698,-0.4258368,0.1001166,-0.02471582,0.002108597,-0.06048633,-0.04957286,0.01539463,0.0.0.0,10.181.213.137,1,0
2014-11-19 12:56:53.041,98,98,37.45572,-122.1498,13.48364,16.16,98.14629,3,10,1416430612,0.005493164,0.4064789,-0.9396667,38.29804,-32.16437,-52.15036,229.5579,215.8743,25,0.07091466,-0.0261368,0.01068487,0.9262359,0.03688118,-0.4484498,-0.1820938,0.03200306,0.0473119,-0.03487479,0.01281149,-0.03522246,0.0.0.0,10.181.213.137,1,0
2014-11-19 12:56:54.045,99,99,37.45569,-122.1496,13.2746,16.28,98.14629,3,10,1416430613,0.06837463,0.4463348,-0.9357605,37.51447,-32.60864,-51.15005,228.3282,214.6446,25,0.001218396,-0.04124464,-0.0002205097,0.9466823,0.04345426,-0.4500843,-0.06835005,-0.0160794,0.01019295,-0.004888893,-0.005430268,-0.007116808,0.0.0.0,10.181.213.137,1,0
2014-11-19 12:56:55.044,100,100,37.45566,-122.1494,13.15942,16.86,97.94347,3,10,1416430614,0.07164001,0.4009705,-0.8660583,37.4123,-33.42865,-50.61658,227.8941,214.2104,25,0.05773281,-0.06480989,0.006343117,0.9604501,0.05176761,-0.4547018,0.1002944,-0.01383343,0.008171646,-0.01842593,-0.02790907,0.02580483,0.0.0.0,10.181.213.137,1,0
2014-11-19 12:56:56.044,101,101,37.45563,-122.1492,12.9881,16.92,97.94347,3,10,1416430615,0.0448761,0.4207611,-0.8973694,37.49753,-33.68512,-50.09982,227.6071,213.9234,25,-0.009714413,-0.1042713,0.01006382,0.9712813,0.05210915,-0.4479195,0.03661516,-0.02539474,0.01080237,-0.002071235,-0.01233007,0.002757259,0.0.0.0,10.181.213.137,1,0
2014-11-19 12:56:57.042,102,102,37.45561,-122.149,13.06931,17.21,97.94347,3,10,1416430616,0.07209778,0.4664459,-0.9455414,37.08872,-34.30005,-49.99982,227.2131,213.5295,25,-0.05668166,-0.01411449,0.009126919,0.9891654,0.05451526,-0.4502764,-0.02486968,0.05779881,0.02353356,-0.004928825,0.01434006,-0.0138372,0.0.0.0,10.181.213.137,1,0
2014-11-19 12:56:58.041,103,103,37.4556,-122.1489,12.70819,16.99,97.94347,3,10,1416430617,0.03358459,0.4421082,-0.865509,36.40738,-34.77844,-49.59979,226.3861,212.7025,25,0.05044214,-0.06356592,0.01224548,1.000567,0.05264088,-0.4491885,-0.02598506,0.01186136,0.02042321,-0.02139602,-0.00602726,0.0304724,0.0.0.0,10.181.213.137,1,0
2014-11-19 12:56:59.050,104,104,37.45557,-122.1487,12.5437,17.73,97.94347,3,10,1416430618,0.05091858,0.3334961,-0.7958984,36.83321,-35.47894,-49.24973,226.5183,212.8347,25,0.002475408,-0.07398075,-0.004062918,1.012276,0.06014489,-0.4331192,0.0008702528,0.00937203,0.003622629,0.02710677,-0.05419503,0.05065787,0.0.0.0,10.181.213.137,1,0
2014-11-19 12:57:00.042,105,105,37.45555,-122.1485,12.49939,17.61,97.94347,3,10,1416430619,0.01647949,0.4069672,-0.8772736,36.04959,-35.41071,-48.81638,226.7835,213.0998,25,0.1093113,-0.01924986,0.02176229,1.013866,0.0412783,-0.4191186,0.2102399,0.001449799,0.02281649,-0.0456447,-0.03726553,0.1003683,0.0.0.0,10.181.213.137,1,0
2014-11-19 12:57:01.044,106,106,37.45554,-122.1483,12.44519,17.65,97.94347,3,10,1416430620,0.04067993,0.3672791,-0.8323822,36.15178,-36.09387,-48.81635,226.8421,213.1585,25,0.1107372,-0.05797249,0.003180347,1.029026,0.03454586,-0.4252512,0.06834602,-0.003199938,0.002643282,-0.008910292,-0.02502219,0.01389197,0.0.0.0,10.181.213.137,1,0
2014-11-19 12:57:02.041,107,107,37.45552,-122.1481,12.56094,17.44,97.74588,3,10,1416430621,0.05496216,0.3560486,-0.905365,36.47544,-36.11127,-48.7663,226.8582,213.1746,25,0.08284908,-0.05661321,0.02068051,1.03785,0.04712177,-0.4009437,0.09360806,-0.0224304,0.003495155,-0.007312117,-0.03410147,0.06636909,0.0.0.0,10.181.213.137,1,0
2014-11-19 12:57:03.045,108,108,37.45549,-122.1479,12.01416,17.28,97.74588,3,10,1416430622,-0.048172,0.3741302,-0.8871002,36.4584,-35.82092,-48.91623,227.8767,214.1931,25,0.08740228,-0.1028691,0.0450479,1.043605,0.02839808,-0.3976562,0.01243934,-0.02914004,0.04017933,-0.04993663,-0.01474571,0.01516632,0.0.0.0,10.181.213.137,1,0
2014-11-19 12:57:04.043,109,109,37.45547,-122.1477,11.55685,16.81,96.41066,3,10,1416430623,-0.06498718,0.3375702,-0.9312897,36.71384,-36.04303,-48.99954,229.0073,215.3237,25,0.03290655,-0.04432858,0.07186061,1.068934,-0.01425282,-0.3840327,0.02778665,0.01533647,0.05588746,-0.02584828,-0.0209637,-0.02242629,0.0.0.0,10.181.213.137,1,0
2014-11-19 12:57:05.040,110,110,37.45545,-122.1475,10.67001,16.61,94.28915,3,10,1416430624,-0.07322693,0.4262695,-0.919693,35.62365,-37.23877,-50.06635,229.625,215.9414,25,-0.01530119,-0.04151256,0.07646335,1.109829,-0.06070989,-0.3772546,-0.1339439,0.02928945,0.0738204,0.01586347,0.03943683,-0.01284445,0.0.0.0,10.181.213.137,1,0
2014-11-19 12:57:06.040,111,111,37.45545,-122.1473,10.78326,15.87,89.15738,3,10,1416430625,-0.0783844,0.4067535,-0.8853455,35.41924,-37.99054,-51.03317,228.489,214.8054,25,-0.08506936,-0.05180168,0.07171386,1.158955,-0.07072149,-0.3966471,-0.07382482,-0.02117781,0.0588433,-0.0225311,0.009347744,0.03304719,0.0.0.0,10.181.213.137,1,0
2014-11-19 12:57:07.045,112,112,37.45545,-122.1472,10.60513,15.38,87.16595,4,10,1416430626,-0.005340576,0.3766022,-0.8560944,35.56374,-39.0813,-50.3205,227.6961,214.0124,25,0.2413386,-0.08486296,0.05866838,1.225845,-0.06467631,-0.4167919,-0.05505529,0.02486483,0.09338909,-0.04365438,0.01080503,-0.004526887,0.0.0.0,10.181.213.137,1,0
2014-11-19 12:57:08.042,113,113,37.45545,-122.147,10.2016,14.84,83.92741,6,10,1416430627,-0.04804993,0.3735962,-0.7274628,34.11592,-40.39642,-50.20377,226.1444,212.4607,25,0.1066716,-0.1794489,0.04640931,1.282465,-0.05569284,-0.4157852,-0.1784631,-0.03891627,0.03821429,0.03534223,0.0621256,-0.00603722,0.0.0.0,10.181.213.137,1,0
2014-11-19 12:57:09.044,114,114,37.45546,-122.1469,10.85699,14.42,83.92741,3,10,1416430628,-0.02223206,0.4977417,-0.8957672,33.45163,-40.82343,-50.5538,224.6225,210.9389,25,-0.0463201,-0.059307,0.05207146,1.331397,-0.04120177,-0.4497364,0.05863547,-0.0528772,0.03540502,0.01826489,-0.003407979,-0.002363203,0.0.0.0,10.181.213.137,1,0
2014-11-19 12:57:10.041,115,115,37.45549,-122.1467,10.93164,14.42,77.79949,3,10,1416430629,0.01647949,0.4546051,-0.8003998,33.45158,-41.95099,-51.08728,224.0008,210.3171,25,0.09468284,-0.1514236,0.04129897,1.38262,-0.02989716,-0.4647043,0.05997406,-0.03085416,0.02038168,0.04196624,0.00868963,0.03398125,0.0.0.0,10.181.213.137,1,0
2014-11-19 12:57:11.043,116,116,37.45552,-122.1465,10.99725,14.91,74.05443,3,10,1416430630,-0.06738281,0.4369354,-0.8722839,32.42956,-43.55664,-51.52066,222.5375,208.8539,25,-0.08890697,-0.07492165,0.09228173,1.438698,-0.0436528,-0.4842306,0.04985576,-0.03701663,0.06122056,-0.02290152,-0.00634482,0.05609579,0.0.0.0,10.181.213.137,1,0
2014-11-19 12:57:12.046,117,117,37.45556,-122.1464,10.92661,15.09,69.77521,3,10,1416430631,-0.1038971,0.4470825,-0.8038025,31.35641,-43.77893,-51.70407,221.5806,207.897,25,0.1652286,-0.08069378,0.08199634,1.494995,-0.05808285,-0.4919454,0.02449985,-0.02232067,0.07233828,-0.0111658,0.01004988,0.003647537,0.0.0.0,10.181.213.137,1,0
2014-11-19 12:57:13.048,118,118,37.45561,-122.1462,10.88602,15.79,66.2505,3,10,1416430632,0.02384949,0.4233398,-0.8577118,30.47067,-44.73535,-51.63745,221.2313,207.5476,25,0.0920511,-0.03142291,0.05790218,1.549789,-0.0259323,-0.4880676,0.0417995,-0.02098329,0.04075318,0.04923856,-0.02311921,0.04435115,0.0.0.0,10.181.213.137,1,0
2014-11-19 12:57:14.042,119,119,37.45568,-122.146,10.78531,15.92,64.29005,3,10,1416430633,0.04707336,0.3781738,-0.9371796,29.78934,-44.66681,-51.93753,218.7152,205.0316,25,-0.09533931,-0.02839995,0.02128159,1.57325,0.01244242,-0.4450831,0.05099788,-0.04007411,0.001522987,0.003922055,-0.06435249,-0.02770128,0.0.0.0,10.181.213.137,1,0
2014-11-19 12:57:15.044,120,120,37.45576,-122.1459,10.72769,16.17,62.5109,3,10,1416430634,0.01626587,0.3888092,-0.8913269,29.15355,-43.99542,-50.57825,218.5738,204.8902,25,0.01194747,-0.06685946,0.009767143,1.573766,0.02023606,-0.4172443,-0.09566014,0.01093341,0.004309813,0.003580738,-0.01020789,-0.0007729471,0.0.0.0,10.181.213.137,1,0
2014-11-19 12:57:16.044,121,121,37.45583,-122.1457,10.67249,16.01,61.94814,3,10,1416430635,0.03323364,0.4421387,-0.9070435,29.73261,-44.13214,-50.54486,219.039,205.3554,25,0.05043015,-0.0308213,0.01245108,1.57904,0.04011298,-0.4149964,-0.03421687,0.02970617,0.0144782,-0.009735974,0.04383487,0.02809014,0.0.0.0,10.181.213.137,1,0
2014-11-19 12:57:17.041,122,122,37.4559,-122.1456,10.76224,15.48,61.94814,3,10,1416430636,0.06028748,0.4130402,-0.9445496,29.66443,-45.12292,-49.47797,217.0283,203.3447,25,0.01371821,-0.03685069,0.06516515,1.605705,0.07499884,-0.4281867,-0.07305705,0.04911667,0.03761922,0.05250249,0.06863426,-0.01336939,0.0.0.0,10.181.213.137,1,0
2014-11-19 12:57:18.043,123,123,37.45596,-122.1454,9.991608,15.05,61.94814,3,10,1416430637,0.105011,0.4734802,-0.9441833,28.96608,-47.08722,-48.36115,215.6874,202.0038,25,0.01924826,-0.05839487,0.002700179,1.618226,0.09706303,-0.4344374,-0.08693235,0.01670204,-0.0206918,0.02232112,0.03115672,-0.03675316,0.0.0.0,10.181.213.137,1,0
2014-11-19 12:57:19.045,124,124,37.45599,-122.1453,9.994934,15.21,61.94814,3,10,1416430638,0.09132385,0.4680786,-0.8394012,28.26774,-46.42102,-48.1778,215.4838,201.8001,25,-0.01680108,-0.0532009,-0.003323625,1.611003,0.09714042,-0.4494433,0.003435081,0.0013441,-0.03137066,-0.02372664,-0.001251851,0.04471256,0.0.0.0,10.181.213.137,1,0
2014-11-19 12:57:20.045,125,125,37.4561,-122.1451,9.863495,15.91,61.83745,3,10,1416430639,0.07408142,0.4341736,-0.8983765,28.21661,-46.77979,-48.36115,215.3804,201.6967,25,-0.05428428,-0.02626969,0.01035304,1.605477,0.107141,-0.4534899,-0.04362117,0.01339868,-0.01057766,-0.02129832,-0.01737473,-0.001402996,0.0.0.0,10.181.213.137,1,0
2014-11-19 12:57:21.045,126,126,37.45615,-122.1449,10.10352,16.19,61.83745,3,10,1416430640,0.06784058,0.3894806,-0.8977203,28.09742,-46.42096,-48.41116,215.4808,201.7971,25,0.009520002,-0.08625526,0.01201885,1.588644,0.07686568,-0.4282265,0.01456028,-0.02657138,-0.01098679,-0.02913044,-0.0176446,-0.007823166,0.0.0.0,10.181.213.137,1,0
2014-11-19 12:57:22.042,127,127,37.45623,-122.1448,9.997559,16.72,61.83745,3,10,1416430641,0.04515076,0.4042969,-0.8892059,27.19469,-45.6864,-48.56116,215.9889,202.3053,25,0.0263637,-0.03667359,0.01164387,1.577502,0.06659821,-0.4114606,-0.09751566,0.07091015,0.006024296,-0.01698831,-0.007644997,0.02182087,0.0.0.0,10.181.213.137,1,0
2014-11-19 12:57:23.045,128,128,37.45631,-122.1446,9.951447,16.31,61.83745,3,10,1416430642,0.02406311,0.3793182,-0.8834686,27.87604,-46.36969,-48.82794,216.6555,202.9719,25,0.1563654,-0.1566724,0.01627724,1.573268,0.05153625,-0.4024281,0.02787355,-0.02161082,-0.003591018,0.01189748,0.01668686,-0.007820923,0.0.0.0,10.181.213.137,1,0
2014-11-19 12:57:24.044,129,129,37.45637,-122.1444,10.40668,15.66,61.83745,3,10,1416430643,0.06967163,0.3960419,-0.9627686,27.79086,-45.60101,-49.07791,216.5903,202.9067,25,-0.04224866,0.007588145,0.009725331,1.568914,0.06371073,-0.3983247,-0.06378724,0.08188863,-0.000512274,-0.007184819,0.0005987816,-0.05606428,0.0.0.0,10.181.213.137,1,0
2014-11-19 12:57:25.043,130,130,37.45645,-122.1443,10.7981,15.84,61.83745,3,10,1416430644,0.01931763,0.3495636,-0.9539795,28.50616,-46.76245,-47.91107,215.6009,201.9173,25,0.1512976,-0.207125,-0.0663191,1.578005,0.09623104,-0.3910809,0.1466748,0.07754202,-0.09143802,-0.006674795,0.008979308,-0.1116859,0.0.0.0,10.181.213.137,1,0
2014-11-19 12:57:26.044,131,131,37.45649,-122.1441,10.7822,15.54,61.83745,3,10,1416430645,0.06536865,0.379303,-0.8913879,27.04137,-45.70343,-48.37781,215.4637,201.78,25,0.08759696,-0.1039922,0.02788836,1.562173,0.07154926,-0.40574,-0.01854764,0.02272306,0.02081637,-0.001887146,0.01261935,0.02510233,0.0.0.0,10.181.213.137,1,0
2014-11-19 12:57:27.041,132,132,37.45656,-122.144,11.05807,15.76,61.75408,3,10,1416430646,0.07635498,0.433075,-0.881424,27.876,-46.33575,-48.3945,215.5917,201.9081,25,-0.03977564,-0.05790245,0.005716209,1.565829,0.07297947,-0.4302837,0.05012009,-0.06309639,-0.0006364994,0.02455197,0.01315392,0.05016605,0.0.0.0,10.181.213.137,1,0
2014-11-19 12:57:28.045,133,133,37.45664,-122.1438,11.23959,16.27,61.75408,3,10,1416430647,0.04576111,0.3857422,-0.8858185,26.99027,-46.09644,-48.19449,215.4663,201.7827,25,0.007157512,-0.05588936,0.007231281,1.566336,0.06850356,-0.42637,0.02602761,-0.04271852,-0.003445172,-0.01833078,-0.02291296,0.02088637,0.0.0.0,10.181.213.137,1,0
2014-11-19 12:57:29.042,134,134,37.45671,-122.1437,11.08438,15.96,61.75408,3,10,1416430648,0.06135559,0.3070221,-0.8552399,26.78589,-45.72076,-48.99457,215.3589,201.6752,25,0.08056542,-0.0892854,0.01059698,1.556308,0.06088209,-0.4122986,0.1511508,-0.01223404,-0.01023292,0.01386475,-0.02362593,0.06556667,0.0.0.0,10.181.213.137,1,0
2014-11-19 12:57:30.042,135,135,37.45679,-122.1435,10.84836,15.41,61.75408,3,10,1416430649,0.04125977,0.3016052,-0.8750458,27.43311,-45.48175,-47.96121,216.4081,202.7244,25,0.1373845,-0.1842745,-0.007790811,1.542784,0.06344186,-0.4006688,0.02478558,-0.03797597,-0.008079267,0.004625433,-0.1158949,-0.04806259,0.0.0.0,10.181.213.137,1,0
2014-11-19 12:57:31.040,136,136,37.45685,-122.1433,10.60501,15.08,61.75408,3,10,1416430650,0.04031372,0.2710114,-0.9689178,28.18251,-45.20844,-48.16122,216.8589,203.1753,25,0.02988946,-0.03310576,0.01913268,1.52734,0.05589498,-0.3411862,-0.07390202,0.06678706,0.009414144,0.002194406,-0.04934207,0.0006706653,0.0.0.0,10.181.213.137,1,0
2014-11-19 12:57:32.044,137,137,37.45689,-122.1432,10.3671,13.86,61.75408,3,10,1416430651,0.06710815,0.3153534,-0.878479,28.43802,-45.32812,-48.37793,218.1804,204.4967,25,0.06388631,-0.09512385,-0.004681038,1.515832,0.04041718,-0.3253537,0.02390635,-0.05209519,-0.001120128,-0.006563352,-0.01828283,0.03560059,0.0.0.0,10.181.213.137,1,0
2014-11-19 12:57:33.044,138,138,37.45694,-122.1431,10.34488,12.64,61.75408,3,10,1416430652,0.04638672,0.3018188,-1.002411,28.91496,-44.26923,-48.31128,218.6232,204.9396,25,-0.07982852,-0.00434042,0.03295982,1.521629,0.05444616,-0.3203596,-0.05959883,0.03299382,0.03550001,0.01145982,-0.02296148,-0.02196499,0.0.0.0,10.181.213.137,1,0
2014-11-19 12:57:34.043,139,139,37.45699,-122.143,10.22238,11.51,61.75408,3,10,1416430653,0.001037598,0.3188477,-0.9272766,27.72269,-45.15765,-48.74466,218.0905,204.4068,25,-0.01091683,-0.03148203,0.008031561,1.512906,0.03923649,-0.3078058,0.01810941,-0.007596011,-0.02295972,-0.0009142969,-0.003224619,0.0239377,0.0.0.0,10.181.213.137,1,0
2014-11-19 12:57:35.045,140,140,37.45703,-122.1429,10.1507,10.48,60.14572,3,10,1416430654,0.03686523,0.3246307,-0.954071,28.09742,-44.84998,-48.44464,218.6278,204.9442,25,0.009453423,-0.05717487,0.01710176,1.507298,0.03367101,-0.3293492,-0.02718214,0.009392588,0.01403808,-0.004252122,0.004148365,0.0006635647,0.0.0.0,10.181.213.137,1,0
2014-11-19 12:57:36.045,141,141,37.45706,-122.1428,9.977112,9.88,60.14572,3,10,1416430655,0.02960205,0.3187103,-0.9014893,28.60838,-44.03003,-48.31128,218.3555,204.6718,25,-0.03623683,-0.05190288,0.01199488,1.507421,0.03789085,-0.3223087,0.03937638,-0.05534199,-0.008217989,-0.004620086,-0.01568603,0.08675712,0.0.0.0,10.181.213.137,1,0
2014-11-19 12:57:37.041,142,142,37.45707,-122.1427,9.765259,8.4,60.14572,3,10,1416430656,0.02702332,0.2644348,-0.9423981,28.14851,-43.63721,-48.86127,219.011,205.3273,25,0.005950035,-0.04496401,0.007261375,1.507851,0.03419682,-0.3162879,-0.0291683,0.03015926,-0.005849113,-0.01801361,-0.03572641,0.01934471,0.0.0.0,10.181.213.137,1,0
2014-11-19 12:57:38.043,143,143,37.4571,-122.1426,9.286011,7.71,57.66513,3,10,1416430657,0.03518677,0.2902679,-0.9227142,28.42101,-44.55957,-48.59457,219.0201,205.3365,25,0.04450808,-0.06226151,0.004710067,1.503615,0.03112107,-0.3019361,0.0455177,-0.02012754,-0.006008807,0.002762271,-0.01085506,0.04893522,0.0.0.0,10.181.213.137,1,0
2014-11-19 12:57:39.045,144,144,37.45712,-122.1426,9.077118,6.01,57.66513,3,10,1416430658,0.03431702,0.2662201,-0.959259,29.01717,-44.44,-48.94467,219.0925,205.4089,25,0.05209623,-0.04153439,-0.02800873,1.480151,0.03685421,-0.2853496,-0.00606712,0.01819097,-0.02927945,-0.01353588,-0.01518127,0.03294737,0.0.0.0,10.181.213.137,1,0
2014-11-19 12:57:40.046,145,145,37.45715,-122.1425,9.016846,4.01,55.86401,3,10,1416430659,0.06886292,0.3819427,-0.8844147,29.22158,-44.98669,-48.91135,219.0812,205.3976,25,0.03998097,-0.04874384,-0.02108797,1.458067,0.0540265,-0.3443025,0.006540206,0.01558621,-0.01860642,0.01867277,0.04975841,0.04841241,0.0.0.0,10.181.213.137,1,0
2014-11-19 12:57:41.041,146,146,37.45718,-122.1425,8.578094,2.97,55.86401,3,10,1416430660,0.08021545,0.4588013,-0.8639374,29.76666,-44.88403,-48.578,218.7246,205.041,25,0.03599156,-0.07557306,0.01293338,1.456136,0.07578675,-0.4358384,-0.002940539,-0.0054965,0.00191108,0.01237272,0.04111674,0.02021678,0.0.0.0,10.181.213.137,1,0
2014-11-19 12:57:42.043,147,147,37.45718,-122.1425,8.830566,2.34,55.86401,3,10,1416430661,0.07756042,0.5283051,-0.8386536,28.6227,-45.65485,-47.66354,218.0486,204.365,25,-0.002912167,-0.06207429,0.04609,1.498903,0.09365149,-0.5124476,-0.01368102,-0.01104522,0.04100505,0.006693383,0.03054685,0.03531511,0.0.0.0,10.181.213.137,1,0
2014-11-19 12:57:43.040,148,148,37.4572,-122.1424,8.853882,2.95,52.94327,3,10,1416430662,0.01235962,0.4944305,-0.8680267,27.8733,-46.81622,-47.39682,216.9964,203.3127,25,0.006892261,-0.1038859,0.1380631,1.584797,0.05761693,-0.542627,-0.02078844,-0.01905099,0.1231802,-0.0213439,-0.01972909,-0.02224795,0.0.0.0,10.181.213.137,1,0
2014-11-19 12:57:44.045,149,149,37.45722,-122.1424,8.331116,3.37,52.94327,3,10,1416430663,0.03175354,0.4537811,-0.8751984,25.55236,-46.95856,-46.92746,215.1422,201.4586,25,-0.00128897,-0.08429171,0.1158632,1.694717,0.04115171,-0.5147474,0.004791597,-0.03889482,0.1142252,-0.01304293,-0.04831478,0.002630017,0.0.0.0,10.181.213.137,1,0
2014-11-19 12:57:45.043,150,150,37.45723,-122.1424,8.07605,4.29,50.19472,3,10,1416430664,0.01231384,0.3509216,-0.9230042,24.36015,-46.61682,-47.69418,214.1881,200.5044,25,0.01929886,-0.05893895,0.1044252,1.784114,0.03174243,-0.4514113,-0.00545161,-0.03283754,0.09326351,-0.02886325,-0.08818292,0.003886497,0.0.0.0,10.181.213.137,1,0
2014-11-19 12:57:46.045,151,151,37.45726,-122.1423,8.503906,4.53,47.48923,3,10,1416430665,-0.002182007,0.2585297,-0.9572906,23.74606,-46.57495,-48.61429,213.9635,200.2799,25,0.0161819,-0.07808682,0.06130837,1.838278,0.01734703,-0.3674323,0.01846143,-0.05843174,0.04500546,-0.01948425,-0.1005533,-0.006539107,0.0.0.0,10.181.213.137,1,0
2014-11-19 12:57:47.040,152,152,37.45729,-122.1423,8.534943,3.76,44.145,3,10,1416430666,0.03129578,0.359726,-0.9227142,22.2034,-45.43323,-47.80676,214.1337,200.4501,25,0.01047794,-0.06212009,0.03303652,1.883939,0.02708623,-0.3185906,-0.009975671,-0.008411761,0.02376471,0.01148088,0.03043007,0.02147304,0.0.0.0,10.181.213.137,1,0
2014-11-19 12:57:48.045,153,153,37.4573,-122.1423,8.345642,2.55,44.145,3,10,1416430667,0.06781006,0.39888,-0.8885498,22.4248,-46.065,-47.35666,213.7232,200.0396,25,0.03471351,-0.06104178,0.01911164,1.911084,0.04617902,-0.3386737,0.0128141,-0.01471311,0.02099772,0.03054103,0.07027515,0.03917549,0.0.0.0,10.181.213.137,1,0
2014-11-19 12:57:49.042,154,154,37.45732,-122.1422,8.22171,1.31,44.145,3,10,1416430668,0.08198547,0.6021729,-0.7576294,24.87713,-30.25275,-52.08978,215.1054,201.4218,25,-0.1487549,-0.1112773,-0.04345613,1.87486,0.08377988,-0.6003367,-0.1179773,-0.0862489,-0.03239032,0.008342838,0.04007535,0.03500454,0.0.0.0,10.181.213.137,1,0
2014-11-19 12:57:50.042,155,155,37.45733,-122.1422,7.895874,0.98,44.145,3,10,1416430669,0.04896545,0.6298523,-0.8063507,21.91392,-28.64777,-53.22311,213.8249,200.1413,25,-0.6260945,0.1521243,0.002973686,1.875496,0.05259276,-0.6501135,-0.462043,0.2972353,0.01790883,0.009988771,0.02689492,0.01271846,0.0.0.0,10.181.213.137,1,0
2014-11-19 12:57:51.040,156,156,37.45733,-122.1422,7.593262,0.91,44.145,3,10,1416430670,0.03363037,0.7074432,-0.6925812,21.04537,-21.3905,-54.60632,213.4825,199.7989,25,0.03993357,-0.07059933,-0.01632438,1.884431,0.04496543,-0.7734149,-0.008153269,0.003380045,0.01960612,-0.003903959,0.003916621,0.01926463,0.0.0.0,10.181.213.137,1,0
2014-11-19 12:57:52.045,157,157,37.45734,-122.1422,7.898132,0.79,40.4261,3,10,1416430671,0.02462769,0.6983032,-0.7111511,21.19868,-21.95416,-54.1564,213.8184,200.1348,25,0.03627199,-0.08272098,-0.01161538,1.881237,0.03792347,-0.7775385,-0.01979376,-0.01220183,-0.01146961,-0.007961172,-0.002445927,0.006685802,0.0.0.0,10.181.213.137,1,0
2014-11-19 12:57:53.043,158,158,37.45735,-122.1422,8.084534,0.76,40.4261,3,10,1416430672,0.07546997,0.8895721,-0.6873627,21.11348,-18.04388,-56.13962,211.3335,197.6498,25,-0.9128677,-0.3341961,0.4626041,1.972794,0.1126749,-0.8467394,-0.8810579,-0.3531877,0.4932168,0.08421005,0.1632901,-0.007557969,0.0.0.0,10.181.213.137,1,0
2014-11-19 12:57:54.046,159,159,37.45736,-122.1422,8.141785,0.66,40.4261,3,10,1416430673,0.2766113,0.6295013,-0.5099487,14.76311,0.05603027,-22.43155,222.1251,208.4415,25,1.549495,-0.2802269,-0.2144423,1.866907,0.4057963,-0.9095078,1.608962,-0.1721939,-0.3966302,0.06994807,-0.1336992,0.1260423,0.0.0.0,10.181.213.137,1,0
2014-11-19 12:57:55.041,160,160,37.45736,-122.1422,8.236603,0.58,40.4261,3,10,1416430674,0.03923035,-0.04434204,-0.9785004,-26.61988,-1.136536,-14.9158,106.6229,92.9393,25,-0.2785752,1.70637,1.590216,-2.739739,0.2558973,0.0800641,-0.1262141,1.727111,1.715644,-0.2819201,0.03791011,0.07371246,0.0.0.0,10.181.213.137,1,0
2014-11-19 12:57:56.042,161,161,37.45737,-122.1423,8.396027,0.55,40.4261,3,10,1416430675,0.4416656,-0.4427795,-1.004364,-18.52692,9.04303,-18.02423,64.26405,50.58042,25,-1.063112,0.03845764,0.64398,-2.135314,0.3721978,0.5047363,-1.359138,-0.01070713,0.5009091,-0.01393319,0.05718505,-0.2132856,0.0.0.0,10.181.213.137,1,0
2014-11-19 12:57:57.041,162,162,37.45736,-122.1422,8.442505,0.58,40.4261,3,10,1416430676,0.1216736,-0.6410522,-0.7590485,-15.7575,5.533691,-20.2507,62.44195,48.75831,25,-0.2503574,-0.3611441,-0.1009801,-1.832243,0.2080504,0.6895576,-0.2734864,-0.307947,-0.09242601,-0.08158708,0.02807213,-0.001381437,0.0.0.0,10.181.213.137,1,0
2014-11-19 12:57:58.044,163,163,37.45737,-122.1422,8.711823,0.61,40.4261,3,10,1416430677,0.08976746,-0.6617279,-0.7333221,-15.33201,5.550659,-20.30069,60.71815,47.03451,25,-0.1236641,0.4560868,-0.04153892,-1.76462,0.1735054,0.709811,-0.1408757,0.3818124,-0.02135076,-0.04575216,-0.0004702311,0.01931371,0.0.0.0,10.181.213.137,1,0
2014-11-19 12:57:59.040,164,164,37.45737,-122.1422,8.332367,0.55,40.4261,3,10,1416430678,0.06445312,-0.6243896,-0.7267609,-16.02982,5.533691,-20.38388,58.05565,44.37201,25,0.02843484,0.006816627,0.04017245,-1.673629,0.08886044,0.7060858,0.0004598675,0.02145921,0.05319252,-0.005040881,0.02634757,0.03114446,0.0.0.0,10.181.213.137,1,0
2014-11-19 12:58:00.062,165,165,37.45736,-122.1423,8.281219,0.52,40.4261,3,10,1416430679,0.1812439,-0.5831451,-0.7805328,-14.80435,6.591614,-20.51706,57.00121,43.31757,25,-0.02021952,-0.1349171,0.08797513,-1.6916,0.1473508,0.661028,-0.09597399,-0.08363186,-0.02581834,0.09812714,0.03768048,-0.009582417,0.0.0.0,10.181.213.137,1,0
2014-11-19 12:58:01.041,166,166,37.45735,-122.1423,7.9104,0.5,40.4261,3,10,1416430680,0.08529663,-0.5848846,-0.7671661,-14.95753,7.052307,-20.10089,57.75196,44.06832,25,0.04340526,-0.03430604,-0.004954545,-1.66941,0.1167923,0.6424036,0.0167516,-0.02397808,0.01575506,0.001855562,0.02273615,0.001990659,0.0.0.0,10.181.213.137,1,0
2014-11-19 12:58:02.041,167,167,37.45735,-122.1423,8.168701,0,40.4261,3,10,1416430681,0.1027222,-0.5801697,-0.771225,-15.53621,7.120422,-20.0676,57.90648,44.22284,25,0.008377505,-0.06317018,0.00599877,-1.672253,0.1150677,0.6340351,0.008783731,0.005754542,-0.001002711,-0.005737682,0.01862416,0.02803814,0.0.0.0,10.181.213.137,1,0
2014-11-19 12:58:03.040,168,168,37.45735,-122.1422,7.866058,0,40.4261,3,10,1416430682,0.06759644,-0.5848846,-0.7742462,-15.57024,7.018005,-20.36719,57.91417,44.23053,25,0.01125186,-0.1387467,0.07302574,-1.668259,0.1138643,0.640612,-0.008146463,-0.06137533,0.07188555,0.006946383,0.0009759919,0.02482524,0.0.0.0,10.181.213.137,1,0
2014-11-19 12:58:04.040,169,169,37.45734,-122.1423,8.1297,0,40.4261,3,10,1416430683,0.06590271,-0.5798492,-0.7575073,-15.16177,7.325317,-20.63348,57.65347,43.96983,25,0.0598106,-0.07590036,0.0357548,-1.663749,0.09910256,0.6448177,0.02653154,-0.03043878,0.03336697,0.00695494,0.02347701,0.00529468,0.0.0.0,10.181.213.137,1,0
2014-11-19 12:58:05.041,170,170,37.45735,-122.1422,8.087372,0,40.4261,3,10,1416430684,0.09327698,-0.7234344,-0.6798096,-15.31496,7.444824,-20.71664,56.72243,43.03879,25,-0.1900235,-0.2366618,-0.1166515,-1.687994,0.1264125,0.6598763,-0.2032629,-0.1541172,-0.1481206,-0.009108826,-0.1248959,0.1016349,0.0.0.0,10.181.213.137,1,0
2014-11-19 12:58:06.041,171,171,37.45735,-122.1423,7.811615,0,40.4261,3,10,1416430685,0.08926392,-0.6870575,-0.7529449,-16.2,8.093262,-19.41833,56.12439,42.44075,25,0.04788097,-0.007251521,-0.08185598,-1.688414,0.07483668,0.7318302,-0.01665258,0.05797104,-0.09332898,0.007975642,-0.01935921,-0.007992323,0.0.0.0,10.181.213.137,1,0
2014-11-19 12:58:07.041,172,172,37.45734,-122.1422,8.137848,0.4,40.4261,3,10,1416430686,0.1116333,-0.6191254,-0.7925568,-15.16179,7.973694,-19.96759,54.43881,40.75517,25,0.1707643,0.03240455,0.01547483,-1.712894,0.1039003,0.7412488,-0.02693152,-0.007662412,-0.02668376,0.0655423,0.01555686,-0.09267638,0.0.0.0,10.181.213.137,1,0
2014-11-19 12:58:08.041,173,173,37.45734,-122.1422,7.906006,0.72,40.4261,3,10,1416430687,0.1252289,-0.6996155,-0.6916656,-15.82557,8.537109,-20.21729,55.77612,42.09248,25,0.0825564,-0.01672066,0.04543433,-1.748611,0.1391253,0.7363531,0.08390316,0.1101204,0.04405583,0.02843092,0.0005392922,0.001189199,0.0.0.0,10.181.213.137,1,0
2014-11-19 12:58:09.040,174,174,37.45735,-122.1422,8.297089,3.19,40.4261,3,10,1416430688,0.05104065,-0.6241302,-0.6433563,-15.82558,6.250366,-19.91772,57.5072,43.82356,25,-0.1173759,-0.2552088,0.05959649,-1.717485,0.1201029,0.7676436,0.1859381,0.04522648,0.03369137,-0.04850788,0.07662848,0.07378645,0.0.0.0,10.181.213.137,1,0
2014-11-19 12:58:10.041,175,175,37.45739,-122.1422,8.458771,4.63,40.38929,3,10,1416430689,0.1961212,-0.6765747,-0.7992706,-15.63837,7.700745,-20.63339,56.25654,42.5729,25,-0.06554598,-0.1518782,0.1575044,-1.724847,0.1332534,0.7173485,-0.01593638,0.001206209,-0.02071494,0.08721578,0.02086859,0.006392592,0.0.0.0,10.181.213.137,1,0
2014-11-19 12:58:11.041,176,176,37.45744,-122.1422,8.319,5.28,40.38929,3,10,1416430690,0.08306885,-0.6125793,-0.8034973,-16.0979,7.513062,-19.81769,56.83467,43.15103,25,0.3464469,0.1994548,0.01847169,-1.705018,0.1153523,0.7296076,-0.1319358,-0.1264758,-0.001563417,0.01678764,-0.01034847,-0.1661036,0.0.0.0,10.181.213.137,1,0
2014-11-19 12:58:12.041,177,177,37.45751,-122.1421,8.290558,5.81,38.15723,3,10,1416430691,0.06088257,-0.7033386,-0.6987457,-16.55744,7.222839,-19.70117,58.2599,44.57626,25,-0.2058445,-0.148627,0.002280998,-1.703649,0.1145728,0.747381,-0.04000121,0.0613379,0.03685511,-0.03342187,-0.03220923,0.1843207,0.0.0.0,10.181.213.137,1,0
2014-11-19 12:58:13.040,178,178,37.45755,-122.1421,8.603729,6.69,37.72993,3,10,1416430692,0.1546783,-0.6372833,-0.6735077,-16.33615,9.185364,-20.05063,55.85468,42.17104,25,0.01529746,-0.16583,0.1416197,-1.721526,0.1100668,0.7593209,0.05599694,0.2055037,-0.06713521,0.05521693,0.07726873,0.04986371,0.0.0.0,10.181.213.137,1,0
2014-11-19 12:58:14.041,179,179,37.4576,-122.142,8.1362,7.17,37.72993,3,10,1416430693,0.07867432,-0.6781006,-0.9975128,-16.60846,9.765625,-21.21579,54.77876,41.09512,25,-0.2482657,-0.326058,0.1383038,-1.710502,0.08508604,0.7196711,-0.6268381,-0.3871495,0.06779216,0.01560411,-0.01076926,-0.08181369,0.0.0.0,10.181.213.137,1,0
2014-11-19 12:58:15.041,180,180,37.45767,-122.142,8.173676,8.24,38.15729,3,10,1416430694,0.05943298,-0.5030823,-0.4678192,-11.17908,-0.7637939,-22.63058,61.56879,47.88515,25,0.4756177,0.1579915,0.3066915,-1.775437,0.1779144,0.7135545,0.6132632,0.3604583,0.2482201,0.0199914,0.1470789,0.2404287,0.0.0.0,10.181.213.137,1,0
