time,timestamp,recordtime,lat,long,alt,speed,course,verticalAccuracy,horizontalAccuracy,locTimeStamp,accelerationX,accelerationY,accelerationZ,HeadingX,HeadingY,HeadingZ,TrueHeading,MagneticHeading,HeadingAccuracy,RotationX,RotationY,RotationZ,motionYaw,motionRoll,motionPitch,motionRotationRateX,motionRotationRateY,motionRotationRateZ,motionUserAccelerationX,motionUserAccelerationY,motionUserAccelerationZ,en0,pdp_ip0,DeviceOrientation,State
2014-11-19 12:41:32.190,1,1,37.42644,-122.1444,12.84006,5.08,125.5078,3,10,1416429692,-0.04115295,-0.668335,-0.7683258,-9.01236,-13.05377,-1.050339,144.4089,130.7252,26,-0.02974245,-0.1681025,0.1855118,0.7643041,-0.03323919,0.7849535,-0.1368465,-0.2066748,0.1962871,-0.1017801,0.03987639,-0.0382394,0.0.0.0,10.181.213.137,1,0
2014-11-19 12:41:33.190,2,2,37.42639,-122.1444,12.75998,5.23,122.3438,3,10,1416429693,-0.1265411,-0.6781006,-0.7678375,-9.472687,-11.70203,-1.868698,142.9093,129.2257,26,-0.1367728,-0.03078321,-0.146745,0.8052166,-0.04692265,0.6519677,-0.06391568,0.006258494,-0.002265586,-0.08628095,-0.01660034,-0.01209006,0.0.0.0,10.181.213.137,1,0
2014-11-19 12:41:34.189,3,3,37.42638,-122.1443,12.59299,5.44,123.75,3,10,1416429694,0.08995056,-0.4502106,-0.6091766,-8.637115,-12.9511,-5.39241,150.8184,137.1347,26,2.115685,0.5296958,0.05022082,0.6219596,0.06741233,0.6349164,2.069837,0.2749652,-0.1529217,-0.03305481,0.1225902,0.1545957,0.0.0.0,10.181.213.137,5,0
2014-11-19 12:41:35.198,4,4,37.42626,-122.1443,12.80603,5.11,119.8828,6,10,1416429695,0.4685822,-0.6983032,-0.3602142,-4.476471,-12.95109,-10.33571,124.3334,110.6498,26,-0.270085,-0.03273771,0.8870814,0.7924745,0.6243723,0.9392512,0.07948955,-0.1953337,0.7437174,0.1661703,0.07329058,0.09019411,0.0.0.0,10.181.213.137,1,0
2014-11-19 12:41:36.190,5,5,37.42627,-122.1442,12.66568,5.2,118.4766,3,10,1416429696,-0.01223755,-0.6102295,-0.5915833,-6.966125,-8.878799,-10.1019,120.7248,107.0412,26,-0.1934454,-0.3545373,0.6129721,1.050915,0.305294,0.8184965,-0.1403217,-0.2962887,0.7066035,-0.1923569,0.1139389,0.06413659,0.0.0.0,10.181.213.137,1,0
2014-11-19 12:41:37.111,6,6,37.42627,-122.1442,12.66568,5.2,118.4766,3,10,1416429696,0.210434,-0.6105347,-0.6197205,-15.12363,-7.390137,-8.498932,103.0704,89.38673,25,0.3841565,-0.05120327,-0.1154896,1.082791,0.2898815,0.8245814,0.4191256,0.1365204,-0.138054,0.01490814,0.1019547,0.008389757,0.0.0.0,10.181.213.137,1,0
2014-11-19 12:41:38.111,7,7,37.42619,-122.1441,12.70355,6.03,122.3438,3,10,1416429698,0.01968384,-0.6438141,-0.9664612,-24.65485,-2.890152,-6.778778,106.3652,92.68153,25,0.02526701,-0.02569658,0.001872469,0.9192588,0.2038547,0.6778233,-0.1031567,-0.03246984,0.1626592,-0.09854993,0.006691908,-0.1409829,0.0.0.0,10.181.213.137,1,0
2014-11-19 12:41:39.111,8,8,37.42617,-122.144,13.16724,5.7,124.4531,3,10,1416429699,0.3216858,-0.4348907,-0.8424835,-21.27887,-7.817886,-10.85358,113.1234,99.43978,25,0.4323815,1.892316,0.1458424,0.8017639,0.3796619,0.5426897,0.414908,2.406328,0.0634102,0.03727074,0.0876844,-0.0438742,0.0.0.0,10.181.213.137,5,0
2014-11-19 12:41:40.110,9,9,37.42619,-122.144,13.0155,5.69,125.8204,3,10,1416429700,0.3865967,-0.2955627,-0.9620514,-14.578,-2.599274,-13.74274,99.60805,85.92441,25,-0.3243416,-0.6257609,0.06044763,0.8600039,0.2444702,0.505374,-0.6493561,-0.58815,-0.7040151,0.2127293,0.08298116,-0.1629867,0.0.0.0,10.181.213.137,5,0
2014-11-19 12:41:41.110,10,10,37.42616,-122.1439,13.06845,5.2,125.8204,3,10,1416429701,0.1622314,-0.3078003,-0.8452911,-18.82355,-0.3236313,-14.39409,92.08061,78.39697,25,0.2709111,0.02622814,0.1019844,0.8195431,0.1851281,0.3774287,0.3367117,0.0407543,0.113369,0.0964158,0.08871575,-0.03953167,0.0.0.0,10.181.213.137,5,0
2014-11-19 12:41:42.111,11,11,37.42614,-122.1439,12.86191,4.32,125.8204,3,10,1416429702,-0.3135223,-0.1677246,-1.274811,-23.37607,-2.701965,-6.695312,99.0863,85.40266,25,-1.175812,-0.4072937,0.7209142,1.194106,-0.13004,0.3609256,-1.11027,-0.7528403,0.7458913,-0.07065181,0.2748474,0.05250323,0.0.0.0,10.181.213.137,5,0
2014-11-19 12:41:43.111,12,12,37.42612,-122.1438,13.36758,3.26,125.8204,3,10,1416429703,-0.118515,0.06184387,-1.161896,-28.44003,3.885494,-3.238388,95.65202,81.96838,25,-0.005418467,-0.0726798,-0.6882071,1.064372,0.03344575,0.08789176,-0.005970463,-0.0298655,-0.6151519,-0.1455236,0.1909891,-0.2235486,0.0.0.0,10.181.213.137,5,0
2014-11-19 12:41:44.111,13,13,37.4261,-122.1438,12.9585,3.23,125.8204,3,10,1416429704,0.1643982,-0.1229706,-0.7516785,-216.9331,576.1025,489.9321,208.0563,194.3727,26,4.033624,-1.85467,-2.131553,-0.9609401,0.0498587,0.6767319,4.170972,-1.395321,-1.912971,0.1461426,0.4756595,-0.1852431,0.0.0.0,10.181.213.137,5,0
2014-11-19 12:41:45.111,14,14,37.42609,-122.1438,12.61832,2.96,125.8204,3,10,1416429705,0.1586151,-0.8917847,-0.5220642,-217.1036,581.5093,505.9642,219.525,205.8414,26,-0.01228969,0.1886429,0.1233544,-1.277829,0.3776486,1.039114,-0.05941704,0.3952004,0.0733462,0.06159187,-0.04527133,-0.07061075,0.0.0.0,10.181.213.137,1,0
2014-11-19 12:41:46.110,15,15,37.42609,-122.1438,12.61832,2.96,125.8204,3,10,1416429705,-0.2559204,-0.6641846,-0.9824982,-211.6986,586.3173,485.373,213.761,200.0774,26,0.4833603,0.2699175,0.6826845,-0.6791701,-0.584746,0.8376319,-0.001496233,-0.4565159,0.5110736,0.06070301,0.08638315,-0.2390238,0.0.0.0,10.181.213.137,1,0
2014-11-19 12:41:47.111,16,16,37.42607,-122.1437,12.72784,3.48,125.8204,3,10,1416429706,0.6021881,-0.2662659,-0.5876465,-219.4565,587.5322,499.6849,182.4065,168.7229,26,-0.1282765,-0.4333754,0.2824181,-0.5122044,0.5183064,0.3076139,0.4062332,-1.176411,0.6752598,-0.001191979,0.09348056,0.3626736,0.0.0.0,10.181.213.137,4,0
2014-11-19 12:41:48.111,17,17,37.42604,-122.1437,12.90982,4.01,125.8204,3,10,1416429707,0.4816437,-0.4183197,-0.7734528,-233.8471,583.9047,496.2112,166.5406,152.8569,26,-0.1603977,-0.05697407,0.02637328,-0.2187547,0.3934885,0.4818368,-0.1273943,-0.04279352,0.03894537,0.09334619,0.04507266,0.0855286,0.0.0.0,10.181.213.137,4,0
2014-11-19 12:41:49.111,18,18,37.42603,-122.1437,13.18594,4.09,125.8204,3,10,1416429708,0.2358704,0.3147888,-1.102539,-226.5325,611.8457,491.3182,184.5066,170.823,26,-2.967201,0.1708167,-1.309736,-0.3989183,0.212441,-0.09014501,-2.794515,-0.1963494,-1.391982,0.1321726,0.1659737,0.06588106,0.0.0.0,10.181.213.137,5,0
2014-11-19 12:41:50.110,19,19,37.42601,-122.1437,13.23532,3.74,125.8204,3,10,1416429709,-0.3194733,0.3585205,-0.3430328,-221.298,593.2469,464.7817,213.4102,199.7265,26,-0.4242756,0.4640057,0.7761855,-1.213445,-0.478364,-0.9070243,-0.4253308,-0.3839215,0.8483729,-0.2716784,0.01049804,0.8103937,0.0.0.0,10.181.213.137,5,0
2014-11-19 12:41:51.110,20,20,37.42601,-122.1437,13.08691,4.67,125.8204,3,10,1416429710,-0.1255188,0.8892365,-0.4178009,-224.2819,591.6899,467.103,208.9557,195.272,26,0.5149888,0.4142206,0.8623196,-1.401354,-0.6577547,-0.8186634,0.7355273,-0.1395729,0.9213945,0.1086768,0.06803025,0.1365769,0.0.0.0,10.181.213.137,5,0
2014-11-19 12:41:52.110,21,21,37.42601,-122.1436,13.05243,4.87,125.8204,3,10,1416429711,-0.5959015,-0.2964325,-0.7203827,-244.5549,588.5588,486.9594,148.4864,134.8027,26,-0.3319476,1.801202,-0.1819275,0.2702564,-0.5306702,0.336019,0.6172988,1.073463,0.171485,-0.01401416,0.05713311,0.1717173,0.0.0.0,10.181.213.137,3,0
2014-11-19 12:41:53.111,22,22,37.42592,-122.1435,12.85434,5.03,123.2338,3,10,1416429712,0.02909851,-0.5826874,-0.7905884,-247.7945,593.1099,481.7158,117.3639,103.6802,26,0.06325913,-0.2299767,0.2665403,0.7259547,0.001204887,0.6989446,0.05191625,-0.121612,0.2659838,0.06035693,0.04276311,-0.01469126,0.0.0.0,10.181.213.137,1,0
2014-11-19 12:41:54.110,23,23,37.4259,-122.1434,12.83267,5.02,123.2338,3,10,1416429713,0.05082703,-0.576004,-0.5691376,-245.0152,591.9291,485.2061,112.4278,98.74414,26,0.3491532,0.04415761,-0.4285455,0.8196054,-0.0484838,0.6784825,0.5613699,0.33722,-0.4048508,0.05201333,0.02864384,0.2839893,0.0.0.0,10.181.213.137,1,0
2014-11-19 12:41:55.110,24,24,37.42587,-122.1434,13.28998,5.73,123.2338,3,10,1416429714,0.1342316,-0.7883606,-0.6228333,-245.3848,589.2675,487.7806,113.0613,99.37766,25,0.430297,-0.5706438,-0.3489196,0.7100686,0.03846588,0.8599175,0.3843804,-0.383534,-0.278995,0.147301,-0.008156698,0.1085298,0.0.0.0,10.181.213.137,1,0
2014-11-19 12:41:56.189,25,25,37.42583,-122.1433,13.47891,5.59,123.2338,3,10,1416429715,0.07797241,-0.8164368,-0.5024872,-245.6917,590.1913,487.4466,127.2898,113.6062,25,0.1673589,-0.05666088,-0.1065307,0.7096376,0.1190815,0.9851999,0.1614384,-0.08969938,-0.1679154,0.02221488,0.03890324,0.00917059,0.0.0.0,10.181.213.137,1,0
2014-11-19 12:41:57.111,26,26,37.4258,-122.1432,13.33716,6.3,123.2338,3,10,1416429716,0.03448486,-0.8160248,-0.5491791,-246.4932,591.0299,486.428,126.6619,112.9783,25,-0.05663771,-0.1566567,-0.09717102,0.7979026,0.07363629,0.990268,-0.1085373,-0.129279,-0.03710684,0.01973862,0.02500051,0.04701,0.0.0.0,10.181.213.137,1,0
2014-11-19 12:41:58.110,27,27,37.42577,-122.1432,13.42795,6.26,123.2338,3,10,1416429717,-0.05682373,-0.7881775,-0.6220856,-245.1631,589.6268,486.6951,104.1429,90.45923,25,-0.2136303,-0.09966135,0.1567683,0.7902945,0.002716418,0.8662879,-0.2424541,-0.0129342,0.1736151,-0.04562833,0.001096294,0.04032663,0.0.0.0,10.181.213.137,1,0
2014-11-19 12:41:59.111,28,28,37.42574,-122.1431,13.08875,5.67,123.2338,3,10,1416429718,-0.05766296,-0.291275,-0.9093018,-248.3518,594.2639,480.6663,52.11376,38.43012,25,-0.3995368,0.7246616,0.07387982,0.8228499,-0.0427428,0.3390324,-0.5153024,0.8679156,0.3075051,-0.04097084,0.04741843,0.03179993,0.0.0.0,10.181.213.137,5,0
2014-11-19 12:42:00.111,29,29,37.42571,-122.1431,12.71408,5.7,123.2338,3,10,1416429719,-0.0620575,-0.4619141,-0.747467,-247.6868,595.5127,478.1111,48.4529,34.76926,25,0.774595,-0.7189121,-1.299721,0.9004406,0.002003301,0.4195964,0.7145011,-0.5266893,-0.7957617,-0.08445586,-0.05356084,0.1281106,0.0.0.0,10.181.213.137,5,0
2014-11-19 12:42:01.111,30,30,37.42568,-122.143,12.06183,5.7,123.2338,3,10,1416429720,-0.3885803,-0.4240875,-0.7018127,-249.0509,591.5776,488.0645,70.48806,56.80442,25,0.242753,-0.1533475,-0.06427886,0.7453508,-0.398243,0.5464987,0.187276,-0.3647255,-0.08128937,-0.08134253,0.004501346,-0.009780491,0.0.0.0,10.181.213.137,5,0
2014-11-19 12:42:02.114,31,31,37.42566,-122.143,12.18921,5.54,123.2338,3,10,1416429721,0.0128479,0.1310272,-1.112411,-246.9195,593.7851,478.9962,42.60609,28.92245,25,0.8313619,0.6675751,-0.0782727,0.5681977,-0.01038001,0.2557238,0.4325659,0.5641455,0.2264042,0.01556596,0.3456124,-0.1977175,0.0.0.0,10.181.213.137,5,0
2014-11-19 12:42:03.111,32,32,37.42563,-122.1429,13.30292,5.27,123.2338,4,10,1416429722,-0.1761475,-0.05706787,-0.8168182,-249.7671,596.1635,481.7184,49.99297,36.30933,25,0.1071012,-0.5123261,-0.3012949,0.7005678,-0.277416,0.2943631,0.1471911,-0.2948077,-0.3949443,0.03096649,0.2745054,0.008532762,0.0.0.0,10.181.213.137,5,0
2014-11-19 12:42:04.111,33,33,37.42561,-122.1429,12.66727,5.2,123.2338,3,10,1416429723,0.05006409,-0.03871155,-0.99646,-250.3298,596.0095,482.7037,50.37112,36.68748,25,-0.007322628,-0.02545609,0.00941028,0.6702719,0.03036895,0.08034778,-0.01343386,0.02344034,0.02102223,0.02712198,0.04177869,0.01210709,0.0.0.0,10.181.213.137,5,0
2014-11-19 12:42:05.111,34,34,37.42562,-122.1429,12.40164,0.9,123.2338,3,10,1416429724,-0.1286163,-0.03407288,-0.9397125,-259.3502,601.0912,475.5727,37.96868,24.28504,25,-0.08012094,-0.02987055,0.2717873,1.037885,-0.007182865,0.08919113,-0.08228955,0.004150421,0.5639852,-0.1214621,0.05500005,0.05628689,0.0.0.0,10.181.213.137,5,0
2014-11-19 12:42:06.111,35,35,37.42561,-122.1429,12.39423,0.99,123.2338,3,10,1416429725,-0.4958649,-0.2195587,-0.6407928,-263.1016,606.2929,480.6496,39.68008,25.99644,25,1.185187,0.9412898,-1.03102,1.376134,-0.2454932,0.2856457,1.259285,1.119788,-0.8887788,-0.3150155,0.05855621,0.2244593,0.0.0.0,10.181.213.137,5,0
2014-11-19 12:42:07.110,36,36,37.42561,-122.1429,12.44205,1.36,123.2338,3,10,1416429726,-0.06565857,-0.4694977,-0.9279785,-245.9987,603.1959,472.5501,43.80205,30.11841,25,-0.6938738,0.2829705,0.1376711,1.162074,0.1128404,0.2523962,-0.6993085,0.3753983,0.1762338,-0.2059574,-0.2035221,0.0335697,0.0.0.0,10.181.213.137,5,0
2014-11-19 12:42:08.113,37,37,37.42561,-122.1429,12.34692,1,123.2338,3,10,1416429727,-0.2331085,0.4371033,-0.8932343,-246.1522,599.8254,482.1527,64.73695,51.05331,25,-0.3190818,-0.6682318,1.190378,2.223039,-0.4446393,-0.2101458,-0.5530435,-0.8987674,1.21339,0.01692205,0.2596897,0.01745747,0.0.0.0,10.181.213.137,5,0
2014-11-19 12:42:09.110,38,38,37.42559,-122.1428,12.34711,1.53,123.2338,3,10,1416429728,-0.1451874,0.3160553,-0.8049164,-246.1522,599.8254,482.1527,64.73695,51.05331,25,-2.132871,2.138263,0.0150173,2.353992,-0.6201084,-0.1340048,-1.506464,1.624779,0.08095395,0.3645182,0.3622912,0.4886789,0.0.0.0,10.181.213.137,5,0
2014-11-19 12:42:10.111,39,39,37.42555,-122.1428,12.54739,3.52,123.2338,3,10,1416429729,-0.2999115,0.3326111,-0.9763489,-246.6296,623.1637,474.1367,39.22211,25.53848,25,0.1393816,-0.01466976,0.0239791,2.214839,-0.2103925,-0.2036513,0.1474894,0.1895672,0.01445651,-0.1163644,0.1459896,-0.07091665,0.0.0.0,10.181.213.137,5,0
2014-11-19 12:42:11.110,40,40,37.42554,-122.1427,12.55435,2.79,123.2338,3,10,1416429731,-0.3078156,0.2791748,-0.870575,-249.4261,608.9621,475.9736,58.03506,44.35142,25,-0.3513551,-0.02406619,0.3035868,2.237013,-0.180624,-0.2505456,-0.3581973,0.08172987,0.1287332,-0.1214672,0.04862203,0.1416767,0.0.0.0,10.181.213.137,5,0
2014-11-19 12:42:12.111,41,41,37.42554,-122.1427,12.55435,2.79,123.2338,3,10,1416429731,-0.2492065,-0.4791565,-0.7127533,-246.4932,597.4641,476.4078,65.35315,51.66951,25,0.2357752,-0.08911576,-0.7247117,1.360935,-0.09959446,0.4394626,0.5345842,0.2701176,-0.4727488,-0.1138753,-0.05794526,0.1361374,0.0.0.0,10.181.213.137,1,0
2014-11-19 12:42:13.111,42,42,37.42554,-122.1427,11.83417,4.03,123.2338,3,10,1416429733,0.2280426,-0.657608,-0.8522186,-244.1059,596.2661,479.681,61.08294,47.3993,25,-0.06119944,0.166075,-0.3404149,0.7584513,0.2075887,0.6406898,-0.1803841,0.1435169,-0.3714909,0.06131945,-0.06509316,-0.07543704,0.0.0.0,10.181.213.137,1,0
2014-11-19 12:42:14.110,43,43,37.42546,-122.1426,11.52069,4.04,123.1393,3,10,1416429734,0.324585,-0.707489,-0.4884186,-240.7296,588.8059,480.5493,312.687,299.0033,25,0.0730798,0.03688132,0.2427932,0.4001859,0.497934,0.7954845,0.2282463,-0.03350312,0.3292539,-0.04235236,0.0004882505,0.1750657,0.0.0.0,10.181.213.137,1,0
2014-11-19 12:42:15.111,44,44,37.42545,-122.1426,11.53729,4.15,123.1393,3,10,1416429735,1.079758,-0.003982544,-0.2349548,-235.0684,585.4178,474.8044,326.5033,312.8196,25,-0.09975962,0.7198136,0.4977081,-0.05404788,0.9693575,0.4223358,0.1773496,0.5612565,0.554405,0.3963626,0.5980482,0.5436849,0.0.0.0,10.181.213.137,1,0
2014-11-19 12:42:16.111,45,45,37.42542,-122.1425,11.61899,4.38,123.1393,3,10,1416429736,0.665863,-0.5710907,-0.4545288,-237.899,585.5205,477.8439,305.3372,291.6535,25,0.3160017,-0.5863748,0.2821973,0.1164803,0.8097448,0.5401536,0.293654,-0.4237947,0.1964916,0.04484379,-0.05682298,0.1369641,0.0.0.0,10.181.213.137,1,0
2014-11-19 12:42:17.111,46,46,37.42539,-122.1425,11.92014,6.3,123.1393,3,10,1416429737,0.3087921,-0.7489471,-0.6421814,-243.0487,586.8551,479.4471,299.6902,286.0066,25,-0.3704646,0.09860274,0.07455359,0.3751307,0.3942152,0.7618702,-0.2946649,0.1218215,0.04136896,0.04451588,0.007506076,0.1176035,0.0.0.0,10.181.213.137,1,0
2014-11-19 12:42:18.111,47,47,37.42536,-122.1424,11.79425,6.63,123.1393,3,10,1416429738,0.2515411,-0.7315216,-0.6931305,-240.9683,587.8817,478.6121,0.8112946,347.1277,25,0.1378564,-0.2204453,-0.04844876,0.3701418,0.4563859,0.7371839,0.2136273,-0.2583849,0.03191577,-0.1099598,-0.05646257,0.02005775,0.0.0.0,10.181.213.137,1,0
2014-11-19 12:42:19.111,48,48,37.42534,-122.1424,11.48553,5.93,123.1393,3,10,1416429739,0.04138184,-0.7018433,-0.6056213,-247.5333,594.8798,481.3008,85.8163,72.13266,25,0.2532283,-0.0553562,-0.03513855,0.7224398,-0.05151048,0.786094,0.3826117,-0.1146975,-0.1186282,0.07881665,-0.02544889,0.05629385,0.0.0.0,10.181.213.137,1,0
2014-11-19 12:42:20.111,49,49,37.42531,-122.1423,11.1221,5.9,123.1393,3,10,1416429740,0.2436218,-0.5466156,-0.4228363,-245.3166,595.2903,478.3282,107.8746,94.19093,25,1.247481,-0.2755655,1.895028,1.441692,-0.1543885,0.651419,1.421658,-0.7252812,1.268787,0.4735589,-0.04615036,-0.1365366,0.0.0.0,10.181.213.137,1,0
2014-11-19 12:42:21.110,50,50,37.42529,-122.1423,11.11667,5.85,123.1393,3,10,1416429741,0.07885742,-0.4710388,-0.8633575,-251.5405,601.3301,475.8399,70.79854,57.1149,25,-0.441566,-0.3230103,-0.1203437,1.29402,-0.1559118,0.613728,-0.5492364,-0.6094318,-0.20426,0.265905,0.102973,-0.01488863,0.0.0.0,10.181.213.137,5,0
2014-11-19 12:42:22.110,51,51,37.42526,-122.1422,11.30478,5.31,123.1393,3,10,1416429742,0.1480408,-0.4739532,-0.9593658,-253.2286,603.4005,476.9588,50.91677,37.23313,25,0.1416197,0.1514851,0.2469336,1.395709,-0.004307989,0.447061,-0.06443354,0.02801425,0.02240998,0.1917356,-0.01012658,0.001795594,0.0.0.0,10.181.213.137,5,0
2014-11-19 12:42:23.110,52,52,37.42526,-122.1422,11.30478,5.31,123.1393,3,10,1416429742,-0.1579285,-0.4631348,-0.8892212,-250.398,601.9634,477.3929,57.8447,44.16106,25,-0.1442283,-1.050937,-0.09946614,1.282259,-0.1016123,0.5063087,0.04714689,-1.258817,0.09021463,-0.07226896,0.02909608,0.01047148,0.0.0.0,10.181.213.137,5,0
2014-11-19 12:42:24.111,53,53,37.42524,-122.1422,11.25214,5.82,123.1393,3,10,1416429743,-0.0222168,-0.4196014,-0.8633118,-250.8925,597.9765,479.2799,53.88193,40.19829,25,0.1506316,0.1800723,-0.1239632,1.162174,-0.03410755,0.474779,0.1746935,0.3739299,-0.161395,0.07506793,0.01390458,-0.038217,0.0.0.0,10.181.213.137,5,0
2014-11-19 12:42:25.111,54,54,37.42517,-122.142,11.11105,6.78,123.1393,4,10,1416429744,0.02885437,-0.3798981,-0.8227997,-250.2787,598.6611,478.4783,52.50491,38.82127,25,-0.09438749,-0.2771091,0.2624234,1.179583,-0.02701493,0.4722512,-0.03729706,-0.1142275,0.07141466,0.08049739,0.08477508,0.09693235,0.0.0.0,10.181.213.137,5,0
2014-11-19 12:42:26.111,55,55,37.42512,-122.1419,11.33432,6.88,123.1393,3,10,1416429745,-0.1475067,-0.4751892,-1.188431,-245.0097,591.2866,480.0314,52.35291,38.66927,25,0.7064474,0.01306041,-0.4050468,1.119947,-0.05027926,0.5192603,0.5053878,-0.1693309,-0.2301736,-0.08701237,0.03797086,-0.3150243,0.0.0.0,10.181.213.137,5,0
2014-11-19 12:42:27.110,56,56,37.42508,-122.1419,11.33725,7.14,123.1393,3,10,1416429746,0.002166748,-0.5054016,-0.806015,-242.8441,590.1061,476.7414,29.02111,15.33748,25,0.3853275,0.3341868,-0.972195,0.9590034,0.09098972,0.6556414,0.3075765,0.535547,-0.8485551,-0.08269005,0.09343239,-0.08726986,0.0.0.0,10.181.213.137,5,0
2014-11-19 12:42:28.110,57,57,37.42507,-122.1418,10.70438,3.36,123.1393,3,10,1416429748,0.772049,0.05102539,-0.8749084,-244.8221,589.1819,477.5765,49.99524,36.3116,25,-0.5709381,-1.505528,-0.3586564,0.3464611,0.6040196,0.1077134,-0.6126437,-1.251176,-0.6576011,0.2250395,0.1975626,-0.002831948,0.0.0.0,10.181.213.137,5,0
2014-11-19 12:42:29.111,58,58,37.42507,-122.1418,10.70438,3.36,123.1393,3,10,1416429748,0.144516,-0.1464844,-0.8339691,-241.1559,589.4043,476.1903,45.11702,31.43338,25,0.1189818,0.01464819,0.01738219,0.6372523,0.1904863,0.09300172,0.3204795,-0.3655395,0.05193128,-0.04400223,-0.05361667,0.1436998,0.0.0.0,10.181.213.137,5,0
2014-11-19 12:42:30.111,59,59,37.42506,-122.1418,10.70859,2.88,123.1393,3,10,1416429749,0.05499268,-0.417511,-0.899765,-248.9316,589.0278,475.489,51.96689,38.28325,25,-0.1412855,-0.08389517,0.04029762,0.7805532,0.004919301,0.4736817,-0.1394618,-0.030971,-0.0378684,0.04443523,0.0103497,0.02768619,0.0.0.0,10.181.213.137,1,0
2014-11-19 12:42:31.111,60,60,37.42505,-122.1418,10.94839,2,123.1393,3,10,1416429750,0.04795837,-0.5837402,-0.8080902,-249.3749,589.7806,477.5599,63.16837,49.48473,25,-0.06514092,-0.323287,0.232429,0.7442165,-0.006048924,0.5905709,-0.02000725,-0.07974391,0.05514527,0.1228222,-0.005405329,0.01772628,0.0.0.0,10.181.213.137,1,0
2014-11-19 12:42:32.146,61,61,37.42504,-122.1418,11.08658,2.82,123.1393,3,10,1416429751,0.8306732,-0.05180359,-0.398941,-247.738,591.5257,475.4556,53.66057,39.97693,25,0.7908547,-1.263339,0.4659579,0.4073977,0.7624694,0.08766932,0.9583261,-0.4563555,0.4260663,0.1173328,-0.01617219,0.4389375,0.0.0.0,10.181.213.137,1,0
2014-11-19 12:42:33.114,62,62,37.42502,-122.1417,11.03287,3.11,123.1393,3,10,1416429752,0.6815033,-0.05020142,-0.3097076,-247.738,591.5257,475.4556,53.66057,39.97693,25,0.7646588,-0.02009462,0.9386697,0.4008161,0.7321256,0.1165178,1.108742,-0.3338834,0.6412333,0.1882379,0.165174,0.007968732,0.0.0.0,10.181.213.137,1,0
2014-11-19 12:42:34.111,63,63,37.42502,-122.1417,10.80933,3.42,123.1393,3,10,1416429753,-0.4400024,0.4492798,-1.464172,-247.738,591.5257,475.4556,53.66057,39.97693,25,-2.389181,-0.7411841,0.9300011,-2.529582,-0.09393551,-0.4240499,-2.759942,2.132583,1.063628,0.07059722,0.1519758,0.7690146,0.0.0.0,10.181.213.137,1,0
2014-11-19 12:42:35.113,64,64,37.42502,-122.1417,10.26138,3.43,123.1393,3,10,1416429754,0.02351379,0.4827423,-0.8544617,48.79731,-5.691589,-56.54993,208.2363,194.5527,25,0.09784081,-0.04192961,-0.02777251,-2.481153,-0.0112271,-0.4779624,0.05710894,0.03059133,-0.04434641,0.01538559,0.02095561,0.02441367,0.0.0.0,10.181.213.137,1,0
2014-11-19 12:42:36.111,65,65,37.42502,-122.1417,10.2735,3.8,123.1393,3,10,1416429755,-0.009216309,0.425705,-0.890686,46.80315,-5.914734,-53.84119,249.5539,235.8703,25,-0.01774038,-0.01546604,-0.02762923,-2.515911,0.01769831,-0.4933329,-0.02122262,0.02643969,-0.03454024,-0.004265122,-0.00881178,-0.04546494,0.0.0.0,10.181.213.137,1,0
2014-11-19 12:42:37.110,66,66,37.42494,-122.1416,10.44635,4.79,123.4885,3,10,1416429756,0.03025818,0.386673,-0.8993073,48.82828,-5.114441,-55.42026,252.3481,238.6645,25,-0.0092686,-0.07010186,-0.03015258,-2.543909,0.01900258,-0.4511769,-0.01250037,-0.03047104,-0.04435096,0.019872,-0.04889422,-0.02547509,0.0.0.0,10.181.213.137,1,0
2014-11-19 12:42:38.114,67,67,37.42491,-122.1415,11.009,5.31,123.4885,3,10,1416429757,-0.01145935,0.4064331,-0.9438782,48.40283,-4.961243,-54.07382,253.88,240.1963,25,0.0265416,0.00828829,-0.00522672,-2.568551,0.01721836,-0.4318472,-0.03933106,0.03392421,-0.006777567,-0.009945312,0.03674259,-0.03633745,0.0.0.0,10.181.213.137,1,0
2014-11-19 12:42:39.115,68,68,37.42487,-122.1415,10.8403,5.14,123.4885,3,10,1416429759,-0.1134491,0.4402618,-0.8180542,47.05847,-4.77417,-54.32312,253.0913,239.4077,25,0.141653,-0.06205964,0.03723632,-2.588521,0.004697289,-0.4540395,-0.1971736,0.0328599,0.01691242,-0.08469621,-0.001907998,-0.07062649,0.0.0.0,10.181.213.137,1,0
2014-11-19 12:42:40.111,69,69,37.42487,-122.1415,10.8403,5.14,123.4885,3,10,1416429759,-0.01678467,0.4184418,-0.8832092,47.58604,-3.871704,-54.43945,255.341,241.6573,25,-0.08569759,0.009123458,0.0193745,-2.585169,-0.007042608,-0.4397823,-0.1586633,0.09796643,0.02021753,-0.01656155,-0.001380299,0.02374894,0.0.0.0,10.181.213.137,1,0
2014-11-19 12:42:41.114,70,70,37.42485,-122.1414,11.35046,5.4,123.4885,3,10,1416429760,-0.01887512,0.3854828,-0.8926544,46.6671,-4.144226,-54.24002,254.2778,240.5942,25,0.04074769,-0.03197498,0.01703598,-2.581605,-0.006278738,-0.4243293,0.03674321,-0.03705663,0.001567381,0.01965315,-0.02448737,-0.01369068,0.0.0.0,10.181.213.137,1,0
2014-11-19 12:42:42.115,71,71,37.42482,-122.1414,11.31445,5.84,123.4885,3,10,1416429761,-0.001220703,0.3567047,-0.8658142,48.3008,-4.45105,-55.93549,255.0098,241.3262,25,0.0803758,-0.02629845,0.02569418,-2.582913,-0.008024494,-0.4253265,-0.007076632,0.04806466,0.03791288,0.007874041,0.0005135232,-0.002272228,0.0.0.0,10.181.213.137,1,0
2014-11-19 12:42:43.115,72,72,37.42476,-122.1413,11.39972,6.08,123.4885,3,10,1416429763,-0.05677795,0.4264984,-0.9092865,46.46298,-4.518982,-56.30118,254.5029,240.8193,25,0.009639312,-0.03282932,0.0001019991,-2.578959,-0.01552531,-0.413019,0.0750855,0.0001658892,0.01210473,-0.01342966,-0.0500732,0.01341333,0.0.0.0,10.181.213.137,1,0
2014-11-19 12:42:44.110,73,73,37.42476,-122.1413,11.39972,6.08,123.4885,3,10,1416429763,0.01707458,0.3772278,-0.9308014,48.18172,-3.582581,-55.98541,255.6425,241.9588,25,-0.05655169,0.01020497,-0.002972088,-2.584171,-0.009275136,-0.400235,-0.01609375,0.05688589,-0.01490985,0.008435182,-0.02815408,0.02034085,0.0.0.0,10.181.213.137,1,0
2014-11-19 12:42:45.112,74,74,37.42473,-122.1412,11.66275,5.56,123.4885,3,10,1416429764,0.0259552,0.4171295,-0.9481812,45.88435,-5.846924,-56.40091,254.1048,240.4211,25,-0.005691175,0.01961099,-0.02947454,-2.607497,0.008196896,-0.4024636,0.001118934,0.01694172,-0.04639949,0.008647705,0.01773752,-0.01492965,0.0.0.0,10.181.213.137,1,0
2014-11-19 12:42:46.111,75,75,37.4247,-122.1411,11.31451,5.54,123.4885,3,10,1416429765,-0.05621338,0.3861542,-0.9319,45.6461,-1.659058,-55.90225,256.504,242.8204,25,0.03027455,-0.02322356,-0.01510998,-2.646643,0.00218506,-0.4017798,-0.01477197,0.008485707,-0.02484744,-0.0927093,-0.00429253,-0.01496901,0.0.0.0,10.181.213.137,1,0
2014-11-19 12:42:47.115,76,76,37.42467,-122.1411,11.36539,5.64,123.4885,3,10,1416429766,-0.01834106,0.2564392,-0.9708557,45.05049,-0.552124,-55.12109,258.3682,244.6846,25,-0.01892655,-0.02515089,-0.02895335,-2.685067,0.0009786506,-0.3562853,-0.002218256,0.006107773,-0.05014496,-0.0008561551,-0.09966496,-0.007061125,0.0.0.0,10.181.213.137,1,0
2014-11-19 12:42:48.115,77,77,37.42464,-122.141,10.73312,5.53,124.1956,4,10,1416429767,0.01660156,0.1767578,-0.9319763,45.15257,0.4351807,-57.14883,264.0423,250.3587,25,0.04833052,-0.03550979,-0.0146093,-2.717823,0.001916614,-0.293263,0.07107448,-0.01540852,-0.005015644,0.01429376,-0.07096828,0.03339955,0.0.0.0,10.181.213.137,1,0
2014-11-19 12:42:49.113,78,78,37.42463,-122.141,10.76825,4.04,124.1956,3,10,1416429768,-0.01234436,0.2480164,-0.9768372,45.2717,3.00592,-54.50604,268.3878,254.7041,25,0.01562849,-0.0328951,0.002744388,-2.73989,-0.0169683,-0.2472173,0.014688,-0.002920745,0.005530227,0.0007808454,-7.78805e-05,-0.005289158,0.0.0.0,10.181.213.137,1,0
2014-11-19 12:42:50.119,79,79,37.42462,-122.141,11.03174,1.13,124.1956,3,10,1416429770,-0.03570557,0.4273834,-0.9088287,43.94438,2.052734,-54.47284,268.1821,254.4985,25,-0.001262338,-0.02912806,0.005904228,-2.742044,-0.03662947,-0.3570951,0.00655271,-0.0004717369,0.005375189,-5.172348e-05,0.07796666,0.0367821,0.0.0.0,10.181.213.137,1,0
2014-11-19 12:42:51.110,80,80,37.42462,-122.141,11.03174,1.13,124.1956,3,10,1416429770,-0.03608704,0.4384003,-0.893692,44.28748,0.6190796,-54.63379,266.3458,252.6621,25,0.01437095,-0.03654842,0.007583618,-2.741126,-0.04393765,-0.4234104,-0.009499586,0.0009185127,-0.001229678,-0.003915814,0.02749764,0.01489331,0.0.0.0,10.181.213.137,1,0
2014-11-19 12:42:52.114,81,81,37.42462,-122.141,11.37277,0.31,124.1956,3,10,1416429771,-0.02828979,0.4331055,-0.8929443,44.04922,1.980774,-54.06863,264.1091,250.4255,25,0.01114666,-0.02906015,-0.0267898,-2.751815,-0.03982018,-0.4478583,0.006241098,0.01916647,-0.02635584,-0.000935963,-0.003836827,0.0030638,0.0.0.0,10.181.213.137,1,0
2014-11-19 12:42:53.114,82,82,37.42461,-122.141,11.38528,0.54,124.1956,3,10,1416429772,-0.0357666,0.4810181,-0.8683929,42.97717,1.895569,-52.95514,261.9957,248.3121,25,0.02629951,0.0002537993,-0.08985292,-2.812854,-0.03599779,-0.4822097,0.02125523,0.0413393,-0.09922595,0.0009565909,0.02568759,0.02118634,0.0.0.0,10.181.213.137,1,0
2014-11-19 12:42:54.115,83,83,37.42461,-122.141,11.21866,0.76,124.1956,3,10,1416429773,-0.03399658,0.3219604,-0.9574127,41.67812,5.075623,-52.25848,260.8645,247.1809,25,-0.02188453,-0.02360439,-0.08664302,-2.922498,-0.03760524,-0.4605871,0.002065395,-0.004692622,-0.08781509,-0.004193789,-0.1307229,-0.06619113,0.0.0.0,10.181.213.137,1,0
2014-11-19 12:42:55.112,84,84,37.42461,-122.141,11.23703,1.26,124.1956,3,10,1416429774,-0.04013062,0.3952789,-0.8982391,40.74229,5.398926,-51.64355,263.0245,249.3409,25,-0.001231978,-0.03639183,0.003408313,-2.959229,-0.05955916,-0.3578846,0.008925831,-0.01625388,-0.001899051,0.005505317,0.04144519,0.04974049,0.0.0.0,10.181.213.137,1,0
2014-11-19 12:42:56.115,85,85,37.42461,-122.141,11.37247,0.86,124.1956,3,10,1416429775,-0.04316711,0.445755,-0.8960571,41.491,4.41156,-52.84006,263.488,249.8043,25,0.005918875,-0.03648744,0.009765013,-2.955135,-0.05463705,-0.4275718,0.003487947,0.004359143,0.005574956,-0.007038541,0.02608771,0.01356738,0.0.0.0,10.181.213.137,1,0
2014-11-19 12:42:57.110,86,86,37.4246,-122.1409,11.60574,0.65,124.1956,3,10,1416429776,-0.04133606,0.4664154,-0.8810272,41.03162,4.667053,-51.95929,262.9279,249.2443,25,0.01336401,-0.04251177,-0.009644638,-2.965642,-0.05116653,-0.4596245,-0.01454549,0.01670435,-0.02291166,-0.001038587,0.01534224,0.009822844,0.0.0.0,10.181.213.137,1,0
2014-11-19 12:42:58.110,87,87,37.4246,-122.1409,11.48773,0.82,124.1956,3,10,1416429777,-0.02197266,0.5613251,-0.8602448,39.05782,4.939331,-49.69931,261.3166,247.633,25,-0.03083221,0.05442462,-0.1489463,-3.041823,-0.04250358,-0.5630784,0.007751851,0.074071,-0.1390985,0.01273752,0.02997461,0.008701062,0.0.0.0,10.181.213.137,1,0
2014-11-19 12:42:59.115,88,88,37.42459,-122.1409,11.46399,1.16,124.1956,3,10,1416429779,0.04170227,0.5250244,-0.843811,35.00846,7.125549,-47.60046,257.8731,244.1895,25,0.008029963,0.09241968,-0.2859591,3.019751,-0.03342057,-0.5541849,0.03714544,0.102607,-0.2884603,0.08096448,-0.003499492,0.03286877,0.0.0.0,10.181.213.137,1,0
2014-11-19 12:43:00.112,89,89,37.42459,-122.1409,11.46399,1.16,124.1956,3,10,1416429779,0.1382294,0.5353546,-0.831543,28.16833,8.591553,-45.55692,256.141,242.4574,25,0.01706048,0.1035432,-0.3395277,2.7272,0.01220998,-0.5514854,0.05249363,0.1441039,-0.3486807,0.1138985,-0.007381966,0.01193148,0.0.0.0,10.181.213.137,1,0
2014-11-19 12:43:01.115,90,90,37.42458,-122.1409,11.97491,1.71,124.1956,3,10,1416429780,0.005935669,0.5487061,-0.8684692,22.27613,9.74762,-41.91092,252.9984,239.3148,25,0.03687519,-0.00909576,-0.1729161,2.467978,-0.006697249,-0.5532058,0.0109537,0.01623919,-0.1815842,0.02474124,0.02527216,-0.0167893,0.0.0.0,10.181.213.137,1,0
2014-11-19 12:43:02.115,91,91,37.42439,-122.141,11.84543,4.47,216.8699,3,10,1416429782,-0.04469299,0.5334015,-0.8524323,19.68611,7.565125,-41.92087,249.7474,236.0638,25,-0.01001801,-0.02014894,-0.07153384,2.356483,-0.02800223,-0.5573151,-0.02401945,0.02198881,-0.0710969,-0.01673505,0.01441025,-0.01563761,0.0.0.0,10.181.213.137,1,0
2014-11-19 12:43:03.112,92,92,37.42439,-122.141,11.84543,4.47,216.8699,3,10,1416429782,-0.02267456,0.503952,-0.8892517,18.78487,8.671509,-41.97067,248.5771,234.8934,25,0.03033394,-0.03289989,-0.02007145,2.312264,-0.03318905,-0.5342337,-0.09053826,0.06336774,-0.03006252,-0.001836297,-0.0389058,-0.04980331,0.0.0.0,10.181.213.137,1,0
2014-11-19 12:43:04.114,93,93,37.42436,-122.141,12.01584,4.55,216.8699,3,10,1416429783,-0.09112549,0.423111,-0.9769287,18.90392,8.075623,-41.75464,253.1086,239.4249,25,-0.1027392,0.00554337,0.03596546,2.296587,-0.04172868,-0.5266506,-0.02469729,-0.007973152,0.01449447,-0.01717413,-0.1213693,-0.03715126,0.0.0.0,10.181.213.137,1,0
2014-11-19 12:43:05.112,94,94,37.4243,-122.1411,12.70517,5.72,214.9416,3,10,1416429784,-0.1398163,0.4904633,-0.9475708,19.36308,8.637329,-41.87106,259.6461,245.9625,25,-0.1693227,-0.05470639,0.07022436,2.317837,-0.09981525,-0.4809683,-0.0742069,-0.01598136,0.06358186,-0.03867008,-0.02289478,-0.06322361,0.0.0.0,10.181.213.137,1,0
2014-11-19 12:43:06.113,95,95,37.42419,-122.1412,12.34897,8.32,214.9416,3,10,1416429785,-0.03565979,0.3601074,-0.9135895,19.72017,8.245972,-41.98734,258.6076,244.924,25,0.0877935,0.004053331,0.007738081,2.355565,-0.08981202,-0.4661025,0.147868,0.0552025,0.01122674,0.05575537,-0.06940305,0.00700525,0.0.0.0,10.181.213.137,1,0
2014-11-19 12:43:07.115,96,96,37.42413,-122.1413,12.57507,8.33,214.9416,3,10,1416429786,-0.006347656,0.3340912,-0.9677582,18.83481,9.35498,-41.03256,262.4008,248.7171,25,-0.04512806,0.02251383,-0.05523077,2.347018,-0.03886294,-0.4273418,-0.08001257,0.0806598,-0.05005276,0.05652306,-0.05251469,-0.06949836,0.0.0.0,10.181.213.137,1,0
2014-11-19 12:43:08.110,97,97,37.42405,-122.1413,12.85672,8.61,213.9729,3,10,1416429787,-0.04380798,0.3183899,-0.9780731,19.17487,9.286987,-41.86316,266.7426,253.059,25,-0.1080958,0.02288348,-0.02292662,2.32058,-0.03047719,-0.3676859,0.04875046,-0.03491379,-0.02468446,-0.02017876,-0.0661525,-0.009135695,0.0.0.0,10.181.213.137,1,0
2014-11-19 12:43:09.116,98,98,37.42398,-122.1413,12.94208,8.51,213.9729,3,10,1416429788,-0.04568481,0.2467041,-0.9714508,18.35873,8.946472,-42.49451,270.2761,256.5924,25,0.03733432,-0.03791729,-0.0002689793,2.299563,-0.03841594,-0.3118679,-0.01392456,0.0135453,-0.008734098,-0.01010753,-0.05541787,-0.03107207,0.0.0.0,10.181.213.137,1,0
2014-11-19 12:43:10.111,99,99,37.42394,-122.1414,12.97101,7.38,213.9729,3,10,1416429789,-0.1207733,0.3195038,-1.009109,18.85181,9.23584,-42.64395,277.2073,263.5237,25,-0.02371438,-0.02024508,-0.03152757,2.28529,-0.06187508,-0.2967732,-0.02030459,0.009640745,-0.09355725,-0.04801475,0.04893361,-0.01803331,0.0.0.0,10.181.213.137,1,0
2014-11-19 12:43:11.115,100,100,37.42385,-122.1414,13.17697,5.24,213.9729,3,10,1416429791,-0.04933167,0.1985321,-0.9844055,18.52866,8.912415,-40.83313,278.3796,264.696,25,-0.09970342,-0.0190139,0.08738471,2.306487,-0.05475415,-0.2435763,-0.1067664,0.03328102,0.1056557,0.003184593,-0.03330439,-0.02648664,0.0.0.0,10.181.213.137,1,0
2014-11-19 12:43:12.115,101,101,37.42383,-122.1415,13.29642,3.58,213.9729,3,10,1416429792,-0.06175232,0.3280792,-0.9800568,18.83475,5.202026,-37.11206,273.7285,260.0448,25,-0.02532746,-0.03861877,0.005074387,2.300724,-0.06104228,-0.2905183,-0.02520658,-0.004451201,-0.003207819,-0.008385476,0.04877153,-0.0349151,0.0.0.0,10.181.213.137,1,0
2014-11-19 12:43:13.114,102,102,37.42383,-122.1415,13.29642,3.58,213.9729,3,10,1416429792,-0.0683136,0.3424225,-0.9195862,19.02174,5.627563,-36.86288,271.5181,257.8345,25,0.03862436,-0.04759122,-0.007641941,2.298109,-0.07125688,-0.3428678,0.0200357,0.01436512,0.004791767,0.001500801,0.01337424,0.01514905,0.0.0.0,10.181.213.137,1,0
2014-11-19 12:43:14.114,103,103,37.42379,-122.1415,13.27704,3.35,214.5401,3,10,1416429793,-0.07542419,0.3946533,-0.9200439,18.12058,5.304382,-37.61041,269.0208,255.3371,25,0.01309982,-0.04142121,0.01364018,2.3044,-0.07685321,-0.3701689,0.02444259,0.001935804,0.006727499,-0.004991461,0.03059164,0.00725798,0.0.0.0,10.181.213.137,1,0
2014-11-19 12:43:15.112,104,104,37.4238,-122.1415,13.02493,1.07,214.5401,3,10,1416429794,-0.07621765,0.3648376,-0.9199219,18.29064,5.746887,-36.77979,266.9476,253.264,25,0.01444499,-0.04985704,0.001374191,2.3176,-0.0789427,-0.3796974,0.0069698,-0.009979845,0.0198593,-0.003004147,-0.002078592,0.0007591908,0.0.0.0,10.181.213.137,1,0
2014-11-19 12:43:16.115,105,105,37.42377,-122.1415,13.10886,1.08,214.5401,3,10,1416429795,-0.07919312,0.4373627,-0.8957825,18.51171,5.423645,-36.69672,265.7433,252.0596,25,0.03365064,-0.02821539,0.005802229,2.32849,-0.0794858,-0.3809171,0.03673603,-0.01370712,0.01678975,-0.005939978,0.06420216,0.03078552,0.0.0.0,10.181.213.137,1,0
2014-11-19 12:43:17.115,106,106,37.42377,-122.1415,13.26541,0.45,214.5401,3,10,1416429796,-0.07785034,0.4114685,-0.9027252,18.30769,5.764343,-36.72992,264.2568,250.5732,25,0.01312699,-0.04019562,0.01119779,2.335624,-0.08337367,-0.4168188,0.007405553,-0.01220556,0.01888064,-0.0006962043,0.00569934,0.004177134,0.0.0.0,10.181.213.137,1,0
2014-11-19 12:43:18.116,107,107,37.42377,-122.1415,13.32474,0.35,214.5401,3,10,1416429797,-0.08169556,0.4122772,-0.9041748,18.66479,5.815247,-36.3479,263.1072,249.4235,25,0.01191072,-0.04261697,0.01236958,2.344064,-0.08565815,-0.4207528,0.004920198,-0.01194173,0.002053757,-0.006991391,-0.004867963,0.001552407,0.0.0.0,10.181.213.137,1,0
2014-11-19 12:43:19.114,108,108,37.42377,-122.1415,13.1778,0,214.5401,3,10,1416429798,-0.07641602,0.4137878,-0.9084015,18.29076,5.985291,-36.64688,262.3127,248.629,25,0.01076263,-0.04258075,0.00743022,2.351787,-0.08580331,-0.42099,0.01304606,0.003930868,0.005199691,-0.002564708,-0.004046943,0.002924577,0.0.0.0,10.181.213.137,1,0
2014-11-19 12:43:20.111,109,109,37.42377,-122.1415,13.37918,0,214.5401,3,10,1416429799,-0.07537842,0.4086456,-0.9055939,18.0187,6.223328,-36.44748,261.8135,248.1299,25,0.009600163,-0.04012531,0.003731621,2.359652,-0.08593609,-0.4206778,0.01034651,-0.01042545,0.007786769,-0.0008155853,-0.001946155,0.005467414,0.0.0.0,10.181.213.137,1,0
2014-11-19 12:43:21.115,110,110,37.42377,-122.1415,13.30478,0,214.5401,3,10,1416429800,-0.07218933,0.4085999,-0.9113007,18.39273,6.18927,-35.28464,261.4871,247.8035,25,0.01439092,-0.01591878,0.005262672,2.366045,-0.08651606,-0.4212689,-0.001997696,-0.0004701975,0.01390269,-0.005039251,-0.005842586,0.003655293,0.0.0.0,10.181.213.137,1,0
2014-11-19 12:43:22.115,111,111,37.42377,-122.1415,13.40967,0,214.5401,3,10,1416429801,-0.08337402,0.4035492,-0.9095459,18.8688,5.917053,-36.41434,261.2863,247.6027,25,0.001087635,-0.02674959,0.01089686,2.371134,-0.08660118,-0.4215002,-0.004553756,0.001182697,0.00317155,0.006306194,0.005237874,0.004271498,0.0.0.0,10.181.213.137,1,0
2014-11-19 12:43:23.113,112,112,37.42377,-122.1415,13.17953,0,214.5401,3,10,1416429802,-0.08154297,0.4171295,-0.9057922,18.01868,5.848938,-36.44754,260.9449,247.2612,25,0.01314137,-0.04140203,0.009965017,2.375295,-0.08668954,-0.4243504,0.01452623,0.002685673,-0.0006775118,-0.008439491,-0.001358997,-0.001631115,0.0.0.0,10.181.213.137,1,0
2014-11-19 12:43:24.112,113,113,37.42377,-122.1415,13.22784,0,214.5401,3,10,1416429803,-0.08172607,0.4051208,-0.9097595,17.45755,6.172485,-36.29794,260.8679,247.1842,25,0.01062468,-0.0450708,0.01966638,2.378988,-0.08696812,-0.4236777,-0.004991145,-0.01154246,0.01997027,0.0005807531,0.002702588,0.0025746,0.0.0.0,10.181.213.137,1,0
2014-11-19 12:43:25.114,114,114,37.42377,-122.1415,13.30853,0,214.5401,3,10,1416429804,-0.0811615,0.4106598,-0.9072876,19.05583,6.172363,-35.40088,260.2557,246.5721,25,0.008296013,-0.03045777,0.01233017,2.381371,-0.08827107,-0.4240878,0.00125553,-0.0113752,0.0001392206,0.0002842306,-0.006414459,-0.00116108,0.0.0.0,10.181.213.137,1,0
2014-11-19 12:43:26.112,115,115,37.42377,-122.1415,13.43594,0,214.5401,3,10,1416429805,-0.0827179,0.4049225,-0.907135,18.54579,6.444275,-36.9292,260.3421,246.6585,25,0.0167899,-0.03171212,0.006465889,2.384859,-0.08907054,-0.4242273,-0.001120804,0.004292756,0.003679069,0.003415791,0.002155869,0.004088285,0.0.0.0,10.181.213.137,1,0
2014-11-19 12:43:27.115,116,116,37.42377,-122.1415,13.79657,0,214.5401,3,10,1416429806,-0.0798645,0.4433289,-0.8871307,18.47781,5.184998,-37.46082,259.377,245.6934,25,0.01561145,-0.02441213,0.004022705,2.386155,-0.09169954,-0.4468098,0.009744142,0.008875822,0.002551636,-0.007140122,0.0145035,0.009170895,0.0.0.0,10.181.213.137,1,0
2014-11-19 12:43:28.112,117,117,37.42377,-122.1415,14.06616,0,214.5401,3,10,1416429807,-0.08544922,0.4585114,-0.8887024,19.1069,5.67865,-36.97906,258.5944,244.9108,25,0.002285791,-0.0498091,0.01201618,2.388844,-0.09218124,-0.4525534,-0.006963131,-0.01541344,0.006474704,-0.00656405,0.01189444,0.002844652,0.0.0.0,10.181.213.137,1,0
2014-11-19 12:43:29.116,118,118,37.42377,-122.1415,13.953,0,214.5401,3,10,1416429808,-0.09407043,0.472229,-0.86763,18.39284,5.202148,-37.27805,257.2629,243.5793,25,-0.01215041,-0.0254204,0.0104814,2.390634,-0.1004169,-0.5001789,0.00156101,-0.004683381,-0.00707073,-0.0005944889,0.006211512,-0.0003367504,0.0.0.0,10.181.213.137,1,0
2014-11-19 12:43:30.113,119,119,37.42376,-122.1415,13.95062,0.49,214.5401,3,10,1416429809,-0.08122253,0.4578705,-0.8769531,18.39279,5.440491,-36.84616,256.4195,242.7358,25,0.02027544,-0.03301467,0.01759977,2.392692,-0.09813824,-0.4887548,0.01255371,0.001267086,-0.002236277,0.00437096,-0.02598437,0.004173399,0.0.0.0,10.181.213.137,1,0
2014-11-19 12:43:31.113,120,120,37.42375,-122.1415,14.27454,1.18,214.5401,3,10,1416429810,-0.07348633,0.3398285,-0.9253998,18.30779,5.185059,-36.39767,256.5832,242.8996,25,-0.01076716,-0.02292183,-0.00539157,2.395373,-0.08409272,-0.4182167,0.007121351,0.008725988,-0.01756525,0.008929305,-0.06659295,-0.02955429,0.0.0.0,10.181.213.137,1,0
2014-11-19 12:43:32.113,121,121,37.42374,-122.1415,13.84976,1.6,214.5401,3,10,1416429811,-0.07429504,0.2924347,-0.9624023,17.93375,5.593567,-36.13181,258.6645,244.9808,25,0.007213172,-0.01947463,0.001333711,2.392344,-0.07271349,-0.3227541,0.008474668,1.332069e-05,0.004183056,0.005497941,-0.03245066,-0.01248406,0.0.0.0,10.181.213.137,1,0
2014-11-19 12:43:33.115,122,122,37.42373,-122.1415,13.86331,1.6,214.5401,3,10,1416429812,-0.07548523,0.4311981,-0.9220428,18.16786,6.007507,-35.99142,261.6246,247.9409,25,0.01554061,-0.02080595,0.01017141,2.3915,-0.07465338,-0.3288336,-0.001247851,0.007217429,0.002713247,-0.01063472,0.113401,0.0348481,0.0.0.0,10.181.213.137,1,0
2014-11-19 12:43:34.115,123,123,37.42371,-122.1415,13.66446,1.41,214.5401,3,10,1416429813,-0.08117676,0.4089813,-0.8984833,17.98087,5.990601,-35.97482,262.2518,248.5682,25,0.008337558,-0.0304386,0.008654474,2.388374,-0.08543378,-0.4103346,-0.004040494,-0.002804116,-0.0009595033,0.005889256,0.01169789,0.01715857,0.0.0.0,10.181.213.137,1,0
2014-11-19 12:43:35.113,124,124,37.4237,-122.1415,14.29974,1.14,214.5401,3,10,1416429814,-0.0776062,0.4495087,-0.8851318,17.8278,5.190674,-36.75552,260.9955,247.3119,25,0.009539177,-0.02559777,0.008723451,2.386393,-0.09160105,-0.4511821,-0.001942569,0.00908714,0.007834996,-0.001313914,0.006520987,0.002528392,0.0.0.0,10.181.213.137,1,0
2014-11-19 12:43:36.120,125,125,37.4237,-122.1415,14.07022,0.47,214.5401,3,10,1416429815,-0.08604431,0.4806519,-0.877243,18.2019,4.816223,-36.42334,259.1105,245.4268,25,0.02290478,-0.03293291,-0.001925465,2.383981,-0.09771793,-0.4896989,-0.01886916,0.000667334,0.001164281,-0.006875394,0.007880797,0.006423176,0.0.0.0,10.181.213.137,1,0
2014-11-19 12:43:37.112,126,126,37.4237,-122.1415,13.49142,0.42,214.5401,3,10,1416429816,-0.1144867,0.559433,-0.8292236,18.55898,5.309875,-36.10776,257.0441,243.3604,25,0.009544503,-0.04015115,0.008632104,2.376997,-0.1059815,-0.5442981,-0.008301676,0.005341655,0.007705126,-0.0199465,0.045903,-0.01613028,0.0.0.0,10.181.213.137,1,0
2014-11-19 12:43:38.113,127,127,37.4237,-122.1415,13.56955,0.68,214.5401,3,10,1416429817,-0.09185791,0.5346222,-0.833786,18.03182,3.863037,-37.25388,254.6709,240.9873,25,0.1025503,-0.06021487,-0.01793133,2.369252,-0.1099527,-0.5601726,0.0556302,-0.01820042,-0.002580074,0.0011024,0.00328975,0.008261622,0.0.0.0,10.181.213.137,1,0
2014-11-19 12:43:39.114,128,128,37.42369,-122.1415,13.52924,0.98,214.5401,3,10,1416429818,-0.1222382,0.5070648,-0.8572845,16.80763,4.850159,-36.3569,252.1719,238.4882,25,-0.06025722,-0.03347434,0.006439523,2.361455,-0.114327,-0.5364302,0.01375488,-0.005531391,-0.01227823,-0.00329437,-0.001671488,-0.01242096,0.0.0.0,10.181.213.137,1,0
2014-11-19 12:43:40.114,129,129,37.42368,-122.1415,13.96451,1.33,214.5401,3,10,1416429819,-0.02565002,0.8348999,-0.5808411,16.7906,11.06219,-18.06848,259.1537,245.4701,25,-0.3358579,-0.01100685,0.1043877,2.483526,-0.02828296,-0.8991159,-0.3815002,-0.1011717,0.1375418,0.01643853,-0.005158602,0.01078633,0.0.0.0,10.181.213.137,1,0
2014-11-19 12:43:41.115,130,130,37.42365,-122.1416,13.44955,3.78,214.5401,3,10,1416429820,0.003128052,1.215546,-0.6168365,17.40271,23.21375,-22.61978,255.9102,242.2265,25,-2.959342,0.5341907,-0.1011847,2.627813,0.1380057,-1.118929,-2.641579,0.8277269,-0.05759456,-0.1278329,0.3028204,0.187988,0.0.0.0,10.181.213.137,1,0
2014-11-19 12:43:42.118,131,131,37.42361,-122.1416,13.42993,3.94,214.5401,3,10,1416429821,-0.3512878,-0.3930206,-0.7087708,-29.94497,-19.7749,7.494904,9.685287,356.0016,26,0.5330245,0.8729206,-1.483748,0.6305041,-0.6707539,0.4129583,0.5992198,0.9491308,-1.64563,0.2180376,0.008300094,0.008731986,0.0.0.0,10.181.213.137,1,0
2014-11-19 12:43:43.114,132,132,37.42354,-122.1416,13.69196,4.51,214.5401,3,10,1416429823,-0.1002045,-0.5128326,-0.928772,-8.359634,-23.43744,1.305359,168.8875,155.2038,25,-0.9011194,0.3182483,-0.9092991,-0.1210928,-0.1993006,0.5466252,-1.125411,0.6914883,-1.028378,0.06892984,0.006974513,-0.09139863,0.0.0.0,10.181.213.137,1,0
2014-11-19 12:43:44.112,133,133,37.42354,-122.1416,13.69196,4.51,214.5401,3,10,1416429823,0.3640289,-0.3006134,-0.9169769,11.46014,-14.1875,4.961304,223.7398,210.0562,25,0.9576602,-0.5103772,-0.6748344,-0.9070753,0.2684934,0.57696,0.6129037,-0.8463889,-0.865904,0.1921222,0.1309888,-0.1403902,0.0.0.0,10.181.213.137,1,0
2014-11-19 12:43:45.114,134,134,37.42346,-122.1417,13.80579,5.86,214.2562,3,10,1416429824,1.509048,0.2786255,-1.150909,12.11124,-2.001526,14.33005,257.5819,243.8983,25,1.697845,-0.2293456,-2.257396,-1.429369,0.8915138,0.577834,0.8716758,0.1179985,-3.11279,-0.5267708,-0.07773624,-0.2104243,0.0.0.0,10.181.213.137,1,0
2014-11-19 12:43:46.112,135,135,37.42342,-122.1418,14.03906,5.77,214.2562,3,10,1416429825,0.6921692,-0.1923065,-0.5905304,11.53407,-2.205688,15.92136,268.0753,254.3917,25,-0.05525474,-0.3086963,0.2095498,-1.330677,0.9392678,0.5073768,0.005711377,-0.2053054,0.2279907,0.0473922,0.3114325,-0.09402666,0.0.0.0,10.181.213.137,1,0
2014-11-19 12:43:47.115,136,136,37.42337,-122.1418,13.9259,5.08,214.6353,3,10,1416429826,0.5795746,-0.3085175,-0.4733276,13.21239,-7.560913,12.52588,254.3676,240.6839,25,-0.09807171,-0.3680071,0.4835728,-1.159087,0.7774828,0.484532,-0.1503436,-0.4128481,0.303858,0.3425916,0.2689253,-0.2354877,0.0.0.0,10.181.213.137,1,0
2014-11-19 12:43:48.115,137,137,37.42334,-122.1418,13.54251,3.2,214.6353,3,10,1416429827,0.4158478,-0.314682,-0.8266754,18.13538,-6.437927,5.597412,262.7473,249.0637,25,-0.8577576,-1.598377,-0.2237979,-1.306185,0.3880145,0.5198972,-0.8575854,-1.272778,-0.7978721,0.1366975,0.180583,-0.001393939,0.0.0.0,10.181.213.137,1,0
2014-11-19 12:43:49.114,138,138,37.42329,-122.1419,13.60159,2.83,214.6353,3,10,1416429829,0.2190704,-0.3766632,-0.9600067,11.93919,-15.40442,7.80191,230.926,217.2424,25,0.1219126,0.3266034,-0.03694231,-0.8060316,0.3451385,0.5585542,-0.2836134,0.2358218,0.1393516,-0.1037728,0.1581803,-0.2889925,0.0.0.0,10.181.213.137,1,0
2014-11-19 12:43:50.115,139,139,37.42329,-122.1419,13.60159,2.83,214.6353,3,10,1416429829,0.6305237,0.01683044,-1.005737,20.25736,5.148499,3.724365,291.9795,278.2958,25,-0.3288506,-1.698666,-3.867218,-1.850683,0.5748367,0.1704447,-0.1768736,0.4195119,-3.963137,0.1858604,0.1916238,-0.1688522,0.0.0.0,10.181.213.137,1,0
2014-11-19 12:43:51.115,140,140,37.4233,-122.1419,14.34576,1.06,214.6353,3,10,1416429830,-0.0640564,0.5392303,-0.6738434,9.158722,26.64899,2.98056,349.0047,335.3211,25,-0.03076857,0.1620723,0.5858827,-2.562794,0.1265237,-0.6071509,-0.1033659,0.1731554,0.5026807,-0.1611291,0.03036124,-0.05670217,0.0.0.0,10.181.213.137,1,0
2014-11-19 12:43:52.115,141,141,37.4233,-122.1419,13.45755,0,214.6353,3,10,1416429831,0.2364655,0.9345703,-0.3615417,23.27999,15.78729,11.86224,317.9333,304.2497,25,-0.05252739,0.6163596,0.2632495,-1.839473,0.3300543,-0.9907539,0.1830852,0.6867197,0.1829845,0.1033676,0.0844285,0.2557824,0.0.0.0,10.181.213.137,1,0
2014-11-19 12:43:53.111,142,142,37.4233,-122.1419,13.48315,0,214.6353,3,10,1416429832,0.1565247,0.8664093,-0.5467682,13.31377,22.84613,14.03333,343.7173,330.0337,25,-0.06885283,-0.0548225,-0.2966993,-2.34402,0.1496464,-0.8829415,-0.1375969,-0.1144595,-0.2808449,0.06306136,0.0490761,0.05407056,0.0.0.0,10.181.213.137,1,0
2014-11-19 12:43:54.113,143,143,37.42331,-122.1418,13.67233,0.18,214.6353,3,10,1416429833,0.16922,0.8332672,-0.5453186,6.794128,25.73792,17.61304,359.6691,345.9855,25,-0.03412282,-0.07332481,-0.06773724,-2.593817,0.2921231,-0.8614349,0.009641423,-0.06079674,-0.09927805,-0.04091203,0.09109078,0.09532753,0.0.0.0,10.181.213.137,1,0
2014-11-19 12:43:55.110,144,144,37.42331,-122.1418,14.02182,0,214.6353,3,10,1416429834,-0.07789612,1.001053,-0.3226013,6.709244,23.0332,23.13171,1.855057,348.1714,25,0.3655218,0.1464765,0.1425377,-2.777996,0.07381616,-1.134088,0.4000965,0.3019938,0.1728881,-0.1277352,0.1132299,0.1600428,0.0.0.0,10.181.213.137,1,0
2014-11-19 12:43:56.110,145,145,37.42329,-122.1419,14.56183,0.5,214.6353,3,10,1416429836,-0.08787537,0.5874176,-0.5595093,6.556435,33.05164,-2.473114,4.28746,350.6038,25,2.051768,0.7448894,0.05442942,-3.107933,0.1883647,-0.8281295,1.82423,0.7623132,0.4910571,-0.1795328,-0.1402933,0.1703661,0.0.0.0,10.181.213.137,1,0
2014-11-19 12:43:57.115,146,146,37.42329,-122.1419,14.56183,0.5,214.6353,3,10,1416429836,-0.1235046,-0.01972961,-0.8144684,-0.8440552,23.39984,-22.21173,13.17033,359.4867,25,0.5203588,-0.5070856,0.09436272,2.874239,-0.04097056,-0.005138593,0.6974774,-0.4651832,0.0955373,-0.05303558,-0.06805056,0.06424163,0.0.0.0,10.181.213.137,1,0
2014-11-19 12:43:58.111,147,147,37.42329,-122.1419,15.03629,0.47,214.6353,3,10,1416429837,0.2027435,1.214279,-1.860611,22.58414,25.67957,-40.49426,312.1956,298.512,25,1.761626,-4.157224,0.2901048,2.931131,0.0716361,-0.5886087,2.298717,-6.094428,-0.2905342,0.1432137,0.6590748,-1.03103,0.0.0.0,10.181.213.137,1,0
2014-11-19 12:43:59.113,148,148,37.42328,-122.1419,14.86615,0.33,214.6353,3,10,1416429838,0.02372742,0.4874268,-0.8627472,16.86291,1.368591,-30.40912,4.559982,350.8763,26,0.07831345,-0.05765504,-0.003983823,2.97764,0.02664702,-0.490906,0.08453751,-0.004245855,-0.003231141,-0.009276194,0.01600168,-0.02038451,0.0.0.0,10.181.213.137,1,0
2014-11-19 12:44:00.113,149,149,37.42328,-122.1419,14.65079,0.26,214.6353,3,10,1416429839,0.03694153,0.4147797,-0.9099274,17.28732,-3.139709,-30.42572,4.904129,351.2205,26,0.01930312,-0.05594369,-0.002185124,2.972014,0.03918984,-0.431839,0.01359472,-0.01809277,-0.006749204,-0.004653442,0.007453208,0.001692766,0.0.0.0,10.181.213.137,1,0
2014-11-19 12:44:01.110,150,150,37.42328,-122.1419,14.23178,0.29,214.6353,3,10,1416429840,0.0365448,0.4091949,-0.9030609,17.32124,-2.833435,-30.35947,4.78981,351.1062,26,0.02640045,-0.02331384,0.008052068,2.980273,0.04168808,-0.427967,0.0134941,-0.01172887,0.003139829,-0.001372504,-0.005827076,0.005959988,0.0.0.0,10.181.213.137,1,0
2014-11-19 12:44:02.115,151,151,37.42328,-122.1419,14.38248,0,214.6353,3,10,1416429841,0.03466797,0.4085693,-0.9073792,16.67608,-3.547791,-30.06146,4.61879,350.9352,26,0.003348126,-0.04381992,0.02434396,2.982867,0.0427605,-0.4270633,0.01231703,0.009854284,-0.0003715654,0.009507988,0.001678598,0.0007389256,0.0.0.0,10.181.213.137,1,0
2014-11-19 12:44:03.114,152,152,37.42328,-122.1419,14.60941,0,214.6353,3,10,1416429842,0.04971313,0.4384155,-0.8918762,16.76095,-4.347534,-30.8728,4.427505,350.7439,26,0.01681573,-0.02684839,0.004045874,2.988106,0.04791286,-0.4391029,0.01094039,0.0141212,-0.002875625,0.006362196,0.01328783,0.01221843,0.0.0.0,10.181.213.137,1,0
2014-11-19 12:44:04.115,153,153,37.42328,-122.1419,14.42621,0,214.6353,3,10,1416429843,0.04682922,0.4198151,-0.8990173,17.40609,-3.837402,-29.94553,4.242111,350.5585,26,0.00711064,-0.0425685,0.01099033,2.990006,0.05066031,-0.4417989,-0.009606143,-0.01564307,-0.001361319,0.001052704,-0.007751263,0.003806872,0.0.0.0,10.181.213.137,1,0
2014-11-19 12:44:05.115,154,154,37.42328,-122.1419,14.59857,0,214.6353,3,10,1416429844,0.04277039,0.3910828,-0.9143982,16.69305,-3.565063,-29.48181,4.107437,350.4238,26,0.02036812,-0.0208419,0.009099755,2.987528,0.04078614,-0.4122743,0.007187286,0.002782441,0.002852073,-0.006688225,-0.01582164,0.002531857,0.0.0.0,10.181.213.137,1,0
2014-11-19 12:44:06.111,155,155,37.42328,-122.1419,14.3746,0,214.6353,3,10,1416429845,0.04136658,0.4034882,-0.8939972,17.25326,-3.820007,-29.53159,3.985947,350.3023,26,0.01430331,-0.04143186,0.01367853,2.990668,0.04359111,-0.4183135,0.004550598,-0.0003043218,-0.002231803,0.007451863,0.006194585,0.007832215,0.0.0.0,10.181.213.137,1,0
2014-11-19 12:44:07.115,156,156,37.42328,-122.1419,14.75021,0,214.6353,3,10,1416429846,0.05589294,0.4301758,-0.8921661,16.60813,-5.078857,-29.79651,3.834152,350.1505,26,0.01319516,-0.03652499,0.00509516,2.994902,0.04825857,-0.4296222,-0.004083902,-0.01334615,-0.007560724,0.001554205,0.01558626,0.003416925,0.0.0.0,10.181.213.137,1,0
2014-11-19 12:44:08.114,157,157,37.42328,-122.1419,14.52731,0,214.6353,3,10,1416429847,0.05430603,0.4350433,-0.8873444,18.18033,-1.516724,-26.75363,244.6048,230.9212,25,0.01078287,-0.02195084,0.005109275,2.999572,0.05587506,-0.4540661,0.002854922,0.008393411,0.001378959,-0.001130164,-0.001565752,0.001547139,0.0.0.0,10.181.213.137,1,0
2014-11-19 12:44:09.112,158,158,37.42328,-122.1419,14.27866,0,214.6353,3,10,1416429848,0.01773071,0.3358307,-0.9312286,18.1974,-0.6098022,-25.60132,245.6689,231.9853,25,0.007133543,-0.02921514,0.008623582,2.992089,0.03315371,-0.3965318,0.001905164,-0.008514431,0.001201491,-0.015683,-0.04865137,-0.01793545,0.0.0.0,10.181.213.137,1,0
2014-11-19 12:44:10.113,159,159,37.42329,-122.1419,14.28387,0.18,214.6353,3,10,1416429849,0.04328918,0.4095459,-0.9091949,18.07801,-0.6270142,-25.15048,247.4499,233.7663,25,0.005866944,-0.04621517,0.01460451,2.999535,0.04418099,-0.4148642,-0.007978734,-0.0129644,0.002096078,0.01463371,0.009730325,-0.003858593,0.0.0.0,10.181.213.137,1,0
2014-11-19 12:44:11.110,160,160,37.42329,-122.1419,14.12292,0.15,214.6353,3,10,1416429850,0.03785706,0.4111938,-0.8937225,18.02684,-0.7810059,-25.80173,248.4195,234.7358,25,0.0191713,-0.0378105,0.008954879,3.003403,0.04849362,-0.425217,-0.007007136,-0.01264171,0.007021855,-0.008116654,-0.002591119,0.006573277,0.0.0.0,10.181.213.137,1,0
2014-11-19 12:44:12.112,161,161,37.42329,-122.1419,14.32092,0,214.6353,3,10,1416429851,0.04190063,0.4141235,-0.8989105,18.35081,-0.8667603,-25.15045,248.7995,235.1159,25,0.01665461,-0.04147873,0.01865624,3.005568,0.04976519,-0.4268681,-0.008030344,-0.01161227,-0.002868979,0.0003123536,-0.0003867173,0.001928645,0.0.0.0,10.181.213.137,1,0
2014-11-19 12:44:13.113,162,162,37.42329,-122.1419,14.18619,0,214.6353,3,10,1416429852,0.04847717,0.415451,-0.9138641,17.94155,-0.7298584,-25.35077,249.229,235.5453,25,0.001052481,-0.04374721,0.01446576,3.00595,0.05016547,-0.4261189,0.001429808,0.003880379,0.009650961,-0.005850178,-0.003351424,0.01523576,0.0.0.0,10.181.213.137,1,0
2014-11-19 12:44:14.114,163,163,37.42329,-122.1419,14.30313,0,214.6353,3,10,1416429853,0.05085754,0.4132843,-0.9062042,18.2144,-0.8666382,-25.01672,249.3327,235.6491,25,0.001107076,-0.04129631,0.009580456,3.00872,0.04989503,-0.4260917,0.003767601,0.01002502,0.001033874,-0.007191704,-0.003677657,0.006653324,0.0.0.0,10.181.213.137,1,0
2014-11-19 12:44:15.112,164,164,37.42329,-122.1419,14.16788,0,214.6353,3,10,1416429854,0.04107666,0.4085999,-0.8987274,18.31672,-1.037659,-25.35077,249.2374,235.5537,25,0.01447934,-0.02922047,-0.002171808,3.011368,0.05035176,-0.4258653,0.001162121,-0.0007423352,0.0007089505,0.004534211,0.002052209,-0.001208643,0.0.0.0,10.181.213.137,1,0
2014-11-19 12:44:16.115,165,165,37.42329,-122.1419,14.34436,0,214.6353,3,10,1416429855,0.05056763,0.4165344,-0.9097595,17.9757,-1.311462,-25.41757,249.1065,235.4228,25,0.008413725,-0.04859763,0.002414688,3.01245,0.05020446,-0.4258598,0.01064499,0.01012229,0.0008914255,0.005339462,0.001767261,0.00572784,0.0.0.0,10.181.213.137,1,0
2014-11-19 12:44:17.115,166,166,37.42329,-122.1419,14.41641,0,214.6353,3,10,1416429856,0.03894043,0.4098663,-0.9056702,17.77104,-0.9009399,-25.35086,248.9239,235.2403,25,0.001122256,-0.04492833,0.008332498,3.013278,0.0496938,-0.426989,-0.01858412,-0.008985278,0.01318044,-0.001466568,-0.004631901,0.004185951,0.0.0.0,10.181.213.137,1,0
2014-11-19 12:44:18.113,167,167,37.42329,-122.1419,14.06558,0,214.6353,3,10,1416429857,0.05007935,0.414444,-0.9033813,18.09502,-1.499756,-25.66809,249.0148,235.3311,25,0.02880715,-0.02333488,0.008128767,3.014448,0.04982721,-0.4263214,0.0175537,0.01362132,0.002125649,-0.001143851,-0.00545848,0.009460719,0.0.0.0,10.181.213.137,1,0
2014-11-19 12:44:19.114,168,168,37.42329,-122.1419,14.21982,0,214.6353,3,10,1416429858,0.04391479,0.4228973,-0.9042664,17.73692,-1.482666,-25.61798,248.7408,235.0571,25,0.008364989,-0.02921248,0.006211823,3.015979,0.04840767,-0.4303709,0.01511667,0.02328462,-0.004152419,-0.003097953,-0.0007649956,0.01339834,0.0.0.0,10.181.213.137,1,0
2014-11-19 12:44:20.113,169,169,37.42329,-122.1419,14.15994,0,214.6353,3,10,1416429859,0.0388031,0.4130402,-0.897049,17.89039,-1.671143,-25.66815,248.8244,235.1408,25,0.01689216,-0.04500769,-0.002193646,3.018169,0.04716992,-0.4327482,-0.01142453,-0.01535202,-0.0005135456,-0.003392306,0.002736609,-0.0003891428,0.0.0.0,10.181.213.137,1,0
2014-11-19 12:44:21.112,170,170,37.42329,-122.1419,14.31097,0,214.6353,3,10,1416429860,0.04853821,0.4240112,-0.9142303,17.49818,-1.175049,-25.31741,248.7263,235.0426,25,0.026385,-0.01968236,0.009300025,3.019916,0.04798641,-0.4320643,0.01872242,0.02202854,-0.003216048,-0.003185136,-0.0008843795,0.01176372,0.0.0.0,10.181.213.137,1,0
2014-11-19 12:44:22.115,171,171,37.42329,-122.1419,13.98798,0,214.6353,3,10,1416429861,0.04296875,0.4101868,-0.9022827,17.73691,-1.175049,-25.18381,248.5864,234.9027,25,0.008414524,-0.05102297,0.002399508,3.020576,0.04949231,-0.4298591,-0.001836044,-0.0008411128,0.01048418,0.009288898,0.005925745,0.0003796501,0.0.0.0,10.181.213.137,1,0
2014-11-19 12:44:23.114,172,172,37.42328,-122.1419,13.75189,0,214.6353,3,10,1416429862,0.04772949,0.414032,-0.9074402,17.03777,-1.602783,-25.40091,248.3611,234.6774,25,0.02042511,-0.02445448,0.004176369,3.020964,0.05229852,-0.4264622,-0.002806833,-0.008021413,-0.01185887,-0.0005193276,-0.003984456,0.006235981,0.0.0.0,10.181.213.137,1,0
2014-11-19 12:44:24.111,173,173,37.42329,-122.1419,13.61002,0,214.6353,3,10,1416429863,0.0574646,0.4177246,-0.9032593,17.82215,-1.705505,-25.20044,248.1221,234.4384,25,0.008368185,-0.03770211,0.00615856,3.022518,0.05417214,-0.429081,-0.0007064292,0.009911687,0.0003775345,-0.006680504,-0.007191264,0.003092028,0.0.0.0,10.181.213.137,1,0
2014-11-19 12:44:25.110,174,174,37.42329,-122.1419,13.63541,0,214.6353,3,10,1416429864,0.04603577,0.4131317,-0.9029388,17.42999,-1.585876,-24.48236,247.8804,234.1967,25,0.02030554,-0.03906538,0.01511157,3.022659,0.05401814,-0.4295851,0.001619948,-0.003660493,0.0001583691,0.006898404,0.002390635,0.005758703,0.0.0.0,10.181.213.137,1,0
2014-11-19 12:44:26.111,175,175,37.42329,-122.1419,13.75909,0,214.6353,3,10,1416429865,0.04902649,0.4107971,-0.9093628,17.6517,-1.363403,-25.46762,247.6613,233.9777,25,0.02516181,-0.04151415,0.01157463,3.023681,0.05484365,-0.4293001,0.003979278,-0.007557748,0.001248584,0.0122155,0.0002388448,0.00252519,0.0.0.0,10.181.213.137,1,0
2014-11-19 12:44:27.110,176,176,37.42329,-122.1419,13.68115,0,214.6353,3,10,1416429866,0.05426025,0.4205627,-0.9018097,17.56643,-1.585754,-24.98334,247.4942,233.8105,25,0.02396392,-0.01845437,0.01045584,3.024124,0.05375674,-0.4310751,0.00636662,0.02013344,-0.001105483,-0.001635224,-0.001023433,0.001946481,0.0.0.0,10.181.213.137,1,0
2014-11-19 12:44:28.111,177,177,37.42329,-122.1419,13.80112,0,214.6353,3,10,1416429867,0.04922485,0.4223328,-0.9068451,17.48119,-1.637085,-24.8331,247.2978,233.6141,25,0.02038863,-0.03781423,0.007768175,3.022219,0.05477247,-0.4314783,-0.006920835,0.0006539148,0.004326262,0.0006874198,0.005949743,-0.002696926,0.0.0.0,10.181.213.137,1,0
2014-11-19 12:44:29.112,178,178,37.42329,-122.1419,13.96851,0,214.6353,3,10,1416429868,0.04626465,0.4140625,-0.9029236,17.34478,-1.910767,-24.66617,247.3698,233.6861,25,0.01437095,-0.03654842,0.007583618,3.021839,0.05656434,-0.4293196,-0.00201715,0.01017198,-0.0004384632,0.006503448,0.003547519,0.002414716,0.0.0.0,10.181.213.137,1,0
2014-11-19 12:44:30.119,179,179,37.42329,-122.1419,14.19009,0,214.6353,3,10,1416429870,0.04347229,0.4123077,-0.9096375,18.04391,-2.099182,-25.41769,247.1352,233.4516,25,0.007122358,-0.03649809,0.009803362,3.020996,0.05801355,-0.4289215,0.0002270305,-0.008320829,0.01419797,0.005254602,-1.192029e-05,0.00221474,0.0.0.0,10.181.213.137,1,0
2014-11-19 12:44:31.114,180,180,37.42329,-122.1419,14.51093,0,214.6353,3,10,1416429871,0.04824829,0.4098358,-0.9003296,18.06094,-1.876831,-24.6329,247.1046,233.421,25,0.01560532,-0.04503565,0.005118862,3.02008,0.05827036,-0.4278053,0.01379132,-0.01452777,-0.01605703,0.004689273,0.003780516,0.005563197,0.0.0.0,10.181.213.137,1,0
