time,timestamp,recordtime,lat,long,alt,speed,course,verticalAccuracy,horizontalAccuracy,locTimeStamp,accelerationX,accelerationY,accelerationZ,HeadingX,HeadingY,HeadingZ,TrueHeading,MagneticHeading,HeadingAccuracy,RotationX,RotationY,RotationZ,motionYaw,motionRoll,motionPitch,motionRotationRateX,motionRotationRateY,motionRotationRateZ,motionUserAccelerationX,motionUserAccelerationY,motionUserAccelerationZ,en0,pdp_ip0,DeviceOrientation,Activity,Activity Confidence,Activity Start,Steps,Last Step Date,State
2014-11-07 12:16:13.440,1,0.03333334,37.45037,-122.1572,13.29587,1.75,62.22656,4,10,1415391373,0.05924988,-0.8178558,-0.6023865,-55.10358,24.30758,-16.90912,80.25118,66.55615,25,-0.01638483,-0.06352705,0.2395609,-0.3140826,0.1903959,0.9270261,-0.1306393,-0.6198162,0.09673551,0.05595108,-0.0077329,0.01919383,0.0.0.0,10.62.21.216,1,unknown,0,2014-11-07 12:16:08.330,0,2014-11-07 12:10:07.860,0
2014-11-07 12:16:13.546,2,0.06666667,37.45037,-122.1572,13.29587,1.75,62.22656,4,10,1415391373,0.07569885,-0.8058014,-0.6354065,-55.61689,25.63304,-13.37289,81.15475,67.45972,25,0.2922468,-0.1090293,-0.06367991,-0.3090685,0.1587723,0.9105322,-0.05190711,-0.2869459,-0.1626083,-0.01222316,-0.06334966,0.02135212,0.0.0.0,10.62.21.216,1,unknown,0,2014-11-07 12:16:08.330,0,2014-11-07 12:10:07.860,0
2014-11-07 12:16:13.646,3,0.1,37.45037,-122.1572,13.29587,1.75,62.22656,4,10,1415391373,0.07557678,-0.7812653,-0.5859833,-56.40397,24.85135,-12.15009,82.69965,69.00462,25,0.3790323,-0.02630804,-0.07401271,-0.3384994,0.1608976,0.9280841,0.2589741,-0.2468043,-0.2089788,0.01967072,0.008251987,-0.02208127,0.0.0.0,10.62.21.216,1,unknown,0,2014-11-07 12:16:08.330,0,2014-11-07 12:10:07.860,0
2014-11-07 12:16:13.744,4,0.1333333,37.45037,-122.1572,13.29587,1.75,62.22656,4,10,1415391373,0.09294128,-0.8447571,-0.4806519,-56.36975,24.13763,-12.38144,83.38085,69.68582,25,0.25031,0.02393995,0.1480459,-0.3411871,0.1483973,0.9555886,0.1617408,-0.1153829,0.139388,0.05267019,-0.01730031,0.06150783,0.0.0.0,10.62.21.216,1,unknown,0,2014-11-07 12:16:08.330,0,2014-11-07 12:10:07.860,0
2014-11-07 12:16:13.839,5,0.1666667,37.45037,-122.1572,13.29587,1.75,62.22656,4,10,1415391373,0.06321716,-0.9560852,-0.542984,-55.17202,23.6958,-12.08405,83.3037,69.60867,25,0.6320485,-0.2473611,-0.2224222,-0.3423321,0.144913,0.9871702,0.5690371,-0.1886257,-0.1111136,-0.00776773,-0.1133145,0.004872272,0.0.0.0,10.62.21.216,1,unknown,0,2014-11-07 12:16:08.330,0,2014-11-07 12:10:07.860,0
2014-11-07 12:16:13.945,6,0.2,37.45037,-122.1572,13.29587,1.75,62.22656,4,10,1415391373,0.1221008,-0.8561401,-0.4173279,-55.00091,24.06965,-12.44757,83.76192,70.06689,25,0.1710096,0.1269382,-0.01484739,-0.3823264,0.1659256,1.027033,0.1395565,0.1178618,-0.01494866,0.03289717,-0.03246178,0.08445846,0.0.0.0,10.62.21.216,1,unknown,0,2014-11-07 12:16:08.330,0,2014-11-07 12:10:07.860,0
2014-11-07 12:16:14.047,7,0.2333333,37.45037,-122.1572,13.29587,1.75,62.22656,4,10,1415391373,0.1231232,-0.8930054,-0.3625031,-55.27468,24.27357,-12.84412,83.87158,70.17655,25,-0.18041,-0.03425784,0.1572698,-0.3864169,0.1848831,1.034698,-0.2091153,0.1009062,0.1571886,0.05162445,-0.02832309,0.1503354,0.0.0.0,10.62.21.216,1,unknown,0,2014-11-07 12:16:08.330,0,2014-11-07 12:10:07.860,0
2014-11-07 12:16:14.144,8,0.2666667,37.45037,-122.1572,13.29587,1.75,62.22656,4,10,1415391373,0.07553101,-0.9442139,-0.5254974,-55.58267,23.89973,-12.34842,84.1464,70.45137,25,-0.1093654,0.01881683,-0.1205416,-0.3744769,0.1668404,1.025188,-0.1507885,-0.09083056,-0.1092246,-0.02532671,-0.09652805,0.02413798,0.0.0.0,10.62.21.216,1,unknown,0,2014-11-07 12:16:08.330,0,2014-11-07 12:10:07.860,0
2014-11-07 12:16:14.239,9,0.3,37.45039,-122.1572,13.5889,2.21,73.125,4,10,1415391374,0.1211853,-0.8900909,-0.5394135,-55.24046,23.55985,-12.34845,84.22005,70.52502,25,-0.119715,0.1150328,-0.02488165,-0.3906617,0.1805805,1.012971,-0.2022646,0.08339374,-0.1495707,0.01839406,-0.05639223,-0.01033165,0.0.0.0,10.62.21.216,1,unknown,0,2014-11-07 12:16:08.330,0,2014-11-07 12:10:07.860,0
2014-11-07 12:16:14.346,10,0.3333333,37.45039,-122.1572,13.5889,2.21,73.125,4,10,1415391374,0.0508728,-0.8310394,-0.5787354,-55.61689,24.00167,-12.31537,83.80164,70.10661,25,0.07649664,0.1390676,0.06650606,-0.3675979,0.1725298,0.9921004,0.02868809,0.04333488,0.1235813,-0.01255016,0.01889351,0.007562709,0.0.0.0,10.62.21.216,1,unknown,0,2014-11-07 12:16:08.330,0,2014-11-07 12:10:07.860,0
2014-11-07 12:16:14.446,11,0.3666667,37.45039,-122.1572,13.5889,2.21,73.125,4,10,1415391374,0.08905029,-0.8523254,-0.4550476,-54.11117,25.02127,-12.84415,82.23967,68.54464,25,-0.2574989,0.2182615,0.07080546,-0.3509784,0.1764864,0.9853306,-0.2649327,0.2461871,0.02925865,-0.0199313,-0.02625586,0.0828682,0.0.0.0,10.62.21.216,1,unknown,0,2014-11-07 12:16:08.330,0,2014-11-07 12:10:07.860,0
2014-11-07 12:16:14.544,12,0.4,37.45039,-122.1572,13.5889,2.21,73.125,4,10,1415391374,0.09472656,-0.8623505,-0.5448914,-54.00851,25.4631,-13.73648,80.95383,67.2588,25,-0.08032414,0.1311101,0.01221219,-0.327785,0.1730204,0.9592398,-0.3297283,0.1548416,0.08877463,0.04347524,-0.06544571,0.04136976,0.0.0.0,10.62.21.216,1,unknown,0,2014-11-07 12:16:08.330,0,2014-11-07 12:10:07.860,0
2014-11-07 12:16:14.575,13,0.4333334,37.45039,-122.1572,13.5889,2.21,73.125,4,10,1415391374,0.07559204,-0.9085999,-0.6025696,-53.76897,25.29317,-13.83563,80.82868,67.13365,25,0.147708,-0.01369957,-0.08012147,-0.3256523,0.1744031,0.9559343,-0.01357258,0.04289726,-0.04018673,-0.01920762,-0.06597469,-0.00609303,0.0.0.0,10.62.21.216,1,unknown,0,2014-11-07 12:16:08.330,0,2014-11-07 12:10:07.860,0
2014-11-07 12:16:14.679,14,0.4666667,37.45039,-122.1572,13.5889,2.21,73.125,4,10,1415391374,0.1335449,-0.8314972,-0.5843201,-53.63209,25.76898,-13.6373,80.82159,67.12656,25,0.1121217,0.007470966,-0.1242756,-0.345731,0.1902388,0.957752,0.08724391,0.04060584,-0.1374502,-0.02798621,-0.02989333,0.00350238,0.0.0.0,10.62.21.216,1,unknown,0,2014-11-07 12:16:08.330,0,2014-11-07 12:10:07.860,0
2014-11-07 12:16:14.780,15,0.5,37.45039,-122.1572,13.5889,2.21,73.125,4,10,1415391374,0.1926422,-0.8000183,-0.561554,-54.3165,24.88534,-12.97626,81.14655,67.45152,25,-0.1180174,0.04463192,0.08778951,-0.3671144,0.2055066,0.9542273,-0.124189,0.006614705,0.03581434,0.0649708,-0.004246958,0.02446116,0.0.0.0,10.62.21.216,1,unknown,0,2014-11-07 12:16:08.330,0,2014-11-07 12:10:07.860,0
2014-11-07 12:16:14.884,16,0.5333334,37.45039,-122.1572,13.5889,2.21,73.125,4,10,1415391374,0.06932068,-0.7775116,-0.6089172,-54.11117,25.15723,-12.38144,81.38356,67.68853,25,0.01649083,0.04404575,0.1469279,-0.3579356,0.20085,0.941379,-0.07991011,0.02893304,0.08402898,-0.0203959,0.0139828,-0.01890892,0.0.0.0,10.62.21.216,1,unknown,0,2014-11-07 12:16:08.330,0,2014-11-07 12:10:07.860,0
2014-11-07 12:16:14.945,17,0.5666667,37.45039,-122.1572,13.5889,2.21,73.125,4,10,1415391374,0.08811951,-0.8378143,-0.6038208,-53.87162,25.39513,-13.33984,81.43094,67.73591,25,0.1392599,0.09535608,0.1129324,-0.338889,0.1859535,0.9401715,0.03629926,0.04693479,0.1026963,-0.03409589,0.01696403,-0.02493166,0.0.0.0,10.62.21.216,1,unknown,0,2014-11-07 12:16:08.330,0,2014-11-07 12:10:07.860,0
2014-11-07 12:16:15.049,18,0.6,37.45039,-122.1572,13.5889,2.21,73.125,4,10,1415391374,0.0821228,-0.8626251,-0.5614319,-53.83741,25.83696,-13.90164,81.29241,67.59738,25,-0.071059,0.03317953,0.09509003,-0.3245015,0.1732136,0.9443895,-0.1084146,-0.03059813,0.07858309,0.008902251,-0.06029845,0.02094658,0.0.0.0,10.62.21.216,1,unknown,0,2014-11-07 12:16:08.330,0,2014-11-07 12:10:07.860,0
2014-11-07 12:16:15.111,19,0.6333334,37.45039,-122.1572,13.5889,2.21,73.125,4,10,1415391374,0.0846405,-0.8830872,-0.5996246,-54.17962,26.10886,-13.63724,81.1469,67.45187,25,0.1356545,-0.04372032,-0.1394956,-0.3195524,0.1672242,0.9472352,0.1150083,-0.0611148,-0.04352886,-0.03705784,-0.04046023,-0.04401246,0.0.0.0,10.62.21.216,1,unknown,0,2014-11-07 12:16:08.330,0,2014-11-07 12:10:07.860,0
2014-11-07 12:16:15.212,20,0.6666667,37.45039,-122.1572,13.5889,2.21,73.125,4,10,1415391374,0.052948,-0.8429413,-0.5789948,-53.66631,25.73499,-13.27371,80.61672,66.92169,25,0.2119141,0.03739025,-0.2508202,-0.3269813,0.1704477,0.9495236,0.08256628,-0.05910775,-0.2023671,-0.04132934,-0.04135386,-0.01626912,0.0.0.0,10.62.21.216,1,unknown,0,2014-11-07 12:16:08.330,0,2014-11-07 12:10:07.860,0
2014-11-07 12:16:15.338,21,0.7,37.45039,-122.1572,13.5889,2.21,73.125,4,10,1415391374,0.04937744,-0.7976227,-0.6027527,-53.59786,25.4631,-13.33978,81.07193,67.3769,25,0.2650538,0.1030665,-0.2256012,-0.3345647,0.1752082,0.9517752,0.1634587,-0.003940958,-0.2671171,-0.04819515,-0.02849447,-0.00763982,0.0.0.0,10.62.21.216,1,unknown,0,2014-11-07 12:16:08.330,0,2014-11-07 12:10:07.860,0
2014-11-07 12:16:15.394,22,0.7333333,37.45039,-122.1572,13.5889,2.21,73.125,4,10,1415391374,0.04937744,-0.7976227,-0.6027527,-53.59786,25.4631,-13.33978,81.07193,67.3769,25,0.2650538,0.1030665,-0.2256012,-0.3345647,0.1752082,0.9517752,0.1634587,-0.003940958,-0.2671171,-0.04819515,-0.02849447,-0.00763982,0.0.0.0,10.62.21.216,1,unknown,0,2014-11-07 12:16:08.330,0,2014-11-07 12:10:07.860,0
2014-11-07 12:16:15.425,23,0.7666667,37.45042,-122.1571,12.78311,4.48,45,3,10,1415391375,0.04937744,-0.7976227,-0.6027527,-53.59786,25.19121,-13.80249,81.01366,67.31863,25,0.2650538,0.1030665,-0.2256012,-0.3399841,0.1797948,0.9532929,0.1956298,0.02572728,-0.2606908,-0.04812156,-0.03873844,-0.007663347,0.0.0.0,10.62.21.216,1,unknown,0,2014-11-07 12:16:08.330,0,2014-11-07 12:10:07.860,0
2014-11-07 12:16:15.499,24,0.8000001,37.45042,-122.1571,12.78311,4.48,45,3,10,1415391375,0.05152893,-0.7733917,-0.6049347,-53.59786,25.12324,-14.19907,80.97965,67.28462,25,0.2650538,0.1030665,-0.2256012,-0.3399841,0.1797948,0.9532929,0.1956298,0.02572728,-0.2606908,-0.04812156,-0.03873844,-0.007663347,0.0.0.0,10.62.21.216,1,unknown,0,2014-11-07 12:16:08.330,0,2014-11-07 12:10:07.860,0
2014-11-07 12:16:15.533,25,0.8333334,37.45042,-122.1571,12.78311,4.48,45,3,10,1415391375,0.05152893,-0.7733917,-0.6049347,-53.59786,25.12324,-14.19907,80.97965,67.28462,25,0.2650538,0.1030665,-0.2256012,-0.3399841,0.1797948,0.9532929,0.1956298,0.02572728,-0.2606908,-0.04812156,-0.03873844,-0.007663347,0.0.0.0,10.62.21.216,1,unknown,0,2014-11-07 12:16:08.330,0,2014-11-07 12:10:07.860,0
2014-11-07 12:16:15.579,26,0.8666667,37.45042,-122.1571,12.78311,4.48,45,3,10,1415391375,0.07363892,-0.7753906,-0.5923615,-54.17962,25.02129,-14.09995,81.15372,67.45869,25,0.3056835,0.1552274,-0.1808017,-0.3452131,0.1846391,0.9550555,0.2165986,0.06173544,-0.2418979,-0.0541713,-0.01696719,-0.02092247,0.0.0.0,10.62.21.216,1,unknown,0,2014-11-07 12:16:08.330,0,2014-11-07 12:10:07.860,0
2014-11-07 12:16:15.616,27,0.9,37.45042,-122.1571,12.78311,4.48,45,3,10,1415391375,0.07363892,-0.7753906,-0.5923615,-54.17962,25.02129,-14.09995,81.15372,67.45869,25,0.3056835,0.1552274,-0.1808017,-0.3452131,0.1846391,0.9550555,0.2165986,0.06173544,-0.2418979,-0.0541713,-0.01696719,-0.02092247,0.0.0.0,10.62.21.216,1,unknown,0,2014-11-07 12:16:08.330,0,2014-11-07 12:10:07.860,0
2014-11-07 12:16:15.677,28,0.9333334,37.45042,-122.1571,12.78311,4.48,45,3,10,1415391375,0.1046906,-0.789093,-0.5753784,-54.00851,25.39514,-12.87714,81.08275,67.38772,25,0.3154136,0.175199,-0.1486073,-0.3471006,0.1857539,0.9559233,0.2289019,0.08285576,-0.2269236,-0.05716042,0.01922401,-0.03582133,0.0.0.0,10.62.21.216,1,unknown,0,2014-11-07 12:16:08.330,0,2014-11-07 12:10:07.860,0
2014-11-07 12:16:15.779,29,0.9666667,37.45042,-122.1571,12.78311,4.48,45,3,10,1415391375,0.1282959,-0.7912598,-0.5622406,-54.00851,25.39513,-12.21616,81.89277,68.19774,25,0.3188384,0.1840929,-0.09927226,-0.3517224,0.1906525,0.9581506,0.257221,0.1138918,-0.1970898,-0.0574398,0.0447378,-0.04031986,0.0.0.0,10.62.21.216,1,unknown,0,2014-11-07 12:16:08.330,0,2014-11-07 12:10:07.860,0
2014-11-07 12:16:15.882,30,1,37.45042,-122.1571,12.78311,4.48,45,3,10,1415391375,0.1693573,-0.7941132,-0.5337524,-54.14539,26.14283,-11.95175,81.95605,68.26102,25,0.2944908,0.1761268,0.03733672,-0.3592504,0.1997417,0.9631828,0.2703761,0.1427574,-0.1155602,-0.008587163,0.03191979,-0.01581954,0.0.0.0,10.62.21.216,1,unknown,0,2014-11-07 12:16:08.330,0,2014-11-07 12:10:07.860,0
2014-11-07 12:16:15.979,31,1.033333,37.45042,-122.1571,12.78311,4.48,45,3,10,1415391375,0.1940002,-0.8097076,-0.5174255,-53.66631,25.87094,-12.08392,81.95241,68.25738,25,0.2508655,0.1542231,0.08515724,-0.3621433,0.2040111,0.9651213,0.2625395,0.1493203,-0.04654922,0.0129529,0.03085821,-0.004730033,0.0.0.0,10.62.21.216,1,unknown,0,2014-11-07 12:16:08.330,0,2014-11-07 12:10:07.860,0
2014-11-07 12:16:16.084,32,1.066667,37.45042,-122.1571,12.78311,4.48,45,3,10,1415391375,0.2137146,-0.80513,-0.4509125,-53.05033,24.64743,-14.66171,81.28294,67.58791,25,-0.01978622,-0.04256797,0.1929508,-0.367113,0.2138707,0.9729382,0.1340817,0.06746984,0.1041442,0.09507209,0.006673155,0.05665631,0.0.0.0,10.62.21.216,1,unknown,0,2014-11-07 12:16:08.330,0,2014-11-07 12:10:07.860,0
2014-11-07 12:16:16.183,33,1.1,37.45042,-122.1571,12.78311,4.48,45,3,10,1415391375,0.1776886,-0.8271179,-0.3999023,-52.77657,24.85135,-14.86002,80.88431,67.18928,25,-0.1988918,-0.1640014,0.3199019,-0.357206,0.2037489,0.9728925,-0.1601749,-0.1577305,0.2215332,0.08765271,0.02086856,0.1227243,0.0.0.0,10.62.21.216,1,unknown,0,2014-11-07 12:16:08.330,0,2014-11-07 12:10:07.860,0
2014-11-07 12:16:16.283,34,1.133333,37.45042,-122.1571,12.78311,4.48,45,3,10,1415391375,0.1776886,-0.8271179,-0.3999023,-53.25565,25.46312,-14.79388,80.54191,66.84688,25,-0.2051966,-0.1514327,0.3421757,-0.3515885,0.1970988,0.9711861,-0.2285578,-0.1944062,0.267986,0.08149315,0.01040062,0.1461835,0.0.0.0,10.62.21.216,1,unknown,0,2014-11-07 12:16:08.330,0,2014-11-07 12:10:07.860,0
2014-11-07 12:16:16.381,35,1.166667,37.45042,-122.1571,12.78311,4.48,45,3,10,1415391375,0.1746063,-0.83992,-0.417511,-53.73475,26.27879,-12.81097,80.91139,67.21636,25,-0.2102358,-0.1401363,0.3595132,-0.3451425,0.1895806,0.9692308,-0.247348,-0.2053267,0.3035956,0.07821167,-0.0007599333,0.1618733,0.0.0.0,10.62.21.216,1,unknown,0,2014-11-07 12:16:08.330,0,2014-11-07 12:10:07.860,0
2014-11-07 12:16:16.480,36,1.2,37.45042,-122.1571,12.78311,4.48,45,3,10,1415391375,0.1688843,-0.8981323,-0.489212,-54.62449,25.59906,-11.68732,81.95596,68.26093,25,-0.2778966,-0.1200777,0.2993324,-0.3310856,0.1738868,0.9651163,-0.2586918,-0.1814614,0.3432071,0.07610703,-0.01780491,0.1432248,0.0.0.0,10.62.21.216,1,unknown,0,2014-11-07 12:16:08.330,0,2014-11-07 12:10:07.860,0
2014-11-07 12:16:16.581,37,1.233333,37.45042,-122.1571,12.78311,4.48,45,3,10,1415391375,0.1432343,-0.9107056,-0.5323944,-54.79559,24.81737,-11.38986,82.58126,68.88623,25,-0.2749192,-0.1179631,0.2168479,-0.3238463,0.1661198,0.9627392,-0.2908205,-0.1651137,0.3371631,0.07765512,-0.04781656,0.1134585,0.0.0.0,10.62.21.216,1,unknown,0,2014-11-07 12:16:08.330,0,2014-11-07 12:10:07.860,0
2014-11-07 12:16:16.614,38,1.266667,37.45042,-122.1571,12.78311,4.48,45,3,10,1415391375,0.1158905,-0.9087067,-0.5609131,-54.86403,24.20561,-11.72037,82.76334,69.06831,25,-0.2371151,-0.1137058,0.104838,-0.3173224,0.1590243,0.9598807,-0.3263693,-0.1613937,0.2830046,0.07804913,-0.07900916,0.07716789,0.0.0.0,10.62.21.216,1,unknown,0,2014-11-07 12:16:08.330,0,2014-11-07 12:10:07.860,0
2014-11-07 12:16:16.711,39,1.3,37.45042,-122.1571,12.78311,4.48,45,3,10,1415391375,0.1637115,-0.8221283,-0.6048889,-55.85644,23.42393,-11.81952,82.85894,69.16391,25,0.2026474,0.07857923,0.06231477,-0.3418312,0.1680029,0.9568452,0.0653709,0.01771011,-0.003456674,0.04543734,-0.001988327,-0.03572356,0.0.0.0,10.62.21.216,1,unknown,0,2014-11-07 12:16:08.330,0,2014-11-07 12:10:07.860,0
2014-11-07 12:16:16.793,40,1.333333,37.45042,-122.1571,12.78311,4.48,45,3,10,1415391375,0.1128082,-0.7909698,-0.6341553,-56.30131,24.47751,-9.737396,82.90968,69.21465,25,0.3340643,0.009121593,0.003864513,-0.3411773,0.1685061,0.9615618,0.2074263,0.02570194,0.03728818,0.06125632,0.004641342,-0.05074852,0.0.0.0,10.62.21.216,1,unknown,0,2014-11-07 12:16:08.330,0,2014-11-07 12:10:07.860,0
2014-11-07 12:16:16.830,41,1.366667,37.45042,-122.1571,12.78311,4.48,45,3,10,1415391375,0.08714294,-0.7871552,-0.6337891,-56.47241,24.30758,-9.704376,82.90684,69.21181,25,0.3340643,0.009121593,0.003864513,-0.3411773,0.1685061,0.9615618,0.2074263,0.02570194,0.03728818,0.06125632,0.004641342,-0.05074852,0.0.0.0,10.62.21.216,1,unknown,0,2014-11-07 12:16:08.330,0,2014-11-07 12:10:07.860,0
2014-11-07 12:16:16.864,42,1.4,37.45042,-122.1571,12.78311,4.48,45,3,10,1415391375,0.05397034,-0.7946167,-0.4694977,-56.02754,24.34156,-10.26624,82.26954,68.57451,25,0.3170142,0.1571393,-0.008385762,-0.3578162,0.1845308,0.9882143,0.2960693,0.1104344,-0.07891262,-0.06031613,0.06864165,0.0562983,0.0.0.0,10.62.21.216,1,unknown,0,2014-11-07 12:16:08.330,0,2014-11-07 12:10:07.860,0
2014-11-07 12:16:16.895,43,1.433333,37.45042,-122.1571,12.78311,4.48,45,3,10,1415391375,0.05397034,-0.7946167,-0.4694977,-56.02754,24.34156,-10.26624,82.26954,68.57451,25,0.3170142,0.1571393,-0.008385762,-0.3578162,0.1845308,0.9882143,0.2960693,0.1104344,-0.07891262,-0.06031613,0.06864165,0.0562983,0.0.0.0,10.62.21.216,1,unknown,0,2014-11-07 12:16:08.330,0,2014-11-07 12:10:07.860,0
2014-11-07 12:16:16.949,44,1.466667,37.45045,-122.1571,12.36642,5.88,37.5319,3,10,1415391376,0.05352783,-0.8780823,-0.423233,-56.13021,24.30758,-10.10101,82.38232,68.68729,25,-0.6195152,-0.2494146,0.08630347,-0.3218122,0.1487004,0.9734278,-0.6075888,-0.2847418,0.1070095,-0.02456981,-0.01156033,0.205874,0.0.0.0,10.62.21.216,1,unknown,0,2014-11-07 12:16:08.330,0,2014-11-07 12:10:07.860,0
2014-11-07 12:16:16.996,45,1.5,37.45045,-122.1571,12.36642,5.88,37.5319,3,10,1415391376,0.05352783,-0.8780823,-0.423233,-56.13021,24.30758,-10.10101,82.38232,68.68729,25,-0.6195152,-0.2494146,0.08630347,-0.3218122,0.1487004,0.9734278,-0.6075888,-0.2847418,0.1070095,-0.02456981,-0.01156033,0.205874,0.0.0.0,10.62.21.216,1,unknown,0,2014-11-07 12:16:08.330,0,2014-11-07 12:10:07.860,0
2014-11-07 12:16:17.056,46,1.533333,37.45045,-122.1571,12.36642,5.88,37.5319,3,10,1415391376,0.09460449,-0.7185822,-0.8000183,-55.78799,24.17163,-10.16708,82.89684,69.20181,25,-0.1520415,0.02112659,-0.2239705,-0.3466185,0.1483162,0.9045267,-0.2486143,-0.05611173,-0.2775608,0.006919058,0.04475394,-0.1900736,0.0.0.0,10.62.21.216,1,unknown,0,2014-11-07 12:16:08.330,0,2014-11-07 12:10:07.860,0
2014-11-07 12:16:17.105,47,1.566667,37.45045,-122.1571,12.36642,5.88,37.5319,3,10,1415391376,0.04075623,-0.7355042,-0.8210144,-55.13779,24.7494,-9.803558,82.14401,68.44898,25,0.4252147,0.1411361,-0.1033149,-0.3169391,0.1049089,0.8543205,0.3246198,0.1238056,-0.1096088,-0.05601425,0.02196236,-0.2301651,0.0.0.0,10.62.21.216,1,automotive,1,2014-11-07 12:16:16.212,0,2014-11-07 12:10:07.860,0
2014-11-07 12:16:17.212,48,1.6,37.45051,-122.1571,12.55768,6.56,37.5319,3,10,1415391377,-0.02377319,-0.7997589,-0.7575684,-56.60929,25.59906,-8.514679,82.28991,68.59488,25,-0.07674165,-0.01157783,-0.2020721,-0.2907485,0.04779191,0.8576347,-0.162826,-0.1183985,-0.1795983,-0.0485889,-0.04098979,-0.08409814,0.0.0.0,10.62.21.216,1,automotive,1,2014-11-07 12:16:16.212,0,2014-11-07 12:10:07.860,0
2014-11-07 12:16:17.301,49,1.633333,37.45051,-122.1571,12.55768,6.56,37.5319,3,10,1415391377,0.06340027,-0.7318726,-0.8233643,-56.54086,24.9873,-8.118134,82.84405,69.14902,25,0.1369302,0.09065826,-0.11615,-0.3100075,0.06216676,0.855368,0.08217472,0.04185718,-0.1461083,0.0005998636,-0.006601232,-0.1759232,0.0.0.0,10.62.21.216,1,automotive,1,2014-11-07 12:16:16.212,0,2014-11-07 12:10:07.860,0
2014-11-07 12:16:17.332,50,1.666667,37.45051,-122.1571,12.55768,6.56,37.5319,3,10,1415391377,0.0511322,-0.647522,-0.7081451,-57.08839,24.85135,-8.184235,83.15892,69.46389,25,0.2843825,0.1290448,0.06154858,-0.3206966,0.07529581,0.8521812,0.1939911,0.09402487,-0.006524548,0.001944264,0.08145353,-0.07064954,0.0.0.0,10.62.21.216,1,automotive,1,2014-11-07 12:16:16.212,0,2014-11-07 12:10:07.860,0
2014-11-07 12:16:17.365,51,1.7,37.45051,-122.1571,12.55768,6.56,37.5319,3,10,1415391377,0.0511322,-0.647522,-0.7081451,-56.91729,24.88534,-7.622406,83.41678,69.72175,25,0.2903154,0.1117633,0.09957186,-0.3206966,0.07529581,0.8521812,0.1939911,0.09402487,-0.006524548,0.001944264,0.08145353,-0.07064954,0.0.0.0,10.62.21.216,1,automotive,1,2014-11-07 12:16:16.212,0,2014-11-07 12:10:07.860,0
2014-11-07 12:16:17.390,52,1.733333,37.45051,-122.1571,12.55768,6.56,37.5319,3,10,1415391377,0.0511322,-0.647522,-0.7081451,-56.91729,24.88534,-7.622406,83.41678,69.72175,25,0.2903154,0.1117633,0.09957186,-0.3206966,0.07529581,0.8521812,0.1939911,0.09402487,-0.006524548,0.001944264,0.08145353,-0.07064954,0.0.0.0,10.62.21.216,1,automotive,1,2014-11-07 12:16:16.212,0,2014-11-07 12:10:07.860,0
2014-11-07 12:16:17.450,53,1.766667,37.45051,-122.1571,12.55768,6.56,37.5319,3,10,1415391377,0.02906799,-0.723053,-0.6011505,-57.01995,25.32716,-7.721588,83.43742,69.74239,25,0.1339474,0.06826587,0.1668747,-0.3111186,0.0743514,0.8645045,0.185674,0.0859872,0.1362438,-0.008354926,0.09321703,0.01416739,0.0.0.0,10.62.21.216,1,automotive,1,2014-11-07 12:16:16.212,0,2014-11-07 12:10:07.860,0
2014-11-07 12:16:17.546,54,1.8,37.45051,-122.1571,12.55768,6.56,37.5319,3,10,1415391377,0.04719543,-0.7828217,-0.5577087,-56.43819,26.2448,-9.274902,81.75148,68.05645,25,-0.07872837,0.004776113,0.1293178,-0.2991446,0.06631383,0.8672742,-0.1113005,0.003227994,0.1218929,0.008478345,-0.006321917,0.08394695,0.0.0.0,10.62.21.216,1,automotive,1,2014-11-07 12:16:16.212,0,2014-11-07 12:10:07.860,0
2014-11-07 12:16:17.630,55,1.833333,37.45051,-122.1571,12.55768,6.56,37.5319,3,10,1415391377,0.05709839,-0.8113251,-0.8372955,-57.7728,26.61864,-7.787659,82.20345,68.50842,25,0.384023,-0.001108674,-0.2794341,-0.3022836,0.05819058,0.8580835,0.3564043,-0.04001066,-0.2921105,-0.08562086,-0.07803444,-0.2133528,0.0.0.0,10.62.21.216,1,automotive,1,2014-11-07 12:16:16.212,0,2014-11-07 12:10:07.860,0
2014-11-07 12:16:17.649,56,1.866667,37.45051,-122.1571,12.55768,6.56,37.5319,3,10,1415391377,0.08349609,-0.8065338,-0.8028564,-57.36216,25.87093,-7.457184,82.76115,69.06612,25,0.321034,0.03529674,-0.290214,-0.3074482,0.06161349,0.8615693,0.3353894,-0.04238211,-0.2958311,-0.07399001,-0.05563338,-0.2188086,0.0.0.0,10.62.21.216,1,automotive,1,2014-11-07 12:16:16.212,0,2014-11-07 12:10:07.860,0
2014-11-07 12:16:17.745,57,1.9,37.45051,-122.1571,12.55768,6.56,37.5319,3,10,1415391377,0.05311584,-0.6391907,-0.654068,-57.67015,24.2056,-8.217316,84.2205,70.52547,25,0.3531005,0.1941064,-0.03391083,-0.3443795,0.09869753,0.8740999,0.2532578,0.2235506,-0.1617601,-0.01090781,0.09887537,-0.04696697,0.0.0.0,10.62.21.216,1,automotive,1,2014-11-07 12:16:16.212,0,2014-11-07 12:10:07.860,0
2014-11-07 12:16:17.845,58,1.933333,37.45051,-122.1571,12.55768,6.56,37.5319,3,10,1415391377,0.037323,-0.6823273,-0.463028,-56.67774,24.85135,-9.506226,83.23045,69.53542,25,-0.05619483,0.07626654,0.306042,-0.3318809,0.09825175,0.8880608,-0.07989889,0.04838047,0.2577515,-0.01327458,0.133058,0.1413485,0.0.0.0,10.62.21.216,1,automotive,1,2014-11-07 12:16:16.212,0,2014-11-07 12:10:07.860,0
2014-11-07 12:16:17.945,59,1.966667,37.45051,-122.1571,12.55768,6.56,37.5319,3,10,1415391377,-0.03164673,-0.8763733,-0.6435242,-57.56748,26.82258,-8.845276,82.0528,68.35777,25,-0.4568157,-0.1409731,-0.1946912,-0.2924775,0.05269668,0.8685169,-0.5158888,-0.2340653,-0.1327354,-0.03013317,-0.1161601,0.04591109,0.0.0.0,10.62.21.216,1,automotive,1,2014-11-07 12:16:16.212,0,2014-11-07 12:10:07.860,0
2014-11-07 12:16:18.043,60,2,37.45051,-122.1571,12.55768,6.56,37.5319,3,10,1415391377,0.09849548,-0.719574,-0.8796234,-58.35456,26.38074,-8.217346,82.82899,69.13396,25,0.359466,0.151993,-0.2768649,-0.3392295,0.08620078,0.8591747,0.3381518,0.07937153,-0.3156937,0.0332222,-0.02374775,-0.2779968,0.0.0.0,10.62.21.216,1,automotive,1,2014-11-07 12:16:16.212,0,2014-11-07 12:10:07.860,0
2014-11-07 12:16:18.144,61,2.033334,37.45051,-122.1571,12.55768,6.56,37.5319,3,10,1415391377,0.1287842,-0.6470184,-0.5605621,-57.46482,24.88536,-8.878296,83.80593,70.1109,25,0.3078912,0.101149,0.2595655,-0.3600142,0.1181035,0.8787664,0.2955033,0.1066813,0.1906358,0.04209213,0.1355376,0.04452982,0.0.0.0,10.62.21.216,1,automotive,1,2014-11-07 12:16:16.212,0,2014-11-07 12:10:07.860,0
2014-11-07 12:16:18.241,62,2.066667,37.45056,-122.157,12.59799,7.09,37.5319,4,10,1415391378,0.04620361,-0.7699127,-0.4954834,-57.29371,25.59908,-9.968903,82.65933,68.9643,25,-0.3442887,-0.1091297,0.4360961,-0.3135245,0.07680771,0.8735151,-0.3705892,-0.08960498,0.420236,0.004194283,0.005940173,0.1870567,0.0.0.0,10.62.21.216,1,automotive,1,2014-11-07 12:16:16.212,0,2014-11-07 12:10:07.860,0
2014-11-07 12:16:18.340,63,2.1,37.45056,-122.157,12.59799,7.09,37.5319,4,10,1415391378,-0.04989624,-0.9042816,-0.8365784,-57.97813,27.70624,-8.382568,81.26772,67.57269,25,-0.003017362,0.09909276,-0.09271716,-0.2807941,0.03759212,0.8409197,-0.3145061,-0.08816668,-0.03901136,-0.1288652,-0.07684112,-0.05364882,0.0.0.0,10.62.21.216,1,automotive,1,2014-11-07 12:16:16.212,0,2014-11-07 12:10:07.860,0
2014-11-07 12:16:18.440,64,2.133333,37.45056,-122.157,12.59799,7.09,37.5319,4,10,1415391378,0.006530762,-0.6942902,-0.6186371,-57.87547,27.06049,-9.274872,81.50835,67.81332,25,0.3276477,0.1192153,-0.138013,-0.3150662,0.06951834,0.8637248,0.3078625,0.07757746,-0.2060894,-0.06923234,0.0363753,-0.07789586,0.0.0.0,10.62.21.216,1,automotive,2,2014-11-07 12:16:18.419,0,2014-11-07 12:10:07.860,0
2014-11-07 12:16:18.544,65,2.166667,37.45056,-122.157,12.59799,7.09,37.5319,4,10,1415391378,0.08384705,-0.7759705,-0.5506134,-56.98573,26.7886,-9.605377,81.66336,67.96833,25,-0.008339423,0.0367929,0.1591716,-0.3173335,0.07049993,0.884216,-0.04225681,-0.03923178,0.1695967,0.03866037,0.05483607,0.0700198,0.0.0.0,10.62.21.216,1,automotive,2,2014-11-07 12:16:18.419,0,2014-11-07 12:10:07.860,0
2014-11-07 12:16:18.640,66,2.2,37.45056,-122.157,12.59799,7.09,37.5319,4,10,1415391378,-0.03967285,-0.7615967,-0.5758057,-57.70436,26.34677,-9.968933,81.63892,67.94389,25,-0.04820907,-0.0047098,-0.008674182,-0.3075921,0.05986557,0.8819986,-0.08437859,-0.05224861,-0.02631356,-0.08537643,-0.006309573,0.04880801,0.0.0.0,10.62.21.216,1,automotive,2,2014-11-07 12:16:18.419,0,2014-11-07 12:10:07.860,0
2014-11-07 12:16:18.740,67,2.233333,37.45056,-122.157,12.59799,7.09,37.5319,4,10,1415391378,-0.02000427,-0.6685333,-0.6700745,-58.04658,26.41473,-9.704529,81.76116,68.06613,25,0.05660389,-0.05028368,0.2446225,-0.2944582,0.04134376,0.8786992,0.06472747,-0.07925731,0.2739646,-0.02549112,0.03962381,0.03081155,0.0.0.0,10.62.21.216,1,automotive,2,2014-11-07 12:16:18.419,0,2014-11-07 12:10:07.860,0
2014-11-07 12:16:18.840,68,2.266667,37.45056,-122.157,12.59799,7.09,37.5319,4,10,1415391378,-0.08335876,-0.743042,-0.7566528,-57.63593,27.16245,-9.506165,80.81294,67.11791,25,0.1725009,0.2026679,-0.04004142,-0.2716881,0.02922533,0.8636781,0.1029363,0.1453277,-0.06883891,-0.08903651,0.02964635,-0.1158906,0.0.0.0,10.62.21.216,1,automotive,2,2014-11-07 12:16:18.419,0,2014-11-07 12:10:07.860,0
2014-11-07 12:16:18.944,69,2.3,37.45056,-122.157,12.59799,7.09,37.5319,4,10,1415391378,-0.02278137,-0.7311401,-0.5432587,-56.6093,27.70623,-10.69595,79.734,66.03897,25,-0.01846476,-0.0422673,-0.02500415,-0.2682732,0.03038816,0.8740836,-0.0333523,-0.06032933,-0.0866616,-0.08211915,0.0649599,0.04965263,0.0.0.0,10.62.21.216,1,automotive,2,2014-11-07 12:16:18.419,0,2014-11-07 12:10:07.860,0
2014-11-07 12:16:19.044,70,2.333333,37.45056,-122.157,12.59799,7.09,37.5319,4,10,1415391378,0.007736206,-0.7682037,-0.6445465,-56.16442,28.21603,-10.86118,79.00365,65.30862,25,0.05755251,-0.04971669,0.08823985,-0.2579281,0.01878163,0.8717259,-0.02340328,-0.08940804,0.1039459,0.02714495,0.03327818,-0.008081008,0.0.0.0,10.62.21.216,1,automotive,2,2014-11-07 12:16:18.419,0,2014-11-07 12:10:07.860,0
2014-11-07 12:16:19.142,71,2.366667,37.45056,-122.157,12.59799,7.09,37.5319,4,10,1415391378,0.03033447,-0.7535248,-0.5446014,-54.89825,27.7742,-11.15869,78.76357,65.06853,25,-0.1893689,-0.1290861,-0.2228368,-0.2789913,0.02303515,0.8773099,-0.2106287,-0.1942646,-0.26027,-0.002653577,0.002023781,0.09686209,0.0.0.0,10.62.21.216,1,automotive,2,2014-11-07 12:16:18.419,0,2014-11-07 12:10:07.860,0
2014-11-07 12:16:19.242,72,2.4,37.4506,-122.1569,12.83841,7.09,37.40536,4,10,1415391379,0.07965088,-0.6958771,-0.7411499,-55.99332,27.97811,-10.76202,79.30056,65.60553,25,-0.1676716,0.05962285,0.3218739,-0.2901553,0.02482904,0.8501486,-0.2096398,-0.02308937,0.2227056,0.03267471,0.09084071,-0.0926817,0.0.0.0,10.62.21.216,1,automotive,2,2014-11-07 12:16:18.419,0,2014-11-07 12:10:07.860,0
2014-11-07 12:16:19.346,73,2.433333,37.4506,-122.1569,12.83841,7.09,37.40536,4,10,1415391379,-0.1159821,-0.8098602,-0.7627869,-55.27468,28.96371,-11.52219,76.74928,63.05424,25,0.05903323,-0.004217648,0.2622673,-0.2291616,-0.01694806,0.8268601,-0.1722412,-0.05118405,0.3850351,-0.06289484,0.0173028,-0.09513981,0.0.0.0,10.62.21.216,1,automotive,2,2014-11-07 12:16:18.419,0,2014-11-07 12:10:07.860,0
2014-11-07 12:16:19.445,74,2.466667,37.4506,-122.1569,12.83841,7.09,37.40536,4,10,1415391379,-0.1681366,-0.7870941,-0.7200012,-54.6587,29.57547,-11.19171,75.88922,62.19419,25,0.2491318,0.08350581,-0.4609748,-0.2345607,-0.01526713,0.8365153,0.1806614,0.06363101,-0.4512078,-0.2003572,-0.03973077,-0.1274488,0.0.0.0,10.62.21.216,1,automotive,2,2014-11-07 12:16:18.419,0,2014-11-07 12:10:07.860,0
2014-11-07 12:16:19.544,75,2.5,37.4506,-122.1569,12.83841,7.09,37.40536,4,10,1415391379,0.1883087,-0.6875763,-0.8293915,-56.33553,26.41473,-10.89426,79.20677,65.51174,25,-0.1573289,0.3077895,0.5075346,-0.2893054,0.02162458,0.8400615,-0.2386177,0.1123196,0.1438735,0.1436496,0.06965061,-0.08038917,0.0.0.0,10.62.21.216,1,automotive,2,2014-11-07 12:16:18.419,0,2014-11-07 12:10:07.860,0
2014-11-07 12:16:19.643,76,2.533334,37.4506,-122.1569,12.83841,7.09,37.40536,4,10,1415391379,-0.1449127,-0.7755585,-0.7345734,-55.99332,29.13364,-11.95184,76.37047,62.67544,25,-0.0524467,-0.1033693,0.4645477,-0.1908267,-0.04665807,0.826322,-0.1315064,-0.1861587,0.574735,-0.03437565,-0.007262099,-0.06169277,0.0.0.0,10.62.21.216,1,automotive,2,2014-11-07 12:16:18.419,0,2014-11-07 12:10:07.860,0
2014-11-07 12:16:19.725,77,2.566667,37.4506,-122.1569,12.83841,7.09,37.40536,4,10,1415391379,-0.1455536,-0.8058014,-0.836792,-55.92488,30.15323,-11.35693,75.42205,61.72702,25,0.1868527,0.01287851,-0.204249,-0.1757729,-0.06728186,0.8308643,0.161302,-0.05428008,-0.140703,-0.1270946,-0.08628424,-0.1668721,0.0.0.0,10.62.21.216,1,automotive,2,2014-11-07 12:16:18.419,0,2014-11-07 12:10:07.860,0
2014-11-07 12:16:19.779,78,2.6,37.4506,-122.1569,12.83841,7.09,37.40536,4,10,1415391379,0.01507568,-0.775238,-0.8366547,-55.00092,30.05127,-10.99341,75.54718,61.85215,25,0.4127202,0.2383766,-0.06182821,-0.1917655,-0.05175453,0.8418591,0.3015291,0.1660876,-0.1596637,-0.007290918,-0.06632737,-0.168448,0.0.0.0,10.62.21.216,1,automotive,2,2014-11-07 12:16:18.419,0,2014-11-07 12:10:07.860,0
2014-11-07 12:16:19.878,79,2.633333,37.4506,-122.1569,12.83841,7.09,37.40536,4,10,1415391379,-0.009872437,-0.7398987,-0.6025848,-55.27468,29.03168,-11.91879,76.2251,62.53006,25,0.3054209,0.1335202,0.2660061,-0.1809326,-0.04135386,0.8844425,0.3526053,0.158565,0.1900022,-0.03330994,0.1024192,-0.05946316,0.0.0.0,10.62.21.216,1,automotive,2,2014-11-07 12:16:18.419,0,2014-11-07 12:10:07.860,0
2014-11-07 12:16:19.982,80,2.666667,37.4506,-122.1569,12.83841,7.09,37.40536,4,10,1415391379,0.04196167,-0.8338623,-0.5908356,-54.3165,30.05127,-13.76953,73.932,60.23697,25,-2.187787,1.186207,0.2967417,-0.1184997,-0.057388,0.8509519,-1.597455,0.8092746,0.3441762,0.07847796,-0.08929349,0.07874515,0.0.0.0,10.62.21.216,1,automotive,2,2014-11-07 12:16:18.419,0,2014-11-07 12:10:07.860,0
2014-11-07 12:16:20.079,81,2.7,37.4506,-122.1569,12.83841,7.09,37.40536,4,10,1415391379,0.1259003,-0.6388397,-0.8393555,-53.87163,34.29957,-14.72794,70.23553,56.5405,25,-0.4186755,-0.3882202,0.1947335,-0.08915998,0.005389715,0.6756181,-1.239984,-0.00346248,0.3876238,0.07010462,-0.06077749,0.1649528,0.0.0.0,10.62.21.216,1,automotive,2,2014-11-07 12:16:18.419,0,2014-11-07 12:10:07.860,0
2014-11-07 12:16:20.180,82,2.733334,37.4506,-122.1569,13.02078,7.14,37.40536,4,10,1415391380,-0.09503174,-0.4803925,-0.9396057,-56.06176,35.18322,-13.27377,70.47363,56.77859,25,1.354141,-0.5663952,-0.2102518,-0.1130292,-0.04270605,0.7176114,1.275912,-0.5688503,-0.2163533,-0.05479579,0.1252689,-0.2230621,0.0.0.0,10.62.21.216,1,automotive,2,2014-11-07 12:16:18.419,0,2014-11-07 12:10:07.860,0
2014-11-07 12:16:20.279,83,2.766667,37.45064,-122.1569,13.02078,7.14,37.40536,4,10,1415391380,0.0009002686,-0.6182098,-0.6358795,-56.84884,31.88653,-11.52222,73.88653,60.19149,25,0.3975604,-0.4142001,0.2538331,-0.1308107,-0.09209781,0.8184546,0.5090148,-0.5786538,0.150311,0.01581855,0.1588932,0.001178716,0.0.0.0,10.62.21.216,1,automotive,2,2014-11-07 12:16:18.419,0,2014-11-07 12:10:07.860,0
2014-11-07 12:16:20.380,84,2.8,37.45064,-122.1569,13.02078,7.14,37.40536,4,10,1415391380,-0.2010803,-0.7800293,-0.5451355,-56.71196,30.93491,-11.85269,73.82944,60.13441,25,0.2916502,-0.01115811,-0.1477873,-0.08679536,-0.1373657,0.8579196,0.411582,-0.09990824,0.01167698,0.006762432,-0.0466628,-0.0119838,0.0.0.0,10.62.21.216,1,automotive,2,2014-11-07 12:16:18.419,0,2014-11-07 12:10:07.860,0
2014-11-07 12:16:20.479,85,2.833333,37.45064,-122.1569,13.02078,7.14,37.40536,4,10,1415391380,-0.08357239,-0.7074127,-0.5221863,-55.58267,30.35715,-13.07547,73.34772,59.65268,25,-0.5012634,0.3561893,-0.3048579,-0.103853,-0.1255282,0.8853741,-0.2961842,0.2574945,-0.3042803,-0.009814697,0.0377322,0.09039108,0.0.0.0,10.62.21.216,1,automotive,2,2014-11-07 12:16:18.419,0,2014-11-07 12:10:07.860,0
2014-11-07 12:16:20.573,86,2.866667,37.45064,-122.1569,13.02078,7.14,37.40536,4,10,1415391380,0.1148682,-0.6651764,-0.5072937,-55.75378,30.45911,-13.76947,73.36459,59.66956,25,-0.2047811,-0.3753837,0.02004508,-0.1286649,-0.07244212,0.814135,-0.3668795,-0.2840686,0.01234111,0.1376243,0.1061756,0.1897478,0.0.0.0,10.62.21.216,1,automotive,2,2014-11-07 12:16:18.419,0,2014-11-07 12:10:07.860,0
2014-11-07 12:16:20.679,87,2.9,37.45064,-122.1569,13.02078,7.14,37.40536,4,10,1415391380,-0.09405518,-0.5683899,-0.7972717,-56.81462,31.78457,-11.95181,73.64365,59.94862,25,-0.09543864,-0.06612496,-0.1914736,-0.1420218,-0.1024366,0.7847922,-0.2147262,-0.192525,-0.1653668,-0.02867766,0.1223886,0.01100092,0.0.0.0,10.62.21.216,1,automotive,2,2014-11-07 12:16:18.419,0,2014-11-07 12:10:07.860,0
2014-11-07 12:16:20.779,88,2.933333,37.45064,-122.1569,13.02078,7.14,37.40536,4,10,1415391380,-0.02445984,-0.5987091,-0.7175751,-57.7728,30.62904,-10.03497,75.52718,61.83215,25,0.3698087,0.03425571,-0.1719955,-0.189025,-0.07040209,0.8023268,0.3576638,-0.02736925,-0.2524225,0.004488478,0.1020166,-0.02096523,0.0.0.0,10.62.21.216,1,automotive,2,2014-11-07 12:16:18.419,0,2014-11-07 12:10:07.860,0
2014-11-07 12:16:20.880,89,2.966667,37.45064,-122.1569,13.02078,7.14,37.40536,4,10,1415391380,0.004302979,-0.7011261,-0.6592102,-58.32034,29.54147,-11.22476,76.30979,62.61476,25,-0.1931767,-0.05007888,0.2186975,-0.2018781,-0.05567633,0.793308,-0.352356,-0.05367435,0.1140933,0.04790166,0.03399729,0.046535,0.0.0.0,10.62.21.216,1,automotive,2,2014-11-07 12:16:18.419,0,2014-11-07 12:10:07.860,0
2014-11-07 12:16:20.982,90,3,37.45064,-122.1569,13.02078,7.14,37.40536,4,10,1415391380,-0.157608,-0.745697,-0.9202881,-58.66255,28.9977,-10.82816,76.54401,62.84898,25,0.3326704,0.2389793,-0.3278272,-0.2048891,-0.053897,0.7927704,0.28523,0.1444577,-0.3100742,-0.06074589,-0.1827648,-0.2149618,0.0.0.0,10.62.21.216,1,automotive,2,2014-11-07 12:16:18.419,0,2014-11-07 12:10:07.860,0
2014-11-07 12:16:21.080,91,3.033334,37.45064,-122.1569,13.02078,7.14,37.40536,4,10,1415391380,0.02624512,-0.6066284,-0.5548096,-59.21008,26.14284,-10.82812,79.00478,65.30975,25,0.516535,-0.00699932,-0.3003838,-0.2650454,0.005753461,0.839422,0.5517434,0.03292255,-0.4156494,-0.03590139,0.1213324,0.03470334,0.0.0.0,10.62.21.216,1,automotive,2,2014-11-07 12:16:18.419,0,2014-11-07 12:10:07.860,0
2014-11-07 12:16:21.179,92,3.066667,37.45071,-122.1568,13.07004,8.22,37.40536,4,10,1415391381,0.02610779,-0.6321259,-0.552948,-58.45722,24.2396,-9.373962,81.39481,67.69978,25,-0.388576,0.1281713,0.03796256,-0.2784641,0.01253061,0.8379687,-0.593987,-0.005475787,-0.01978466,0.04360426,0.1835171,0.2105933,0.0.0.0,10.62.21.216,1,automotive,2,2014-11-07 12:16:18.419,0,2014-11-07 12:10:07.860,0
2014-11-07 12:16:21.279,93,3.1,37.45071,-122.1568,13.07004,8.22,37.40536,4,10,1415391381,0.03233337,-0.7917633,-0.8157806,-57.70437,24.37555,-7.25885,81.96497,68.26994,25,0.6098085,-0.1414559,-0.2042586,-0.2875277,0.009390769,0.8518042,0.5994771,-0.2511343,-0.1878583,0.0480143,-0.03378495,-0.2312492,0.0.0.0,10.62.21.216,1,automotive,2,2014-11-07 12:16:18.419,0,2014-11-07 12:10:07.860,0
2014-11-07 12:16:21.380,94,3.133333,37.45071,-122.1568,13.07004,8.22,37.40536,4,10,1415391381,0.1433716,-0.8344727,-0.6127625,-58.86787,23.62783,-6.267334,84.12018,70.42515,25,0.3722007,-0.2332836,-0.2174431,-0.3441238,0.0299195,0.9010687,0.3055274,-0.2720138,-0.2756104,0.07086133,-0.01366244,-0.03628939,0.0.0.0,10.62.21.216,1,automotive,2,2014-11-07 12:16:18.419,0,2014-11-07 12:10:07.860,0
2014-11-07 12:16:21.480,95,3.166667,37.45071,-122.1568,13.07004,8.22,37.40536,4,10,1415391381,0.05172729,-0.7184601,-0.4475098,-57.63592,23.4239,-5.606384,85.43648,71.74145,25,-0.0378041,-0.1855962,-0.1321684,-0.3933786,0.05056674,0.9227892,-0.06155448,-0.3002211,-0.1442218,0.01694582,0.07977425,0.1344129,0.0.0.0,10.62.21.216,1,automotive,2,2014-11-07 12:16:18.419,0,2014-11-07 12:10:07.860,0
2014-11-07 12:16:21.580,96,3.2,37.45071,-122.1568,13.07004,8.22,37.40536,4,10,1415391381,0.05541992,-0.6616211,-0.5343933,-57.49904,23.28796,-4.614929,86.28766,72.59263,25,-0.1527967,-0.1355184,0.07019001,-0.4023592,0.04633635,0.9145485,-0.1934258,-0.1321162,0.01114416,0.008359158,0.1778615,0.06380869,0.0.0.0,10.62.21.216,1,automotive,2,2014-11-07 12:16:18.419,0,2014-11-07 12:10:07.860,0
2014-11-07 12:16:21.681,97,3.233334,37.45071,-122.1568,13.07004,8.22,37.40536,4,10,1415391381,0.07414246,-0.7288971,-0.7194366,-57.39637,21.48668,-2.466766,88.10995,74.41492,25,0.1137894,-0.6411268,0.273929,-0.3881609,-0.02542781,0.9287322,0.213741,-0.97679,0.2181004,0.08149472,0.07789993,-0.1085887,0.0.0.0,10.62.21.216,1,automotive,2,2014-11-07 12:16:18.419,0,2014-11-07 12:10:07.860,0
2014-11-07 12:16:21.782,98,3.266667,37.45071,-122.1568,13.07004,8.22,37.40536,4,10,1415391381,0.0539093,-0.9408875,-0.8861694,-59.27852,22.26837,0.606781,89.69579,76.00076,25,-0.2325233,0.5271043,0.5094401,-0.3284641,-0.06397597,0.8936537,-0.2405245,0.3752748,0.5389137,0.08990847,-0.1316293,-0.3034546,0.0.0.0,10.62.21.216,1,automotive,2,2014-11-07 12:16:18.419,0,2014-11-07 12:10:07.860,0
2014-11-07 12:16:21.879,99,3.3,37.45071,-122.1568,13.07004,8.22,37.40536,4,10,1415391381,-0.1546478,-0.8309937,-0.7939758,-58.9021,25.15721,-2.268433,85.80766,72.11263,25,0.7605674,0.2145626,0.1104527,-0.2863134,-0.04720172,0.8839636,0.5944828,0.3074507,0.1457271,-0.08821446,-0.1462211,-0.1628491,0.0.0.0,10.62.21.216,1,automotive,2,2014-11-07 12:16:18.419,0,2014-11-07 12:10:07.860,0
2014-11-07 12:16:21.979,100,3.333333,37.45071,-122.1568,13.07004,8.22,37.40536,4,10,1415391381,-0.105896,-0.7976837,-0.3823242,-58.55989,26.10883,-4.119202,84.50225,70.80722,25,-0.3789194,0.272284,0.313833,-0.271489,-0.05077314,0.8882208,-0.6646455,0.1590545,0.241365,-0.1559442,0.02399754,0.2886874,0.0.0.0,10.62.21.216,1,automotive,2,2014-11-07 12:16:18.419,0,2014-11-07 12:10:07.860,0
2014-11-07 12:16:22.080,101,3.366667,37.45071,-122.1568,13.07004,8.22,37.40536,4,10,1415391381,-0.06910706,-0.8691406,-0.5575256,-58.62833,26.99249,-3.392151,83.69019,69.99516,25,-0.3127771,-0.4196346,0.2720645,-0.2182624,-0.08928537,0.8884979,-0.1337617,-0.4532793,0.300176,-0.04670913,-0.02085639,-0.05352806,0.0.0.0,10.62.21.216,1,automotive,2,2014-11-07 12:16:18.419,0,2014-11-07 12:10:07.860,0
2014-11-07 12:16:22.176,102,3.4,37.45071,-122.1568,13.07004,8.22,37.40536,4,10,1415391381,-0.1765594,-0.8344574,-0.7868805,-58.79943,30.01727,-1.243958,82.90968,69.21465,25,0.3290719,0.135622,-0.3693719,-0.218375,-0.09423845,0.8610475,-0.000748001,0.2310782,-0.2614524,-0.1841491,-0.04219464,-0.05734864,0.0.0.0,10.62.21.216,1,automotive,2,2014-11-07 12:16:18.419,0,2014-11-07 12:10:07.860,0
2014-11-07 12:16:22.250,103,3.433333,37.45078,-122.1567,13.11139,8.67,38.52481,4,10,1415391382,-0.08279419,-0.6614227,-0.5514221,-59.21008,29.9493,-1.640564,83.31579,69.62076,25,0.2788383,0.1197735,-0.6589039,-0.2779761,-0.0470647,0.891494,0.3890622,-0.04197538,-0.7390653,-0.09277221,0.03866186,-0.0169613,0.0.0.0,10.62.21.216,1,automotive,2,2014-11-07 12:16:18.419,0,2014-11-07 12:10:07.860,0
2014-11-07 12:16:22.340,104,3.466667,37.45078,-122.1567,13.11139,8.67,38.52481,4,10,1415391382,0.1454163,-0.6183777,-0.6026611,-61.94775,28.99768,-2.235443,85.49899,71.80396,25,-0.5239865,-0.09001112,0.2835217,-0.3359333,0.004862548,0.8863747,-0.477748,-0.09472962,0.1899775,0.2199177,0.08993988,0.08125316,0.0.0.0,10.62.21.216,1,automotive,2,2014-11-07 12:16:18.419,0,2014-11-07 12:10:07.860,0
2014-11-07 12:16:22.440,105,3.5,37.45078,-122.1567,13.11139,8.67,38.52481,4,10,1415391382,-0.302536,-0.7437592,-0.933197,-62.11884,30.86693,-2.334625,82.67915,68.98412,25,0.3430929,0.4344484,0.03715536,-0.2471193,-0.08523651,0.8342168,0.2716767,0.2008062,0.3196096,0.06477262,0.03981239,-0.248619,0.0.0.0,10.62.21.216,1,automotive,2,2014-11-07 12:16:18.419,0,2014-11-07 12:10:07.860,0
2014-11-07 12:16:22.544,106,3.533334,37.45078,-122.1567,13.11139,8.67,38.52481,4,10,1415391382,0.1347046,-0.609787,-0.4756012,-62.63216,31.51267,-6.5979,80.60553,66.9105,25,-0.7324284,1.536231,0.532943,-0.223544,-0.02721477,0.8421735,-0.5261419,1.358089,0.5339691,0.05211511,0.1227858,0.08042161,0.0.0.0,10.62.21.216,1,automotive,2,2014-11-07 12:16:18.419,0,2014-11-07 12:10:07.860,0
2014-11-07 12:16:22.646,107,3.566667,37.45078,-122.1567,13.11139,8.67,38.52481,4,10,1415391382,-0.09979248,-0.528244,-0.6954651,-59.86027,34.19761,-16.01685,74.4646,60.76957,25,-1.685544,2.022264,1.724024,-0.1080652,0.05783765,0.7881069,-1.040604,1.514848,1.546187,0.3425981,-0.1376906,-0.01670875,0.0.0.0,10.62.21.216,1,automotive,2,2014-11-07 12:16:18.419,0,2014-11-07 12:10:07.860,0
2014-11-07 12:16:22.745,108,3.6,37.45078,-122.1567,13.11139,8.67,38.52481,4,10,1415391382,-0.03042603,-0.579895,-1.110382,-44.52934,53.90975,-29.30249,53.37267,39.67764,25,0.4822947,2.566472,1.017638,0.197949,0.2041652,0.6104764,0.4597975,2.391291,0.7957458,-0.2366847,0.001770435,-0.09051096,0.0.0.0,10.62.21.216,1,automotive,2,2014-11-07 12:16:18.419,0,2014-11-07 12:10:07.860,0
2014-11-07 12:16:22.844,109,3.633333,37.45078,-122.1567,13.11139,8.67,38.52481,4,10,1415391382,0.2875977,-0.6989288,-0.4796295,-26.59761,64.78542,-36.2428,38.54948,24.85445,25,-3.259277,-1.567019,2.134155,0.4847814,0.1607086,0.5597362,-3.454743,-1.917013,2.64829,0.03890127,-0.02639513,-0.01285891,0.0.0.0,10.62.21.216,1,automotive,2,2014-11-07 12:16:18.419,0,2014-11-07 12:10:07.860,0
2014-11-07 12:16:22.945,110,3.666667,37.45078,-122.1567,13.11139,8.67,38.52481,4,10,1415391382,0.02354431,-0.6278534,-0.9458466,-15.68116,80.04533,-22.65973,27.03547,13.34044,25,-0.18396,-2.165606,2.722033,0.7253283,-0.06968605,0.4066818,-0.5196495,-1.771703,2.242765,0.20543,-0.09480778,-0.2856034,0.0.0.0,10.62.21.216,1,automotive,2,2014-11-07 12:16:18.419,0,2014-11-07 12:10:07.860,0
2014-11-07 12:16:23.047,111,3.7,37.45078,-122.1567,13.11139,8.67,38.52481,4,10,1415391382,-0.4966431,-0.1268616,-0.9362946,-3.087893,85.61911,-16.90921,17.47521,3.780174,25,-0.581131,-0.1519507,1.124009,0.9139909,-0.3309915,0.3344238,-0.6795608,-1.152218,1.203934,0.09339954,0.1334771,-0.06584022,0.0.0.0,10.62.21.216,1,automotive,2,2014-11-07 12:16:18.419,0,2014-11-07 12:10:07.860,0
2014-11-07 12:16:23.141,112,3.733334,37.45078,-122.1567,13.11139,8.67,38.52481,4,10,1415391382,-0.5510406,-0.05754089,-0.923172,5.433093,88.98376,-12.5137,12.48382,358.7888,25,-0.6531813,1.484069,1.532404,0.995859,-0.2329004,0.2345717,-0.8856276,2.192688,1.239425,-0.3095472,0.1968888,0.1050153,0.0.0.0,10.62.21.216,1,automotive,2,2014-11-07 12:16:18.419,0,2014-11-07 12:10:07.860,0
2014-11-07 12:16:23.246,113,3.766667,37.45086,-122.1567,13.40179,8.88,38.52481,4,10,1415391383,-0.2651978,0.08258057,-0.9596252,28.66904,85.48316,-5.342041,356.7023,343.0073,25,-0.1378788,2.745014,0.2863551,1.285037,-0.2938502,0.06222758,-0.9489006,1.823939,0.9825014,-0.1333301,-0.2860334,0.4169684,0.0.0.0,10.62.21.216,1,automotive,2,2014-11-07 12:16:18.419,0,2014-11-07 12:10:07.860,0
2014-11-07 12:16:23.344,114,3.8,37.45086,-122.1567,13.40179,8.88,38.52481,4,10,1415391383,-0.1424561,0.1185303,-0.8624268,35.54743,84.08972,2.226166,351.6194,337.9244,25,0.112224,-0.1110658,0.6492347,1.32453,-0.07293889,0.08612374,-0.06967857,1.203034,0.1227237,0.09709449,-0.01510268,-0.01555641,0.0.0.0,10.62.21.216,1,automotive,2,2014-11-07 12:16:18.419,0,2014-11-07 12:10:07.860,0
2014-11-07 12:16:23.440,115,3.833333,37.45086,-122.1567,13.40179,8.88,38.52481,4,10,1415391383,0.03236389,-0.09172058,-1.002762,39.00373,81.74465,3.845551,348.7984,335.1034,25,-0.06087933,-0.1139425,0.01622265,1.374235,-0.07545923,0.08727587,-0.08546437,-0.1593754,0.1809463,0.07655029,0.04010701,0.1182064,0.0.0.0,10.62.21.216,1,automotive,2,2014-11-07 12:16:18.419,0,2014-11-07 12:10:07.860,0
2014-11-07 12:16:23.540,116,3.866667,37.45086,-122.1567,13.40179,8.88,38.52481,4,10,1415391383,-0.003997803,-0.02934265,-1.030518,39.14062,81.67667,4.770935,348.6931,334.998,25,-0.07943251,-0.4573329,-0.06068172,1.364906,-0.1084955,0.06649423,-0.201924,-0.5303095,-0.08216224,0.08967187,0.04842461,-0.08432496,0.0.0.0,10.62.21.216,1,automotive,2,2014-11-07 12:16:23.464,0,2014-11-07 12:10:07.860,0
2014-11-07 12:16:23.640,117,3.9,37.45086,-122.1567,13.40179,8.88,38.52481,4,10,1415391383,-0.09228516,-0.01989746,-1.160156,38.14822,82.32242,5.068359,349.3432,335.6481,25,0.2786636,0.2606739,0.01344683,1.356327,-0.1074028,0.06017217,0.226369,0.02065348,-0.0008272844,0.04286976,0.03482154,-0.03759081,0.0.0.0,10.62.21.216,1,automotive,2,2014-11-07 12:16:23.464,0,2014-11-07 12:10:07.860,0
2014-11-07 12:16:23.744,118,3.933334,37.45086,-122.1567,13.40179,8.88,38.52481,4,10,1415391383,0.007553101,-0.04159546,-0.967926,38.04556,82.76424,5.828461,349.4053,335.7102,25,-0.02750939,-0.1244495,0.2242462,1.359182,-0.08676016,0.06613525,-0.09627508,-0.03767167,0.1365038,0.01881971,0.02655153,-0.03346607,0.0.0.0,10.62.21.216,5,automotive,2,2014-11-07 12:16:23.464,0,2014-11-07 12:10:07.860,0
2014-11-07 12:16:23.840,119,3.966667,37.45086,-122.1567,13.40179,8.88,38.52481,4,10,1415391383,0.02593994,-0.06237793,-0.9763641,39.31172,83.68188,6.45639,348.9446,335.2495,25,-0.0823785,-0.1168443,-0.1118743,1.358939,-0.08432928,0.06524897,-0.1122104,-0.1605247,-0.1231743,0.05069441,-0.03509333,0.03506696,0.0.0.0,10.62.21.216,5,automotive,2,2014-11-07 12:16:23.464,0,2014-11-07 12:10:07.860,0
2014-11-07 12:16:23.873,120,4,37.45086,-122.1567,13.40179,8.88,38.52481,4,10,1415391383,-0.02073669,-0.03796387,-0.9824677,38.90107,83.95377,6.985199,349.2094,335.5143,25,-0.01892016,-0.1004369,0.03728639,1.352381,-0.08605494,0.05920725,-0.08079547,-0.2149527,-0.01404803,0.0750102,0.008498221,0.03723264,0.0.0.0,10.62.21.216,5,automotive,2,2014-11-07 12:16:23.464,0,2014-11-07 12:10:07.860,0
2014-11-07 12:16:23.979,121,4.033334,37.45086,-122.1567,13.40179,8.88,38.52481,4,10,1415391383,-0.07310486,-0.0269928,-1.024048,39.65393,84.29363,7.514008,349.0446,335.3496,25,0.2216629,0.3170954,0.03978629,1.354482,-0.07111996,0.05359777,0.1881407,0.3156976,0.02641139,-0.005473298,0.03161472,-0.007347796,0.0.0.0,10.62.21.216,5,automotive,2,2014-11-07 12:16:23.464,0,2014-11-07 12:10:07.860,0
2014-11-07 12:16:24.079,122,4.066667,37.45086,-122.1567,13.40179,8.88,38.52481,4,10,1415391383,-0.02220154,-0.09440613,-1.033325,40.81744,83.61391,8.241028,348.1514,334.4564,25,0.04610837,0.1040239,-0.03109054,1.36535,-0.06402423,0.05500814,0.01669468,-0.1146011,0.04598285,0.07528204,-0.01467597,0.1202362,0.0.0.0,10.62.21.216,5,automotive,2,2014-11-07 12:16:23.464,0,2014-11-07 12:10:07.860,0
2014-11-07 12:16:24.171,123,4.1,37.45093,-122.1566,13.30347,9.1,38.52481,4,10,1415391384,-0.06567383,0.01124573,-1.04715,41.53608,83.17209,8.538483,347.6443,333.9492,25,0.1458027,0.05897038,0.04611903,1.362673,-0.06505173,0.05465547,0.06156367,-0.02798692,0.009813134,0.04705601,0.02028072,-0.02518113,0.0.0.0,10.62.21.216,5,automotive,2,2014-11-07 12:16:23.464,0,2014-11-07 12:10:07.860,0
2014-11-07 12:16:24.179,124,4.133334,37.45093,-122.1566,13.30347,9.1,38.52481,4,10,1415391384,-0.003509521,-0.0506134,-1.064667,41.94673,83.30803,8.340179,347.4648,333.7698,25,0.1883681,0.2363265,0.003357447,1.363474,-0.0643434,0.05686795,0.1295986,0.0861012,0.0379242,-0.001478762,0.06808303,-0.05083218,0.0.0.0,10.62.21.216,5,automotive,2,2014-11-07 12:16:23.464,0,2014-11-07 12:10:07.860,0
2014-11-07 12:16:24.279,125,4.166667,37.45093,-122.1566,13.30347,9.1,38.52481,4,10,1415391384,-0.02992249,-0.05943298,-0.9440155,43.07602,83.68188,7.910583,346.9013,333.2063,25,0.1507754,0.1410645,0.06038665,1.363844,-0.05191127,0.05460637,-0.005524465,0.09083958,0.07857471,-0.015679,9.010603e-05,0.09996282,0.0.0.0,10.62.21.216,5,automotive,2,2014-11-07 12:16:23.464,0,2014-11-07 12:10:07.860,0
2014-11-07 12:16:24.380,126,4.2,37.45093,-122.1566,13.30347,9.1,38.52481,4,10,1415391384,-0.004867554,-0.08854675,-0.9711304,43.41823,84.02174,6.324158,346.7137,333.0187,25,-0.003962251,-0.03215687,0.03419579,1.365397,-0.04546394,0.05422743,-0.06970198,-0.07933749,0.01790239,0.02391236,-0.01598957,0.02720713,0.0.0.0,10.62.21.216,5,automotive,2,2014-11-07 12:16:23.464,0,2014-11-07 12:10:07.860,0
2014-11-07 12:16:24.481,127,4.233334,37.45093,-122.1566,13.30347,9.1,38.52481,4,10,1415391384,-0.01356506,-0.05635071,-1.055725,42.83647,82.6283,5.299652,346.727,333.032,25,-0.02837438,-0.05090952,-0.02508272,1.367886,-0.03769175,0.05632725,0.007237725,-0.04137742,-0.01129976,0.02680458,-0.0588301,0.03041976,0.0.0.0,10.62.21.216,5,automotive,2,2014-11-07 12:16:23.464,0,2014-11-07 12:10:07.860,0
2014-11-07 12:16:24.579,128,4.266667,37.45093,-122.1566,13.30347,9.1,38.52481,4,10,1415391384,0.000579834,-0.02606201,-1.10965,40.74899,82.73026,4.010803,347.6764,333.9814,25,-0.03652099,-0.218364,0.05717993,1.363414,-0.04430965,0.04544245,-0.1152667,-0.171282,-0.04079324,0.02599991,0.023622,0.004350086,0.0.0.0,10.62.21.216,5,automotive,2,2014-11-07 12:16:23.464,0,2014-11-07 12:10:07.860,0
2014-11-07 12:16:24.680,129,4.3,37.45093,-122.1566,13.30347,9.1,38.52481,4,10,1415391384,-0.1165314,-0.2092438,-1.019257,40.68055,82.32242,3.944702,347.7941,334.0991,25,0.5392843,-0.5336552,0.7293746,1.369343,-0.08120617,0.03355049,0.2130426,-0.6352381,0.3985287,-0.03257617,0.0607201,0.08267628,0.0.0.0,10.62.21.216,5,automotive,2,2014-11-07 12:16:23.464,0,2014-11-07 12:10:07.860,0
2014-11-07 12:16:24.779,130,4.333333,37.45093,-122.1566,13.30347,9.1,38.52481,4,10,1415391384,-0.1698303,-0.01057434,-0.9146271,46.08744,78.99174,-0.0211792,343.7237,330.0287,25,0.01467135,-0.2857106,0.3743038,1.483285,-0.1291841,0.07163194,-0.1141704,-0.3486632,0.3504696,-0.009398933,0.04795009,0.1036414,0.0.0.0,10.62.21.216,5,automotive,2,2014-11-07 12:16:23.464,0,2014-11-07 12:10:07.860,0
2014-11-07 12:16:24.880,131,4.366667,37.45093,-122.1566,13.30347,9.1,38.52481,4,10,1415391384,-0.08283997,-0.06826782,-0.9599304,47.90114,78.07411,-0.1203003,342.396,328.7009,25,0.3013489,0.2863753,-0.04912281,1.494121,-0.1350315,0.07154962,0.2564945,0.2279838,-0.04703464,0.1275479,0.08404656,0.1021466,0.0.0.0,10.62.21.216,5,automotive,2,2014-11-07 12:16:23.464,0,2014-11-07 12:10:07.860,0
2014-11-07 12:16:24.980,132,4.4,37.45093,-122.1566,13.30347,9.1,38.52481,4,10,1415391384,-0.1582489,-0.05622864,-1.057861,47.69582,78.48196,0.4745483,342.4975,328.8025,25,0.2452883,0.599383,0.08290767,1.496695,-0.1003532,0.09998815,0.1772618,0.7674001,0.07713035,-0.05999872,0.0475145,-0.05313728,0.0.0.0,10.62.21.216,5,automotive,2,2014-11-07 12:16:23.464,0,2014-11-07 12:10:07.860,0
2014-11-07 12:16:25.081,133,4.433333,37.45093,-122.1566,13.30347,9.1,38.52481,4,10,1415391384,-0.07713318,-0.1643982,-1.042847,48.61977,78.31202,1.697357,341.8504,328.1554,25,-0.01033093,0.05264271,0.08296333,1.504955,-0.07523249,0.1084687,-0.0350453,0.06232011,0.03886893,-0.04323062,-0.04439275,0.008965444,0.0.0.0,10.62.21.216,5,automotive,2,2014-11-07 12:16:23.464,0,2014-11-07 12:10:07.860,0
2014-11-07 12:16:25.177,134,4.466667,37.45093,-122.1566,13.30347,9.1,38.52481,4,10,1415391384,-0.04882812,-0.117981,-1.005463,49.44106,79.12769,3.283752,341.6479,327.9529,25,0.01113574,-0.01749351,-0.003844806,1.507074,-0.07440432,0.1148539,-0.04842446,-0.03356501,-0.01739295,-0.001746106,-0.02118637,-0.05888225,0.0.0.0,10.62.21.216,5,automotive,2,2014-11-07 12:16:23.464,0,2014-11-07 12:10:07.860,0
2014-11-07 12:16:25.280,135,4.5,37.45098,-122.1565,13.97818,8.86,38.52481,4,10,1415391385,-0.07138062,-0.09689331,-1.016693,52.04184,79.73945,3.944702,341.2162,327.5211,25,0.07182705,0.06049078,0.003013367,1.506132,-0.07732663,0.1106584,-0.001474994,0.003525635,0.001417472,0.006098386,0.02887445,0.02465085,0.0.0.0,10.62.21.216,5,automotive,2,2014-11-07 12:16:23.464,0,2014-11-07 12:10:07.860,0
2014-11-07 12:16:25.372,136,4.533334,37.45098,-122.1565,13.97818,8.86,38.52481,4,10,1415391385,-0.07192993,-0.09364319,-0.9716492,52.76049,79.77344,4.704834,341.0222,327.3271,25,0.09631695,0.01198103,0.03461044,1.505806,-0.07696816,0.1091505,0.01577991,-0.04004923,0.007139172,0.01614713,0.0265822,-0.01157952,0.0.0.0,10.62.21.216,5,automotive,2,2014-11-07 12:16:23.464,0,2014-11-07 12:10:07.860,0
2014-11-07 12:16:25.450,137,4.566667,37.45098,-122.1565,13.97818,8.86,38.52481,4,10,1415391385,-0.0788269,-0.1210022,-1.03273,52.93159,79.94337,3.746429,340.8949,327.1999,25,0.1063965,0.05410531,0.01404924,1.506413,-0.07651123,0.1119713,0.04421758,-0.009098302,0.01727026,-0.01623567,0.006406044,-0.06442155,0.0.0.0,10.62.21.216,5,automotive,2,2014-11-07 12:16:23.464,0,2014-11-07 12:10:07.860,0
2014-11-07 12:16:25.533,138,4.6,37.45098,-122.1565,13.97818,8.86,38.52481,4,10,1415391385,-0.06954956,-0.1284943,-0.9451294,53.17113,77.87019,1.532135,340.6212,326.9261,25,0.1323351,0.08882308,0.02913791,1.506906,-0.071367,0.1198003,0.09746625,0.07143598,0.0278434,0.003565125,0.008536732,0.02179937,0.0.0.0,10.62.21.216,5,automotive,2,2014-11-07 12:16:23.464,0,2014-11-07 12:10:07.860,0
2014-11-07 12:16:25.549,139,4.633334,37.45098,-122.1565,13.97818,8.86,38.52481,4,10,1415391385,-0.08232117,-0.1264191,-1.042175,53.17113,77.87019,1.003357,340.5789,326.8839,25,0.1003964,0.1062828,-0.005196626,1.507133,-0.06942575,0.1210937,0.07287353,0.05903562,-0.0005939862,-0.000687563,-0.007696269,0.04515636,0.0.0.0,10.62.21.216,5,automotive,2,2014-11-07 12:16:23.464,0,2014-11-07 12:10:07.860,0
2014-11-07 12:16:25.643,140,4.666667,37.45098,-122.1565,13.97818,8.86,38.52481,4,10,1415391385,-0.06378174,-0.1329498,-1.049393,51.83652,78.31202,-0.4177246,340.5069,326.8118,25,0.05082803,0.05312953,-0.004445348,1.5072,-0.06587478,0.1233224,-0.0001893333,0.05206527,0.00794534,-0.01273675,0.005425816,0.005954233,0.0.0.0,10.62.21.216,5,automotive,2,2014-11-07 12:16:23.464,0,2014-11-07 12:10:07.860,0
2014-11-07 12:16:25.744,141,4.7,37.45098,-122.1565,13.97818,8.86,38.52481,4,10,1415391385,-0.03077698,-0.1885681,-1.073914,51.39165,78.48196,0.01190186,340.4889,326.7939,25,0.1192681,0.2677382,-0.02101341,1.506881,-0.05884974,0.1256819,0.1361346,0.1755125,-0.002015266,0.03782879,-0.01293912,0.07955203,0.0.0.0,10.62.21.216,5,automotive,2,2014-11-07 12:16:23.464,0,2014-11-07 12:10:07.860,0
2014-11-07 12:16:25.847,142,4.733334,37.45098,-122.1565,13.97818,8.86,38.52481,4,10,1415391385,-0.02267456,-0.1098633,-0.9665222,50.57035,79.22966,-0.3846741,341.0121,327.3171,25,0.20651,0.06226897,0.03385038,1.506404,-0.05589698,0.1240972,0.1147312,-0.07674305,0.003152705,0.04597779,-0.03077733,0.08685985,0.0.0.0,10.62.21.216,5,automotive,2,2014-11-07 12:16:23.464,0,2014-11-07 12:10:07.860,0
2014-11-07 12:16:25.945,143,4.766667,37.45098,-122.1565,13.97818,8.86,38.52481,4,10,1415391385,-0.01264954,-0.1139069,-0.9395142,48.75665,80.01134,0.7720337,342.3216,328.6265,25,0.1249726,0.07264624,0.01544847,1.472246,-0.08099447,0.09597746,0.06291436,-0.005594765,-0.006087097,-0.04773179,-0.02466849,0.03424878,0.0.0.0,10.62.21.216,5,automotive,2,2014-11-07 12:16:23.464,0,2014-11-07 12:10:07.860,0
2014-11-07 12:16:26.044,144,4.8,37.45098,-122.1565,13.97818,8.86,38.52481,4,10,1415391385,-0.06581116,-0.1354828,-1.016983,48.5171,80.1133,1.994812,342.6516,328.9566,25,0.1996401,0.243627,-0.01750922,1.473375,-0.06868539,0.09772617,0.1301447,0.2513212,-0.01981956,-0.01156057,-0.001458853,-0.05815871,0.0.0.0,10.62.21.216,5,automotive,2,2014-11-07 12:16:25.986,0,2014-11-07 12:10:07.860,0
2014-11-07 12:16:26.144,145,4.833333,37.45098,-122.1565,13.97818,8.86,38.52481,4,10,1415391385,-0.0823822,-0.1288452,-1.030823,50.19392,79.26364,2.093933,341.5127,327.8177,25,0.1726804,0.2784585,-0.05292127,1.475363,-0.05110503,0.1084159,0.1708471,0.2561289,0.001168571,-0.01574545,0.02418874,0.008471098,0.0.0.0,10.62.21.216,5,automotive,2,2014-11-07 12:16:25.986,0,2014-11-07 12:10:07.860,0
2014-11-07 12:16:26.242,146,4.866667,37.45105,-122.1565,14.38388,8.95,38.52481,4,10,1415391386,-0.02761841,-0.07971191,-0.9191895,49.95438,80.04533,1.267731,341.7204,328.0253,25,0.3548369,0.3269113,-0.08692584,1.472541,-0.03495303,0.1226005,0.3348213,0.3044311,-0.09318204,0.02507057,0.03541002,0.04871149,0.0.0.0,10.62.21.216,5,automotive,2,2014-11-07 12:16:25.986,0,2014-11-07 12:10:07.860,0
2014-11-07 12:16:26.342,147,4.9,37.45105,-122.1565,14.38388,8.95,38.52481,4,10,1415391386,-0.004577637,-0.1031342,-0.9491425,49.61216,79.22965,1.2677,341.6421,327.9471,25,0.01209821,0.02998879,0.05198544,1.472091,-0.02793096,0.1193946,-0.1427976,-0.1160493,0.02607797,-0.08186011,-0.05560197,0.03592017,0.0.0.0,10.62.21.216,5,automotive,2,2014-11-07 12:16:25.986,0,2014-11-07 12:10:07.860,0
2014-11-07 12:16:26.440,148,4.933333,37.45105,-122.1565,14.38388,8.95,38.52481,4,10,1415391386,0.03541565,-0.1003723,-0.9650116,48.34599,79.6035,-0.5499878,342.3606,328.6655,25,0.08179047,0.01806715,-0.01705888,1.471035,-0.01990353,0.1234199,-0.03081729,-0.005168942,-0.05172782,-0.00400711,-0.0074321,-0.1061613,0.0.0.0,10.62.21.216,5,automotive,2,2014-11-07 12:16:25.986,0,2014-11-07 12:10:07.860,0
2014-11-07 12:16:26.544,149,4.966667,37.45105,-122.1565,14.38388,8.95,38.52481,4,10,1415391386,0.02172852,-0.1830902,-1.060974,48.72242,79.56952,0.6728516,342.1628,328.4677,25,0.001236239,-0.01245268,-0.002571815,1.467656,-0.01903044,0.1208533,-0.1749113,-0.1544523,0.009723657,-0.01057423,-0.04466279,-0.06298511,0.0.0.0,10.62.21.216,5,automotive,2,2014-11-07 12:16:25.986,0,2014-11-07 12:10:07.860,0
2014-11-07 12:16:26.640,150,5,37.45105,-122.1565,14.38388,8.95,38.52481,4,10,1415391386,0.00328064,-0.07853699,-0.9310455,47.45625,80.07932,0.4415283,342.9457,329.2507,25,0.08572876,0.08384456,-0.03987684,1.46613,-0.02583116,0.1148162,0.03722341,0.084044,-0.02753029,-0.02892246,0.010667,0.08330967,0.0.0.0,10.62.21.216,5,automotive,2,2014-11-07 12:16:25.986,0,2014-11-07 12:10:07.860,0
2014-11-07 12:16:26.740,151,5.033334,37.45105,-122.1565,14.38388,8.95,38.52481,4,10,1415391386,-0.03961182,-0.03208923,-0.9163208,47.45625,79.80743,0.8380737,342.8719,329.1769,25,0.1792941,0.2055611,0.06465489,1.464706,-0.02559398,0.1087598,0.06260405,0.08180125,0.0672766,-0.03190255,0.1013586,0.02344425,0.0.0.0,10.62.21.216,5,automotive,2,2014-11-07 12:16:25.986,0,2014-11-07 12:10:07.860,0
2014-11-07 12:16:26.840,152,5.066667,37.45105,-122.1565,14.38388,8.95,38.52481,4,10,1415391386,0.0368042,-0.1849976,-1.042328,47.31936,80.21526,1.300781,343.0271,329.332,25,-0.01068513,-0.01518721,-0.0777145,1.467125,-0.01347579,0.1137986,-0.00467605,0.01322562,-0.07495459,0.0295015,-0.08178984,-0.02042853,0.0.0.0,10.62.21.216,5,automotive,2,2014-11-07 12:16:25.986,0,2014-11-07 12:10:07.860,0
