time,timestamp,recordtime,lat,long,alt,speed,course,verticalAccuracy,horizontalAccuracy,locTimeStamp,accelerationX,accelerationY,accelerationZ,HeadingX,HeadingY,HeadingZ,TrueHeading,MagneticHeading,HeadingAccuracy,RotationX,RotationY,RotationZ,motionYaw,motionRoll,motionPitch,motionRotationRateX,motionRotationRateY,motionRotationRateZ,motionUserAccelerationX,motionUserAccelerationY,motionUserAccelerationZ,en0,pdp_ip0,DeviceOrientation,State
2014-11-19 11:05:26.413,1,1,37.43229,-122.1824,33.09259,2,350.8594,3,10,1416423926,0.239975,-0.5918274,-0.8425598,27.61539,19.31142,-19.50999,331.1078,317.4174,25,0.1936467,-0.756142,0.2477984,-2.414781,0.1444906,0.659707,0.2650771,-0.6459467,0.1501947,0.1261994,0.02105793,-0.06062203,0.0.0.0,10.181.213.137,5,0
2014-11-19 11:05:27.413,2,2,37.43226,-122.1823,33.38104,1.72,356.4844,3,10,1416423927,-0.1038208,-0.7870483,-0.6239471,24.32864,12.2116,-20.22772,327.4713,313.7809,25,0.1681951,-0.02716238,-0.1810822,-2.499682,-0.005413042,0.7810702,0.16049,-0.04213202,-0.1028443,-0.09997669,-0.08300854,0.08620297,0.0.0.0,10.181.213.137,1,0
2014-11-19 11:05:28.414,3,3,37.4323,-122.1824,33.44226,2.3,30.9375,3,30,1416423928,0.001281738,-0.6126556,-0.5115356,15.31992,12.98148,-19.00923,341.9511,328.2608,25,0.263638,-0.3177255,-0.2031393,-2.991105,0.1480091,0.810439,0.2827777,-0.1617357,-0.1534564,-0.007257359,0.1396289,0.1166582,0.0.0.0,10.181.213.137,1,0
2014-11-19 11:05:29.414,4,4,37.43235,-122.1823,33.54465,3.43,45.70312,3,10,1416423929,-0.05632019,-0.6862793,-0.6882477,9.802399,10.96273,-16.53883,346.7466,333.0562,25,-0.03291188,-0.2067588,-0.06485996,3.001581,0.04038236,0.7877731,-0.02795324,-0.1910372,-0.05187014,-0.09369507,0.01719475,-0.02220041,0.0.0.0,10.181.213.137,1,0
2014-11-19 11:05:30.414,5,5,37.43239,-122.1822,32.96768,4.11,55.54688,3,10,1416423930,0.06245422,-0.6515961,-0.7323151,7.435303,9.987576,-14.85292,352.2049,338.5145,25,-0.3331228,-0.3081309,-0.1290347,2.81279,0.08258969,0.7617779,-0.2175575,-0.1610452,-0.1128249,-0.002153921,-0.0115427,0.07558998,0.0.0.0,10.181.213.137,1,0
2014-11-19 11:05:31.413,6,6,37.4324,-122.182,32.94028,5.05,61.875,3,30,1416423931,0.1034241,-0.5677185,-0.7718201,8.882812,12.8104,-14.8362,353.4516,339.7612,25,0.3703938,0.1906959,0.03021383,2.771278,0.1883296,0.6281567,0.485123,0.05982991,0.1218811,-0.04805655,0.01993578,0.02298561,0.0.0.0,10.181.213.137,1,0
2014-11-19 11:05:32.413,7,7,37.43252,-122.1819,32.93555,6.13,66.44531,3,10,1416423932,0.02575684,-0.5949249,-0.5924835,8.269684,8.362324,-14.63589,349.0527,335.3623,25,0.1501586,-0.01842881,0.02920343,2.764408,0.05393421,0.7952293,0.1456998,0.04047768,0.003068828,0.03112074,0.1084333,0.05396146,0.0.0.0,10.181.213.137,1,0
2014-11-19 11:05:33.414,8,8,37.43255,-122.1819,31.93542,6.47,68.90625,3,10,1416423933,-0.05328369,-0.7636261,-0.7937927,8.439972,7.849091,-14.63591,347.3998,333.7094,25,-0.2355009,-0.2863654,0.1794078,2.774332,0.07341499,0.7941824,-0.1878266,-0.1797603,0.2190312,-0.06800959,-0.06037558,-0.07070354,0.0.0.0,10.181.213.137,1,0
2014-11-19 11:05:34.413,9,9,37.43246,-122.1818,32.12463,7.37,68.90625,3,10,1416423934,0.00819397,-0.7255249,-0.7613068,7.639526,7.968861,-14.98643,350.8676,337.1772,25,-0.1233323,0.4320585,0.1421643,2.733265,0.06898428,0.7531059,-0.07936633,0.440625,0.1798321,-0.04209486,-0.04161689,-0.03347377,0.0.0.0,10.181.213.137,1,0
2014-11-19 11:05:35.414,10,10,37.43264,-122.1817,32.69418,7.96,68.20312,3,10,1416423935,0.1667023,-0.5754852,-0.6934967,8.542023,7.541161,-14.43564,348.758,335.0676,25,-0.003676228,0.1407055,0.001991246,2.715206,0.1282904,0.7327283,-0.01173466,0.1581681,-0.04858322,0.05058731,0.1370093,0.03254673,0.0.0.0,10.181.213.137,1,0
2014-11-19 11:05:36.413,11,11,37.43264,-122.1816,32.49042,8.51,71.36719,3,10,1416423936,0.04623413,-0.5871735,-0.7656555,9.325439,6.343605,-13.7012,343.7961,330.1057,25,-0.1448757,-0.3918711,0.2588603,2.659176,0.143255,0.7363877,-0.1038304,-0.3144767,0.2324235,-0.0016337,0.0803531,-0.007977111,0.0.0.0,10.181.213.137,1,0
2014-11-19 11:05:37.413,12,12,37.43261,-122.1815,32.03445,8.48,77.24786,3,5,1416423937,-0.04429626,-0.6770325,-0.6575165,8.661255,5.744827,-13.51753,343.2146,329.5243,25,0.03263118,-0.3108191,-0.2153933,2.64939,0.09354819,0.7210178,0.2820338,0.01516676,-0.1599478,-0.1639301,0.02417847,0.1105818,0.0.0.0,10.181.213.137,1,0
2014-11-19 11:05:38.412,13,13,37.43263,-122.1814,31.98471,8.57,78.69006,3,5,1416423938,0.1334991,-0.4305878,-0.6245117,7.792755,6.68576,-14.60249,346.8512,333.1608,25,0.2568915,0.3042435,-0.1553246,2.641871,0.06342085,0.689275,0.2506803,0.4435522,-0.1728736,0.03573097,0.1437446,-0.01536665,0.0.0.0,10.181.213.137,1,0
2014-11-19 11:05:39.413,14,14,37.43263,-122.1814,31.98471,8.57,78.69006,3,5,1416423938,-0.02346802,-0.506424,-0.8053284,6.685791,7.147671,-12.08208,346.4355,332.7451,25,-0.02619485,-0.08454551,-0.02343156,2.671562,0.01119355,0.5952339,-0.009655597,0.01449314,-0.03429814,0.002679372,0.03322132,-0.0006019712,0.0.0.0,10.181.213.137,1,0
2014-11-19 11:05:40.414,15,15,37.43266,-122.1812,31.61111,7.91,84.80556,3,5,1416423940,0.116806,-0.5107422,-0.6865997,6.821991,5.471088,-12.38254,344.813,331.1226,25,0.3521988,0.202918,0.04196449,2.581065,0.05465987,0.6095862,0.3102082,0.1838577,-0.01435077,0.03549926,0.1145509,0.1193655,0.0.0.0,10.181.213.137,1,0
2014-11-19 11:05:41.413,16,16,37.43266,-122.1812,31.61111,7.91,84.80556,3,5,1416423940,-0.0750885,-0.4761353,-0.7890472,5.868286,6.086975,-11.78166,345.369,331.6786,25,-0.2456692,-0.1524591,0.3294501,2.598951,-0.02246432,0.4984112,0.0001729929,-0.02648469,0.359381,0.005401723,-0.03110937,0.1036312,0.0.0.0,10.181.213.137,5,0
2014-11-19 11:05:42.414,17,17,37.43266,-122.1811,31.61954,7.85,84.80556,3,5,1416423941,-0.01187134,-0.6601715,-0.4794922,9.308228,-0.1061287,-12.54951,324.2427,310.5523,25,-0.09092618,-0.2336972,-0.1502289,2.540323,0.005143909,0.688339,0.1853616,-0.01916083,-0.1628024,-0.02086411,-0.008711403,0.3072346,0.0.0.0,10.181.213.137,1,0
2014-11-19 11:05:43.414,18,18,37.43267,-122.1811,31.35156,7.52,90,3,5,1416423942,0.2173767,-0.566864,-0.8990631,4.386688,1.519157,-3.586136,356.9366,343.2462,26,0.6701059,0.5526257,0.1315532,2.367892,0.1496332,0.4579634,0.5583956,0.6356786,0.1535717,0.1000965,-0.1498119,-0.02226288,0.0.0.0,10.181.213.137,1,0
2014-11-19 11:05:44.413,19,19,37.43267,-122.181,31.13248,7.65,90,3,5,1416423943,0.2591553,-0.502594,-0.8717194,6.787903,9.508606,-12.81657,357.6218,343.9314,26,-0.1755897,0.1152009,0.5123168,2.332702,0.2012627,0.4296534,-0.1354232,0.06351282,0.3091911,0.1602886,0.01677546,0.05076341,0.0.0.0,10.181.213.137,5,0
2014-11-19 11:05:45.413,20,20,37.43266,-122.1809,31.01923,8.36,93.65224,3,5,1416423944,0.2391968,-0.425293,-0.6914215,8.797302,4.136681,-8.74382,334.7704,321.0801,25,0.4153186,-0.6065871,-0.4072295,2.319977,0.1381499,0.6319294,0.4272364,-0.5065879,-0.5673887,0.1280794,0.1654097,0.1077802,0.0.0.0,10.181.213.137,1,0
2014-11-19 11:05:46.413,21,21,37.43266,-122.1808,30.94785,9.31,96.78894,3,5,1416423945,0.08798218,-0.6628723,-0.8035278,3.296783,0.1163063,-7.091354,347.7944,334.104,25,-0.05366696,0.01954095,0.06091102,2.346362,0.1461695,0.6698487,0.01609565,0.1609125,0.003396963,-0.01168365,0.03370921,0.05077889,0.0.0.0,10.181.213.137,1,0
2014-11-19 11:05:47.412,22,22,37.43264,-122.1807,31.15219,9.84,99.19667,3,5,1416423946,-0.179657,-0.5657349,-0.7805023,15.86472,-0.05478668,-11.59818,346.0667,332.3763,26,-0.002679939,-0.07887138,0.2384155,2.460647,0.04643217,0.6436597,0.01970888,-0.1828634,0.3286025,-0.216785,0.03439202,0.01854038,0.0.0.0,10.181.213.137,1,0
2014-11-19 11:05:48.413,23,23,37.43263,-122.1806,30.80661,9.74,100.7073,3,5,1416423947,-0.2862244,-0.780304,-1.27272,7.196594,-1.201027,-0.4313965,348.2008,334.5104,26,-0.1742861,-0.1325951,-0.5518168,2.448404,0.04536477,0.622156,-0.4638512,-0.1792349,-0.02512775,-0.3076038,-0.2133693,-0.3495433,0.0.0.0,10.181.213.137,1,0
2014-11-19 11:05:49.413,24,24,37.43261,-122.1805,30.96512,9.88,100.7073,3,5,1416423948,-0.1496429,-0.5680084,-0.7523193,7.724518,-1.218117,-11.99878,337.959,324.2687,25,-0.5357404,0.1271942,0.2103895,2.375112,0.1094253,0.642353,-0.4993797,0.05563312,0.3355482,-0.2262348,0.04675871,0.08345133,0.0.0.0,10.181.213.137,5,0
2014-11-19 11:05:50.413,25,25,37.43259,-122.1804,31.04584,9.09,100.7073,3,5,1416423949,0.2563629,-0.5197296,-0.7807922,9.495636,-8.985155,-8.126373,352.2923,338.6019,26,0.2679622,-0.8625409,0.06689062,2.302458,0.1336819,0.7200451,0.1960445,-0.7522565,-0.04936389,0.1561631,0.139689,-0.0357237,0.0.0.0,10.181.213.137,1,0
2014-11-19 11:05:51.412,26,26,37.43257,-122.1802,31.23703,6.9,100.7073,3,5,1416423951,0.09907532,-0.5080566,-0.8640442,4.778442,-4.383097,-6.57402,352.0561,338.3657,26,-0.0794911,0.02250105,0.002498844,2.336684,0.1049627,0.670067,-0.1180105,-0.04884737,0.01602952,0.0007080352,0.1034909,-0.09651006,0.0.0.0,10.181.213.137,1,0
2014-11-19 11:05:52.413,27,27,37.43256,-122.1801,31.43961,5.57,100.7073,3,5,1416423952,0.1564941,-0.5016632,-0.9235382,3.722565,-2.124847,-8.94429,350.3934,336.703,26,-0.4688527,-0.2570848,-0.1575718,2.334977,0.1585961,0.5264056,-0.4194061,-0.188343,-0.1723044,-0.005828959,-0.01708719,-0.03919199,0.0.0.0,10.181.213.137,1,0
2014-11-19 11:05:53.413,28,28,37.43256,-122.1801,31.43961,5.57,100.7073,3,5,1416423952,0.2167206,-0.5244141,-0.7303925,4.284485,-1.868229,-7.792603,352.7046,339.0143,26,-0.1125827,-0.7815358,0.5001198,2.321251,0.07809542,0.5505787,-0.01693773,-0.6790501,0.4515539,0.1584733,0.01542905,0.1221159,0.0.0.0,10.181.213.137,1,0
2014-11-19 11:05:54.414,29,29,37.43256,-122.1801,30.84595,1.36,100.7073,3,5,1416423954,0.1781006,-0.4490814,-0.8337708,3.586273,-1.372082,-7.308594,354.6288,340.9384,26,-0.1726993,-0.09880141,0.1568586,2.27246,0.1357821,0.5017813,-0.1269104,-0.06152824,0.1565161,0.06808916,0.03695726,0.044332,0.0.0.0,10.181.213.137,5,0
2014-11-19 11:05:55.413,30,30,37.43256,-122.1801,30.84595,1.36,100.7073,3,5,1416423954,0.1551819,-0.470108,-0.8218079,4.573944,-2.295925,-8.577148,354.5717,340.8813,26,-0.08543687,-0.0447712,-0.1084205,2.268208,0.1557947,0.4921515,-0.02332124,0.07878236,-0.1665363,0.008467956,-8.735565e-05,0.04323638,0.0.0.0,10.181.213.137,1,0
2014-11-19 11:05:56.414,31,31,37.43256,-122.1801,30.93634,0.41,100.7073,3,5,1416423955,0.05905151,-0.7660675,-0.7201996,3.501099,-1.765575,-7.792587,352.2942,338.6038,26,0.1570573,-0.1016912,0.1661711,2.315649,0.1116382,0.6303026,0.05606566,-0.03647177,0.1544943,-0.0176882,-0.1641966,0.06951337,0.0.0.0,10.181.213.137,1,0
2014-11-19 11:05:57.413,32,32,37.43256,-122.1801,30.79376,1.15,100.7073,3,5,1416423957,-0.01792908,-0.6969299,-0.720932,4.50589,-0.6535606,-9.211395,351.4148,337.7244,26,-0.02589471,-0.2329568,0.0602138,2.31964,0.08671806,0.693953,-0.02666607,-0.2108076,0.03686093,-0.0307053,-0.03891633,0.07018693,0.0.0.0,10.181.213.137,1,0
2014-11-19 11:05:58.413,33,33,37.43255,-122.1801,30.66302,2.68,100.7073,3,5,1416423958,0.09812927,-0.5821381,-0.8474274,8.712128,-8.608782,-3.886765,18.02662,4.33625,26,-0.2804018,0.1892599,-0.01391555,1.653257,0.2556279,0.6526686,-0.4269751,0.1545076,-0.02758251,-0.04910387,0.03037386,-0.116116,0.0.0.0,10.181.213.137,1,0
2014-11-19 11:05:59.413,34,34,37.43255,-122.1801,30.66302,2.68,100.7073,3,5,1416423958,0.01071167,-0.5543671,-0.8128815,13.00369,-15.75994,0.8536682,31.15654,17.46617,26,-0.4948002,0.4202295,-0.2227817,1.637465,0.1903438,0.6131283,-0.5507146,0.6093278,-0.278734,-0.1716567,0.0210617,0.02428755,0.0.0.0,10.181.213.137,1,0
2014-11-19 11:06:00.413,35,35,37.43255,-122.18,30.05411,3.51,139.9219,3,5,1416423959,0.2138672,-0.362381,-0.7477875,18.70862,-20.05405,0.4029846,52.23891,38.54854,26,-0.9850258,-1.248351,-0.1570373,1.273515,0.2460168,0.5293844,-0.9410371,-1.020113,-0.2156311,0.003661135,0.1426212,0.08934229,0.0.0.0,10.181.213.137,1,0
2014-11-19 11:06:01.415,36,36,37.43243,-122.18,30.26071,3.99,188.8204,3,5,1416423961,0.020401,-0.5782013,-0.6243286,19.96887,-20.19091,5.37706,55.89386,42.20349,26,0.06200878,-0.1749135,-0.04936515,0.9788944,0.1809886,0.6491182,0.2704434,0.04985613,-0.175041,-0.1427824,0.07880369,0.1598871,0.0.0.0,10.181.213.137,1,0
2014-11-19 11:06:02.413,37,37,37.43243,-122.18,30.26071,3.99,188.8204,3,5,1416423961,0.1863098,-0.6216888,-0.6269836,22.40414,-21.71353,4.75943,59.56244,45.87207,26,0.4887116,0.3256889,-0.003144394,0.9643984,0.1145628,0.7289927,0.4893257,0.2765249,-0.05870919,0.1083594,0.1276208,0.05693562,0.0.0.0,10.181.213.137,1,0
2014-11-19 11:06:03.413,38,38,37.43235,-122.18,30.87946,6.95,185.4922,3,5,1416423962,-0.06463623,-0.6399841,-0.8119049,18.98114,-20.49886,4.308777,58.77971,45.08934,26,0.4801773,0.5628093,-0.1061062,1.034493,0.01615282,0.7197126,0.2441326,0.4772259,0.003315221,-0.1433872,-0.0404011,-0.2276256,0.0.0.0,10.181.213.137,1,0
2014-11-19 11:06:04.414,39,39,37.43227,-122.18,31.22824,8.24,179.5417,3,5,1416423963,-0.04174805,-0.5280457,-0.6017303,17.17603,-22.5176,3.641113,54.73298,41.04261,26,-0.1226676,-0.174196,-0.112877,1.135449,-0.1090254,0.7810703,0.282637,0.07148591,-0.1047765,0.1028307,0.1020654,0.128887,0.0.0.0,10.181.213.137,1,0
2014-11-19 11:06:05.413,40,40,37.43209,-122.18,31.07971,9.37,174.4885,3,5,1416423965,-0.07527161,-0.6631012,-0.7731323,15.60931,-20.01983,5.67746,53.4228,39.73243,26,0.2374932,0.3123462,0.1750245,1.240273,-0.210769,0.7618597,0.1356739,0.3210868,0.2033208,0.05857205,0.01314421,-0.08332147,0.0.0.0,10.181.213.137,1,0
2014-11-19 11:06:06.414,41,41,37.43209,-122.18,31.07971,9.37,174.4885,3,5,1416423965,0.03645325,-0.5704193,-0.7839508,14.70673,-18.6683,4.225357,50.23681,36.54644,26,-0.0720931,0.1577276,-0.122654,1.215717,-0.07721262,0.6948848,0.04447803,0.3385475,-0.1538176,-0.05412259,0.06740575,-0.01077246,0.0.0.0,10.181.213.137,1,0
2014-11-19 11:06:07.413,42,42,37.43195,-122.18,31.61545,8.11,171.6943,3,5,1416423967,0.1422577,-0.6534271,-0.4111176,17.62988,-18.25547,7.013687,238.1343,224.4439,25,0.3221458,-0.1873789,0.04835448,1.080269,0.1360452,0.8194512,0.8978846,0.2306511,-0.1493298,0.06797168,0.1674473,0.2821042,0.0.0.0,10.181.213.137,1,0
2014-11-19 11:06:08.414,43,43,37.43185,-122.18,31.09518,8.99,171.6943,3,5,1416423968,0.1215057,-0.6035461,-0.6935272,15.80542,-18.27258,5.260193,235.7564,222.066,25,-0.1056292,0.03566505,0.07773368,1.105057,0.1429878,0.7450784,-0.06671661,0.0449707,0.08574696,0.02695541,0.06963104,0.03167161,0.0.0.0,10.181.213.137,1,0
2014-11-19 11:06:09.413,44,44,37.43185,-122.18,31.09518,8.99,171.6943,3,5,1416423968,-0.02645874,-0.5055542,-0.822052,11.32074,-18.01592,2.003632,228.9711,215.2808,25,0.02493438,0.1858508,0.1318821,1.379729,-0.00506229,0.6013554,-0.005990929,0.211652,0.1291232,-0.03101258,0.04186532,-0.02521823,0.0.0.0,10.181.213.137,1,0
2014-11-19 11:06:10.412,45,45,37.43179,-122.1799,31.56592,8.78,165.5,3,5,1416423969,0.03318787,-0.5611115,-0.7058563,8.592438,-17.02352,2.404388,223.1164,209.426,25,0.1305551,-0.02577567,-0.1528631,1.49397,0.01196288,0.6736284,-0.02756568,0.1213742,-0.1957361,-0.01652116,0.05250637,0.0865916,0.0.0.0,10.181.213.137,1,0
2014-11-19 11:06:11.413,46,46,37.43166,-122.1799,32.12918,8.01,163.3611,3,5,1416423971,0.1188507,-0.4757385,-0.8184052,10.53625,-16.92086,1.669571,227.8273,214.1369,25,0.002280998,0.1082881,-0.5225897,1.472292,-0.01545868,0.6041411,-0.1346552,0.205943,-0.6288729,0.0638693,0.02063104,0.0004432808,0.0.0.0,10.181.213.137,1,0
2014-11-19 11:06:12.413,47,47,37.43166,-122.1799,32.12918,8.01,163.3611,3,5,1416423971,0.02018738,-0.5986176,-0.6870728,10.53619,-17.77638,2.838562,227.8827,214.1924,25,0.3569842,0.2082051,-0.2740608,1.539613,-0.04857149,0.62713,0.333285,0.2099028,-0.2768464,0.008139896,-0.02432172,0.1029343,0.0.0.0,10.181.213.137,1,0
2014-11-19 11:06:13.413,48,48,37.43164,-122.1799,31.78464,7.39,163.3611,3,10,1416423972,0.1932678,-0.6520691,-0.7515564,9.240234,-13.8752,0.7677155,231.4709,217.7805,25,-0.1029224,-0.4147972,0.1693629,1.518632,-0.009331851,0.6334404,0.02423392,-0.1613598,0.02101071,0.2286975,-0.04766619,0.0972968,0.0.0.0,10.181.213.137,1,0
2014-11-19 11:06:14.413,49,49,37.43158,-122.1799,31.52792,7.86,155.1533,3,10,1416423973,0.04940796,-0.6244812,-0.9907837,7.705536,-12.36949,-1.770645,232.9587,219.2683,25,-0.1922765,-0.201393,-0.1312091,1.485153,-0.08448534,0.6395476,-0.3905531,-0.273456,-0.1253343,0.1343427,0.00120572,-0.1748307,0.0.0.0,10.181.213.137,1,0
2014-11-19 11:06:15.413,50,50,37.43149,-122.1798,31.40094,8.64,155.1533,3,10,1416423974,-0.05345154,-0.557251,-0.9571838,7.722595,-17.86193,0.4839325,222.5325,208.8421,25,0.3247448,0.4106062,-0.1966065,1.552109,-0.08106484,0.5847115,0.1720577,0.4280495,-0.1764764,-0.0107692,-0.0339787,-0.1774272,0.0.0.0,10.181.213.137,1,0
2014-11-19 11:06:16.414,51,51,37.43132,-122.1797,31.83939,8.88,151.6994,3,5,1416423976,-0.01358032,-0.5105896,-0.8021698,10.2973,-14.55962,0.7343597,233.1331,219.4428,25,0.2228065,0.1527382,-0.1181474,1.608045,-0.0200635,0.5869288,0.2471059,0.1881158,-0.1044623,-0.005466362,0.02777494,-0.02123613,0.0.0.0,10.181.213.137,1,0
2014-11-19 11:06:17.414,52,52,37.43132,-122.1797,31.83939,8.88,151.6994,3,5,1416423976,0.13974,-0.5048828,-0.747406,8.19989,-14.06342,-0.4179077,228.7134,215.023,25,0.07993265,-0.1568597,0.1743862,1.584181,0.04977522,0.6149637,0.2099585,-0.02358813,0.09157967,0.09910065,0.07204602,0.06837679,0.0.0.0,10.181.213.137,1,0
2014-11-19 11:06:18.413,53,53,37.43124,-122.1796,31.97763,8.93,150.8915,3,5,1416423977,-0.0592041,-0.3993225,-0.8193207,9.615234,-12.78013,-1.30307,235.9674,222.2771,25,0.07451072,-0.114077,0.1205536,1.664091,-0.01340338,0.5341025,0.04315532,-0.05757873,0.1448667,0.0081641,0.02129102,-0.04352624,0.0.0.0,10.181.213.137,5,0
2014-11-19 11:06:19.413,54,54,37.43118,-122.1796,32.22046,8.61,150.8915,3,5,1416423978,0.1390076,-0.6031036,-0.8677673,10.87714,-14.83339,5.276825,230.9495,217.2592,25,-0.4886147,-0.1041616,0.3072686,1.536707,0.01892792,0.7667925,-0.3727095,-0.02874307,0.1893464,0.1672783,0.143124,-0.0742549,0.0.0.0,10.181.213.137,1,0
2014-11-19 11:06:20.415,55,55,37.43111,-122.1796,32.55597,8.24,150.8915,3,5,1416423979,0.04882812,-0.4964752,-0.8209686,9.222992,-14.23452,1.819885,228.4542,214.7638,25,0.2201992,0.08053319,0.007555122,1.619217,0.01561115,0.5696362,0.1978897,0.03145349,0.06213709,-0.01615155,0.03529744,0.02044614,0.0.0.0,10.181.213.137,5,0
2014-11-19 11:06:21.419,56,56,37.43103,-122.1795,32.99011,5.43,150.8915,3,5,1416423981,-0.06692505,-0.3904114,-0.8102264,8.489746,-13.84098,2.471207,226.3076,212.6172,25,-0.1150134,0.01232484,0.375114,1.651384,-0.02124879,0.5304931,-0.0688511,0.1063997,0.3249048,-0.03410227,0.140587,0.06255827,0.0.0.0,10.181.213.137,5,0
2014-11-19 11:06:22.414,57,57,37.43102,-122.1795,33.08359,3.69,150.8915,3,5,1416423982,0.09817505,-0.2966003,-0.8400726,10.77472,-13.7041,0.6007538,233.5645,219.8741,25,-0.06354622,0.1637754,-0.1333732,1.481116,0.005798447,0.4558963,-0.02241199,0.2018584,-0.1534971,0.08175363,0.1287438,0.08612987,0.0.0.0,10.181.213.137,5,0
2014-11-19 11:06:23.413,58,58,37.43099,-122.1795,33.17709,1.47,150.8915,3,5,1416423983,-0.08944702,-0.5962982,-0.8247986,14.71368,-12.35238,0.4837952,245.0838,231.3934,25,-0.280551,0.6624813,0.6239275,1.36208,0.05098787,0.4045182,-0.2009513,0.6900764,0.7140275,-0.1469348,-0.2211244,0.1196965,0.0.0.0,10.181.213.137,5,0
2014-11-19 11:06:24.413,59,59,37.43099,-122.1795,33.17709,1.47,150.8915,3,5,1416423983,-0.06163025,-0.7843781,-0.5469055,12.99152,-13.53299,1.469101,240.7806,227.0903,25,0.05073429,-1.477909,-0.4010888,1.395273,-0.0302625,0.5447505,-0.01146154,-1.409124,-0.2993537,-0.02763432,-0.2994832,0.3136205,0.0.0.0,10.181.213.137,1,0
2014-11-19 11:06:25.413,60,60,37.43098,-122.1795,33.104,1.6,150.8915,3,5,1416423985,0.1521759,-0.5181427,-0.7111664,13.3837,-15.63758,-1.186172,240.1772,226.4868,25,0.1156342,0.523913,0.7239851,1.446643,0.03263478,0.4844874,0.1878582,0.5337601,0.7597675,0.1142231,-0.04597917,0.1839879,0.0.0.0,10.181.213.137,1,0
2014-11-19 11:06:26.414,61,61,37.43095,-122.1794,33.7998,3.69,150.8915,3,5,1416423986,0.02026367,-0.9273224,-0.5958252,13.92929,-15.05582,4.892715,240.581,226.8906,25,-0.2814706,-0.1799005,0.3023934,1.421644,0.1144664,0.8081337,-0.2209485,-0.1709824,0.3206066,-0.01260701,-0.1063619,0.1497222,0.0.0.0,10.181.213.137,1,0
2014-11-19 11:06:27.414,62,62,37.43095,-122.1794,33.7998,3.69,150.8915,3,5,1416423986,0.03858948,-0.7180939,-0.7738037,12.83804,-14.61095,4.024353,238.7218,225.0314,25,-0.1791042,-0.02736238,0.1889686,1.449993,0.07252103,0.7673013,-0.1438084,-0.124865,0.2129751,-0.02326904,-0.06499051,-0.02471999,0.0.0.0,10.181.213.137,1,0
2014-11-19 11:06:28.413,63,63,37.43087,-122.1794,33.56088,5.3,150.8915,3,5,1416423988,-0.0003814697,-0.6633148,-0.7275543,11.38861,-13.73832,1.068451,238.5927,224.9023,25,0.2688778,0.1914637,0.2769967,1.582535,0.01301241,0.6897072,0.223778,0.184609,0.27202,0.007250296,0.03806003,0.002446121,0.0.0.0,10.181.213.137,1,0
2014-11-19 11:06:29.413,64,64,37.43087,-122.1794,33.56088,5.3,150.8915,3,5,1416423988,0.03694153,-0.5175323,-0.7771759,10.80878,-15.17559,1.870071,234.1235,220.4332,25,0.114929,0.008410263,0.05643345,1.504233,0.003098277,0.650419,0.03419814,-0.08024094,0.0007190077,0.01390698,0.1145074,0.00226248,0.0.0.0,10.181.213.137,1,0
2014-11-19 11:06:30.413,65,65,37.43087,-122.1794,33.49454,5.54,150.8915,3,5,1416423989,0.1280823,-0.5638885,-0.9225769,14.18503,-15.00449,4.174667,239.3031,225.6128,25,0.08455403,0.4300094,-0.03626293,1.318178,0.2272464,0.6807074,-0.03196557,0.5111769,-0.02958965,-0.04700115,0.06545436,-0.1654288,0.0.0.0,10.181.213.137,1,0
2014-11-19 11:06:31.414,66,66,37.43087,-122.1794,33.82614,5.38,150.8915,3,5,1416423990,0.07406616,-0.5983582,-0.8244476,11.84891,-13.58432,6.729782,233.6382,219.9478,25,-0.2341236,0.00489489,0.3688028,1.454913,0.1457911,0.8378929,-0.2012286,0.07885014,0.3605686,-0.01349908,0.1835275,-0.09424704,0.0.0.0,10.181.213.137,1,0
2014-11-19 11:06:32.413,67,67,37.43073,-122.1793,34.08392,4.57,147.0833,3,5,1416423991,0.04981995,-0.5908356,-0.8980865,13.41766,-15.46647,3.990891,235.6609,221.9706,25,-0.5641633,0.7090099,-0.5896502,1.446372,0.002619576,0.6370635,-0.2202814,1.340474,-0.568543,-0.1020508,0.1096691,0.001108823,0.0.0.0,10.181.213.137,1,0
2014-11-19 11:06:33.413,68,68,37.43072,-122.1793,34.16071,2.88,147.0833,3,5,1416423992,0.01800537,-0.6459351,-0.6183777,10.97931,-15.31248,2.905441,231.6414,217.951,25,0.1453876,0.1005817,0.234478,1.495283,0.03956596,0.6317351,0.2022568,0.1405076,0.2218146,-0.006515676,-0.03358433,0.1904362,0.0.0.0,10.181.213.137,1,0
2014-11-19 11:06:34.413,69,69,37.43072,-122.1793,34.43298,0.91,147.0833,3,5,1416423993,0.02929688,-0.6955414,-0.7552948,10.9964,-15.77446,2.755112,232.6596,218.9692,25,-0.1959048,-0.1904528,-0.1300312,1.528918,0.002577364,0.7238085,-0.2060467,-0.122007,-0.1397805,0.02631283,-0.03544971,0.01163086,0.0.0.0,10.181.213.137,1,0
2014-11-19 11:06:35.414,70,70,37.43072,-122.1793,34.19714,0.47,147.0833,3,5,1416423994,0.03424072,-0.6770172,-0.5913544,9.819824,-14.38851,-0.2675934,235.8289,222.1386,25,0.6783263,-0.2644394,0.2774348,1.634589,0.008435314,0.7220037,0.7763138,-0.2283919,0.3146442,0.02072335,-0.009367836,0.1414323,0.0.0.0,10.181.213.137,1,0
2014-11-19 11:06:36.413,71,71,37.43071,-122.1793,34.19815,1.17,147.0833,3,10,1416423995,0.2490692,-0.5355682,-0.6970367,5.590973,-9.460714,-5.043854,218.107,204.4166,26,0.6322531,0.2391092,0.08057181,1.971156,0.07718051,0.7033343,0.3118411,0.5490778,-0.03264853,0.1578989,0.08311987,0.01720964,0.0.0.0,10.181.213.137,1,0
2014-11-19 11:06:37.413,72,72,37.43069,-122.1792,34.198,2.67,147.0833,3,10,1416423996,0.0909729,-0.5954285,-0.7631683,3.442383,-0.2895317,-8.216919,191.5867,177.8963,26,0.1392258,0.3795505,0.2397103,2.434414,-0.02232699,0.707669,0.08628588,0.336503,0.2207652,0.08977935,0.04612137,-0.01519722,0.0.0.0,10.181.213.137,1,0
2014-11-19 11:06:38.414,73,73,37.43068,-122.1792,33.93164,3.64,147.0833,3,10,1416423997,0.1683044,-0.6708679,-0.7558136,5.846741,5.853107,-12.77612,172.6132,158.9228,26,-0.09866426,-0.1379717,0.105055,2.715456,0.06391841,0.7106093,-0.01433754,0.02307532,0.07807312,0.1285413,-0.02746809,0.02016493,0.0.0.0,10.181.213.137,1,0
2014-11-19 11:06:39.414,74,74,37.43066,-122.1792,34.42679,5.24,66.37074,3,10,1416423998,-0.08686829,-0.6927643,-0.7146301,6.187836,9.548954,-15.18098,158.6919,145.0016,26,-0.2935863,0.07166567,-0.2283354,2.978071,-0.02348217,0.7082421,-0.2738346,0.2420546,-0.2867954,-0.09901858,-0.03022544,0.04616239,0.0.0.0,10.181.213.137,1,0
2014-11-19 11:06:40.414,75,75,37.43069,-122.1791,34.48279,6.2,68.19827,3,10,1416423999,-0.04968262,-0.7457428,-0.6678314,5.829773,9.634506,-13.92845,168.124,154.4336,26,0.02576795,0.08199846,0.2734286,2.750527,0.1536,0.7882711,0.07895878,0.1768151,0.2474227,-0.1557406,0.009352014,0.06833813,0.0.0.0,10.181.213.137,1,0
2014-11-19 11:06:41.414,76,76,37.43071,-122.179,34.48779,7.73,71.56545,3,10,1416424000,0.06028748,-0.5716705,-0.8223877,10.00745,7.803703,-15.9826,162.9025,149.2121,26,-0.04406067,0.1614414,0.2716928,2.857707,0.141228,0.7622741,-0.1670276,0.1472694,0.2712813,-0.04733253,0.07089337,-0.1758402,0.0.0.0,10.181.213.137,1,0
2014-11-19 11:06:42.413,77,77,37.43074,-122.1789,34.30957,9.05,71.56505,3,10,1416424001,-0.01753235,-0.5260468,-0.7212372,9.990356,8.436779,-16.06609,161.8719,148.1815,26,0.09196747,-0.07884421,-0.1458526,2.856498,0.1394543,0.732456,0.1017154,-0.001230286,-0.06790788,-0.1107385,0.121426,0.004672416,0.0.0.0,10.181.213.137,1,0
2014-11-19 11:06:43.413,78,78,37.43076,-122.1788,34.23047,9.57,74.63817,3,10,1416424002,0.05679321,-0.4769135,-0.8762817,10.80884,4.775162,-14.96388,169.3213,155.6309,26,-0.1357115,-0.2758026,0.08461848,2.738871,0.1502433,0.6034881,0.03159465,0.02497579,0.138381,0.01292985,0.09692158,0.03193538,0.0.0.0,10.181.213.137,1,0
2014-11-19 11:06:44.414,79,79,37.43077,-122.1787,33.83478,8.45,78.40783,3,10,1416424003,0.2081909,-0.5250702,-0.8526611,7.927155,6.263786,-13.11014,180.3846,166.6943,26,-0.07206301,0.05964522,0.3020227,2.537693,0.2363393,0.5751521,-0.08225716,0.1465154,0.2911244,0.01089337,0.03964417,-0.02235107,0.0.0.0,10.181.213.137,5,0
2014-11-19 11:06:45.414,80,80,37.43079,-122.1786,33.8111,8.34,82.23494,3,10,1416424004,0.1022339,-0.322052,-0.7766113,297.1956,42.24569,-181.2482,308.9077,295.2174,-1,-0.04172374,-0.2649323,0.3953282,2.698359,0.1312758,0.5345566,0.04832463,-0.09236065,0.3390959,0.04358158,0.1859427,0.1046623,0.0.0.0,10.181.213.137,5,0
2014-11-19 11:06:46.414,81,81,37.4308,-122.1786,33.84552,6.8,82.23494,3,10,1416424005,0.05635071,-0.4193573,-1.055344,295.337,44.00806,-183.2355,305.5207,291.8304,-1,-0.001683384,0.03310602,-0.06480403,2.732736,0.03218421,0.4200979,-0.08692196,-0.03800478,-0.06328455,0.01148235,0.03162909,-0.1801515,0.0.0.0,10.181.213.137,5,0
2014-11-19 11:06:47.413,82,82,37.4308,-122.1785,33.7778,5.28,82.23494,3,10,1416424006,-0.01165771,-0.3974152,-0.9756012,293.7341,42.12591,-183.2355,304.3544,290.664,-1,-0.02420041,-0.02047012,0.01135252,2.733029,0.05659708,0.3527085,-0.03343494,-0.007624264,0.08930209,-0.07199028,-0.0627012,-0.03573362,0.0.0.0,10.181.213.137,5,0
2014-11-19 11:06:48.413,83,83,37.43081,-122.1785,33.75189,2.57,85.91431,3,10,1416424007,-0.04594421,-0.7469177,-0.7956848,294.7572,39.83309,-185.8073,307.8145,294.1242,-1,0.5943984,0.1167503,0.3433267,2.782566,0.1426428,0.4617469,0.6739705,0.3446734,0.6644418,-0.2132248,-0.1818981,0.1803571,0.0.0.0,10.181.213.137,1,0
2014-11-19 11:06:49.414,84,84,37.43081,-122.1785,33.89993,0.45,85.91431,3,10,1416424008,0.1032562,-0.6933136,-0.687973,294.9277,37.5745,-183.2689,312.5773,298.887,-1,-0.1966049,-0.06341519,-0.07165075,2.549723,0.1196398,0.3902236,-0.1557205,0.0002986948,-0.04331214,-0.02084339,-0.310416,0.2857363,0.0.0.0,10.181.213.137,1,0
2014-11-19 11:06:50.414,85,85,37.43081,-122.1785,33.70605,0.16,85.91431,3,10,1416424009,-0.02552795,-0.630249,-0.6694641,294.8083,38.00227,-182.4506,312.7633,299.073,-1,0.0122082,-0.07215835,0.0930844,2.583251,0.0923722,0.3752244,0.04362676,-0.02526099,0.1136302,-0.1113512,-0.2637677,0.2569946,0.0.0.0,10.181.213.137,1,0
2014-11-19 11:06:51.413,86,86,37.43081,-122.1785,33.72186,0.95,85.91431,3,10,1416424010,-0.04658508,-0.705368,-0.7406311,295.2347,38.3958,-181.0979,311.9174,298.227,-1,-0.02453597,-0.1302837,0.3624067,2.613124,0.0701418,0.366506,-0.004178736,-0.106441,0.4093874,-0.1120147,-0.3470124,0.1906584,0.0.0.0,10.181.213.137,1,0
2014-11-19 11:06:52.414,87,87,37.43081,-122.1784,34.08688,2.09,85.91431,3,10,1416424011,0.09979248,-0.5569305,-0.8540497,296.2749,39.19999,-181.5489,310.3361,296.6457,-1,0.2237401,0.1961921,-0.3078167,2.631806,0.06154945,0.3647592,0.07866161,0.09212735,-0.3172196,0.01269611,-0.208919,0.03147024,0.0.0.0,10.181.213.137,1,0
2014-11-19 11:06:53.413,88,88,37.43081,-122.1784,34.12866,4.67,87.337,3,10,1416424012,0.1829834,-0.5226746,-0.7693787,297.622,39.3882,-183.9036,311.169,297.4786,-1,-0.176008,-0.2085969,-0.3979202,2.660153,0.1733486,0.38085,-0.1558554,-0.2653094,-0.4336333,-0.02091734,-0.1450139,0.1752541,0.0.0.0,10.181.213.137,1,0
2014-11-19 11:06:54.413,89,89,37.43081,-122.1783,33.7811,5.82,87.337,3,10,1416424013,0.1146851,-0.5711975,-0.7347565,296.2067,36.56498,-181.7493,312.744,299.0537,-1,0.1174015,-0.2675697,-0.04817419,2.58719,0.1124129,0.4731757,0.01411886,-0.3520803,-0.1284814,-0.05135852,-0.07571776,0.1065991,0.0.0.0,10.181.213.137,1,0
2014-11-19 11:06:55.413,90,90,37.43082,-122.1783,33.78329,7.29,87.337,3,10,1416424014,-0.1131439,-0.6681213,-0.5609589,294.1263,35.23038,-178.7767,311.8634,298.173,-1,0.01744956,-0.03982038,0.1608653,2.547782,0.09304556,0.4902194,0.2356058,0.06881716,0.1851877,-0.1627187,-0.1452084,0.2937424,0.0.0.0,10.181.213.137,1,0
2014-11-19 11:06:56.413,91,91,37.43081,-122.1781,33.56686,8.78,94.67761,3,10,1416424015,-0.004714966,-0.5881805,-0.7446899,293.5806,34.7855,-179.1107,310.7636,297.0733,-1,0.1542167,-0.06555904,-0.00895701,2.523057,0.04506924,0.537254,0.1036539,0.06140393,-0.03842942,-0.04929626,-0.07147313,0.08730979,0.0.0.0,10.181.213.137,1,0
2014-11-19 11:06:57.413,92,92,37.4308,-122.178,33.28815,9.64,95.58256,3,10,1416424016,-0.09440613,-0.6024475,-0.9315796,294.7061,35.57258,-177.6411,312.3685,298.6782,-1,-0.1287055,-0.06684348,-0.2202506,2.418367,0.02377125,0.6453538,-0.2346991,-0.1530478,-0.007649766,-0.1144477,-0.1003774,-0.09820452,0.0.0.0,10.181.213.137,1,0
2014-11-19 11:06:58.413,93,93,37.43079,-122.1779,33.48224,10.57,97.59464,3,10,1416424017,0.08705139,-0.5401459,-0.6373596,294.3991,33.96419,-174.9691,311.7885,298.0981,-1,0.08669495,0.1715022,-0.005952431,2.397496,0.03113978,0.6654054,0.1703092,0.2052231,-0.06601554,0.07471998,0.03841388,0.05654885,0.0.0.0,10.181.213.137,1,0
2014-11-19 11:06:59.413,94,94,37.43077,-122.1778,32.26828,10.59,98.75865,3,10,1416424018,0.09329224,-0.5886383,-0.7127228,295.3711,33.63909,-176.088,312.5093,298.819,-1,0.3579206,0.2165616,-0.2506916,2.367042,0.06116673,0.7210633,0.2317348,0.2216622,-0.2821677,0.03913854,0.04020386,0.01317303,0.0.0.0,10.181.213.137,1,0
2014-11-19 11:07:00.414,95,95,37.43076,-122.1777,31.61945,10.79,98.75865,3,10,1416424019,0.1806946,-0.5491486,-0.7419891,295.9166,31.65429,-175.8542,314.1405,300.4501,-1,0.03815564,-0.08120377,-0.07160095,2.316651,0.1207447,0.7010385,-0.05356999,-0.04082707,-0.1753384,0.01140882,0.1156995,0.02444757,0.0.0.0,10.181.213.137,1,0
2014-11-19 11:07:01.413,96,96,37.43074,-122.1775,31.63406,11.08,98.75865,3,10,1416424020,0.1284637,-0.4990082,-0.6465302,295.4221,33.55355,-176.2382,313.7596,300.0692,-1,0.1414083,0.1124949,0.05425818,2.312505,0.1352598,0.6753501,0.06957594,0.1077301,-0.006294189,-0.005195208,0.1484555,0.1112805,0.0.0.0,10.181.213.137,1,0
2014-11-19 11:07:02.413,97,97,37.43073,-122.1774,31.41333,11.04,100.5994,3,10,1416424021,0.1398163,-0.6602173,-0.7588501,295.7632,33.04024,-174.969,314.1888,300.4984,-1,-0.1640875,-0.1709214,0.2486034,2.291751,0.1511304,0.708522,-0.2048036,-0.1033073,0.2054312,0.08848391,0.00293086,0.05293064,0.0.0.0,10.181.213.137,1,0
2014-11-19 11:07:03.414,98,98,37.43071,-122.1773,31.11221,10.56,100.5994,3,10,1416424022,0.02140808,-0.6788483,-0.5433044,295.1152,33.75888,-175.7372,311.9532,298.2628,-1,0.7671893,0.7480106,-0.04795501,2.312845,0.07488344,0.7404872,0.9038332,1.01945,0.07392555,-0.02740604,0.04329998,0.07879899,0.0.0.0,10.181.213.137,1,0
2014-11-19 11:07:04.413,99,99,37.43068,-122.1771,30.9892,11.04,101.7684,3,10,1416424023,-0.06465149,-0.6569519,-0.7966003,295.5414,32.74937,-176.6891,314.9082,301.2179,-1,-0.4464358,-0.365216,0.5226887,2.349207,0.1146306,0.7035957,-0.3071506,-0.4091189,0.6365373,-0.01237259,-0.02666612,0.06134951,0.0.0.0,10.181.213.137,1,0
2014-11-19 11:07:05.414,100,100,37.43067,-122.177,30.47955,10.59,99.17736,3,10,1416424024,0.1515045,-0.7466125,-0.9323883,296.6499,34.40908,-177.5742,315.0943,301.4039,-1,-0.1316422,-0.4272429,0.04825408,2.419176,0.1306036,0.7130449,-0.285856,-0.3872495,0.1397074,0.1243196,-0.09184701,-0.1115946,0.0.0.0,10.181.213.137,1,0
2014-11-19 11:07:06.413,101,101,37.43065,-122.1769,29.97037,10.64,99.17736,3,10,1416424025,0.0927124,-0.6923828,-0.5768738,294.5525,34.32352,-175.9876,317.2333,303.543,-1,0.4761056,1.263079,-0.1900815,2.49859,0.07204422,0.8710546,0.2830452,0.8569868,-0.05983009,-0.1335618,0.05497133,-0.1581266,0.0.0.0,10.181.213.137,1,0
2014-11-19 11:07:07.413,102,102,37.43062,-122.1766,30.23163,10.92,99.17736,4,10,1416424027,0.07044983,-0.8738556,-0.4621277,292.3016,33.05735,-175.7539,315.4499,301.7596,-1,-0.05796317,0.4613442,0.003494067,2.619649,0.1475048,0.9469208,0.03745865,0.7093734,0.04040764,-0.03780802,-0.06432555,0.1636873,0.0.0.0,10.181.213.137,1,0
2014-11-19 11:07:08.413,103,103,37.43062,-122.1766,30.23163,10.92,99.17736,4,10,1416424027,-0.1017151,-0.7732239,-0.5125885,293.6828,35.26461,-179.0104,312.9509,299.2605,-1,-0.07424068,-0.2714454,0.07803435,2.6559,0.0882149,0.9365489,0.01376456,-0.1447752,0.1384293,-0.119665,0.02284884,0.05022821,0.0.0.0,10.181.213.137,1,0
2014-11-19 11:07:09.413,104,104,37.4306,-122.1764,28.44925,10.71,95.58717,3,10,1416424029,0.0009765625,-0.3783264,-0.9328003,294.1432,36.44523,-179.0605,311.7117,298.0213,-1,0.0033175,-0.07415865,0.02782897,2.392146,0.03110773,0.4464429,0.04489611,-0.1105487,0.03431567,-0.02498728,0.07742023,-0.02787588,0.0.0.0,10.181.213.137,5,0
2014-11-19 11:07:10.414,105,105,37.4306,-122.1763,28.16818,10.22,95.58717,3,10,1416424030,0.1122437,-0.5455475,-0.7975006,-11.44913,-9.121819,-11.3403,109.2386,95.54823,25,0.2815627,0.160122,0.2208269,2.330262,0.09624727,0.5944343,0.2494613,0.2885758,0.1340385,0.04775063,0.07162158,0.07966656,0.0.0.0,10.181.213.137,1,0
2014-11-19 11:07:11.413,106,106,37.4306,-122.1763,28.16818,10.22,95.58717,3,10,1416424030,0.04632568,-0.556427,-0.6543884,-12.42004,-6.435841,-12.02466,101.3949,87.70451,25,-0.05733999,0.2089215,0.4860506,2.435056,0.07952138,0.5708004,0.108961,0.1124156,0.639492,-0.03856973,0.04715691,0.2300297,0.0.0.0,10.181.213.137,5,0
2014-11-19 11:07:12.412,107,107,37.43058,-122.1762,27.716,10.21,99.5017,3,10,1416424031,0.1384888,-0.4586639,-0.8896027,-13.32278,-5.494888,-9.571014,97.54819,83.85782,25,0.4768659,0.3208758,-0.4447801,2.575742,-0.103362,0.6306451,0.181217,0.4747458,-0.5423539,0.2218203,0.1310019,-0.08626587,0.0.0.0,10.181.213.137,1,0
2014-11-19 11:07:13.413,108,108,37.43056,-122.1761,27.43875,9.93,99.5017,3,10,1416424032,-0.03373718,-0.4788055,-1.079758,-12.35181,-5.991028,-9.153702,102.9646,89.27419,25,-0.4779477,0.3200523,-0.113791,2.565039,-0.09247312,0.5298654,-0.8471591,0.1593274,0.007357414,-0.06646959,0.02302581,-0.2149998,0.0.0.0,10.181.213.137,1,0
2014-11-19 11:07:14.414,109,109,37.43053,-122.1758,27.61343,9.04,99.5017,3,10,1416424034,-0.1490479,-0.4065399,-0.9505463,-12.76053,-4.074924,-9.55426,97.61233,83.92196,25,-0.2913,0.3644051,-0.5438604,2.606303,-0.06710789,0.5146345,-0.2709875,0.3972277,-0.5046641,-0.01557234,0.03217949,-0.09738326,0.0.0.0,10.181.213.137,5,0
2014-11-19 11:07:15.413,110,110,37.43052,-122.1758,27.56805,7.43,99.5017,3,10,1416424035,0.005279541,-0.3338165,-0.9308624,-11.12527,-1.850883,-12.79239,93.16318,79.47281,25,0.2350479,0.01573955,0.07993478,2.66862,0.03570056,0.3850319,0.2931263,0.177773,0.177506,0.01466499,0.05393343,-0.04227944,0.0.0.0,10.181.213.137,5,0
2014-11-19 11:07:16.412,111,111,37.43052,-122.1757,27.59821,6.16,99.5017,3,10,1416424036,0.003799438,-0.44133,-0.8494568,-12.02802,-4.194695,-11.5739,99.45818,85.76781,25,0.1850388,-0.04179086,0.03262426,2.557877,-0.0349758,0.4600462,0.1778605,-0.03401683,0.05357448,0.05118473,9.606619e-05,0.02085019,0.0.0.0,10.181.213.137,5,0
2014-11-19 11:07:17.413,112,112,37.43051,-122.1756,27.52859,5.79,102.2883,3,10,1416424037,0.007217407,-0.2950439,-0.8898621,-11.34662,-5.050087,-12.07462,100.0033,86.31295,25,-0.2665587,-0.1344388,-0.05840339,2.54506,-0.02085055,0.4656141,-0.2722517,-0.09130358,-0.06905071,0.02334454,0.1407135,0.02241065,0.0.0.0,10.181.213.137,5,0
2014-11-19 11:07:18.413,113,113,37.4305,-122.1756,27.18384,4.25,102.2883,3,10,1416424038,0.1126862,-0.3229523,-1.045166,-10.63116,-4.571056,-11.84097,102.9888,89.29839,25,-0.01501517,-0.05051591,-0.05472583,2.522185,0.0634599,0.3996616,-0.1357776,0.09545947,-0.0365569,0.04118981,0.06212605,-0.09880426,0.0.0.0,10.181.213.137,5,0
2014-11-19 11:07:19.413,114,114,37.4305,-122.1756,27.36551,1.98,102.2883,3,10,1416424039,-0.3011627,-0.480072,-0.7757721,-13.646,-5.717319,-4.914093,109.5549,95.86454,25,-0.626869,1.060849,-0.05875013,2.541516,-0.2580657,0.5544186,-0.5321605,0.9528332,-0.04385737,-0.0798931,0.05951486,0.07414291,0.0.0.0,10.181.213.137,5,0
2014-11-19 11:07:20.413,115,115,37.4305,-122.1756,27.6044,0.52,102.2883,3,10,1416424040,-0.07365417,-0.6030121,-0.6605988,-10.35849,-6.452961,-9.337402,105.3621,91.67176,25,-0.174583,-0.278548,0.4338862,2.474105,0.01211438,0.5774158,-0.05620044,-0.0710337,0.3730897,0.08923039,-0.04639408,0.2382052,0.0.0.0,10.181.213.137,1,0
2014-11-19 11:07:21.413,116,116,37.4305,-122.1756,27.46045,0.31,102.2883,3,10,1416424041,-0.01345825,-0.5677032,-0.842865,-11.55075,-4.571072,-9.470886,97.96582,84.27545,25,0.1535296,-0.2981995,-0.04843544,2.53024,-0.04162033,0.5341259,0.1308477,-0.01569515,-0.07649143,-0.006026745,-0.02747115,0.06393279,0.0.0.0,10.181.213.137,1,0
2014-11-19 11:07:22.414,117,117,37.4305,-122.1756,27.43518,0.36,102.2883,3,10,1416424042,-0.04754639,-0.5722809,-0.7933807,-11.32922,-5.169853,-10.05505,97.67451,83.98415,25,0.003538809,-0.07163025,0.008241951,2.529582,-0.05484397,0.5989159,0.01921461,0.004231912,0.004648887,-0.01171606,0.01148601,0.04647667,0.0.0.0,10.181.213.137,1,0
2014-11-19 11:07:23.413,118,118,37.4305,-122.1756,27.43518,0.36,102.2883,3,10,1416424042,-0.04104614,-0.5320587,-0.8150635,-11.48257,-4.297352,-10.53908,96.2277,82.53733,25,-0.09412757,0.02496341,0.01920459,2.529343,-0.04894695,0.5776221,-0.1037384,0.07540718,0.008691198,0.007206635,0.008954464,0.05390793,0.0.0.0,10.181.213.137,1,0
2014-11-19 11:07:24.413,119,119,37.4305,-122.1756,26.97668,0,102.2883,3,10,1416424044,-0.04605103,-0.5784302,-0.7008514,-10.97162,-4.913235,-10.43889,92.8437,79.15334,25,0.03927151,0.02977068,0.03943849,2.53475,-0.04717852,0.6082429,0.09913896,0.07205655,0.007984261,0.01376999,0.008514342,0.1061477,0.0.0.0,10.181.213.137,1,0
2014-11-19 11:07:25.413,120,120,37.4305,-122.1756,26.88043,0.15,102.2883,3,10,1416424045,-0.05607605,-0.5518951,-0.8027954,-11.32925,-4.246029,-11.15663,90.79087,77.1005,25,-0.08037314,-0.1089078,0.08376148,2.54702,-0.02750822,0.5732715,-0.03268679,-0.01226737,0.0240992,0.002096242,-0.001149856,0.00715634,0.0.0.0,10.181.213.137,1,0
2014-11-19 11:07:26.413,121,121,37.4305,-122.1756,26.83258,0.38,102.2883,3,10,1416424046,-0.07705688,-0.6361084,-0.8296509,-11.58478,-4.707939,-11.5405,89.14894,75.45857,25,-0.1045448,0.1592448,-0.1273606,2.53215,-0.04729035,0.5734217,-0.1506433,0.1624441,-0.1405938,-0.04923204,-0.07951497,0.02119359,0.0.0.0,10.181.213.137,1,0
2014-11-19 11:07:27.414,122,122,37.43049,-122.1755,26.7637,1.79,102.2883,3,10,1416424047,0.2235107,-0.5329742,-0.8315887,-11.51654,-5.700214,-10.6725,93.96019,80.26982,25,0.4699747,0.1203067,-0.5749515,2.39518,-0.004498975,0.6377863,0.417224,0.1474338,-0.6522212,0.1762677,0.06419893,-0.11479,0.0.0.0,10.181.213.137,1,0
2014-11-19 11:07:28.414,123,123,37.43048,-122.1755,27.02316,2.81,102.2883,3,10,1416424048,-0.01890564,-0.7000732,-0.7687073,-9.455414,-8.078247,-10.72258,94.06844,80.37807,25,-0.1769647,-0.2544102,0.006217416,2.44911,0.01959005,0.766007,-0.1427119,-0.2226716,0.01887523,-0.03566276,-0.005772554,-0.01785701,0.0.0.0,10.181.213.137,1,0
2014-11-19 11:07:29.413,124,124,37.43047,-122.1754,27.431,3.53,102.2883,3,10,1416424049,0.1017914,-0.6191864,-0.8174744,-10.59677,-8.471741,-11.54045,96.41638,82.72601,25,0.00620916,-0.00780972,0.0896199,2.433687,0.02449466,0.7327288,-0.04203051,0.0162466,0.05428675,0.04673508,0.09957989,-0.06702125,0.0.0.0,10.181.213.137,1,0
2014-11-19 11:07:30.413,125,125,37.43047,-122.1754,27.431,3.53,102.2883,3,10,1416424049,-0.04321289,-0.6643982,-0.6478271,-10.80121,-8.095352,-11.13985,97.95978,84.26941,25,-0.05719858,0.0959489,-0.1605601,2.452385,0.002785202,0.734782,0.1266055,0.2101331,-0.04678571,-0.03290457,0.02186589,0.06628431,0.0.0.0,10.181.213.137,1,0
2014-11-19 11:07:31.413,126,126,37.43047,-122.1754,27.22919,4.1,102.2883,3,10,1416424050,-0.3017273,-0.7613525,-0.8751831,-10.76706,-8.232231,-10.4722,100.9616,87.27119,25,-0.3843269,0.02201262,0.1312326,2.493656,-0.0511735,0.7290584,-0.408397,0.1081942,0.323952,-0.259474,-0.1111303,-0.03479165,0.0.0.0,10.181.213.137,1,0
2014-11-19 11:07:32.413,127,127,37.43046,-122.1754,27.08725,6.43,102.2883,3,10,1416424051,-0.1829681,-0.6823578,-0.8302155,-13.16879,-7.941387,-10.22188,101.1416,87.45126,25,-0.05797648,0.4601253,0.004711665,2.52528,-0.08993239,0.7243152,0.04035918,0.4954742,-2.706112e-05,-0.1406061,-0.06541985,-0.1155693,0.0.0.0,10.181.213.137,1,0
2014-11-19 11:07:33.414,128,128,37.43044,-122.1752,27.30505,6.87,104.1053,3,10,1416424052,-0.2844086,-0.6228638,-1.007141,-13.62869,-7.616344,-16.54793,93.16821,79.47784,25,-0.2877519,-0.760647,-0.402515,2.532779,-0.03358741,0.6190817,-0.6028566,-1.034056,-0.04374496,-0.3588969,-0.06396907,-0.3420993,0.0.0.0,10.181.213.137,1,0
2014-11-19 11:07:34.413,129,129,37.4304,-122.1751,27.75516,7.45,102.0509,3,10,1416424054,-0.002868652,-0.5401001,-0.8594055,-8.552673,-7.411049,-18.55083,85.41648,71.72611,25,-0.1957085,0.2211436,0.6912804,2.671074,0.0869587,0.6461267,-0.1447907,0.1562466,0.7174385,-0.07221091,0.06199835,-0.06400052,0.0.0.0,10.181.213.137,5,0
2014-11-19 11:07:35.413,130,130,37.43039,-122.175,27.79974,7.27,100.3818,3,10,1416424055,0.005340576,-0.4800568,-0.8791962,-15.62158,-6.299019,-14.595,87.653,73.96263,25,-0.1598794,-0.4934808,-0.2202527,2.639359,-0.07355184,0.6827419,-0.1681612,-0.5565448,-0.1899099,0.07208913,0.06622543,-0.1048378,0.0.0.0,10.181.213.137,1,0
2014-11-19 11:07:36.413,131,131,37.43037,-122.1749,27.72278,7.89,100.3818,3,10,1416424056,0.04217529,-0.5134888,-0.8126221,-15.33215,0.2533875,-17.14873,71.97835,58.28798,25,-0.131488,-0.2774857,-0.2878472,2.839287,-0.0628616,0.5892009,-0.0368817,-0.2560485,-0.322376,-0.02247925,0.04176556,0.09135485,0.0.0.0,10.181.213.137,1,0
2014-11-19 11:07:37.413,132,132,37.43037,-122.1749,27.72278,7.89,100.3818,3,10,1416424056,0.04275513,-0.2680359,-1.166718,-15.70685,-0.9783821,-12.64209,86.00237,72.312,25,-0.2017795,-0.09136134,0.1731332,2.605467,-0.05147983,0.427545,-0.5990087,-0.3187885,0.0857192,0.11314,0.04201835,-0.2277853,0.0.0.0,10.181.213.137,5,0
2014-11-19 11:07:38.413,133,133,37.43036,-122.1748,27.5065,8.36,94.61053,3,10,1416424057,0.05532837,-0.490387,-1.010773,-12.14676,0.4415817,-16.29749,71.01378,57.32341,25,-0.1233795,-0.5935686,0.06708343,2.785843,0.02569648,0.5121225,-0.244044,-0.5789067,0.09542032,0.08035536,-0.03894789,-0.17773,0.0.0.0,10.181.213.137,5,0
2014-11-19 11:07:39.413,134,134,37.43036,-122.1747,27.38159,8.72,90,3,10,1416424058,-0.1341858,-0.4806061,-0.9604797,-12.26596,2.819611,-17.78299,63.34265,49.65228,25,-0.01070378,0.1681887,0.09018422,2.951091,0.02514545,0.5261554,-0.2187342,-0.08086336,0.3824428,-0.1712477,-0.07443248,-0.1372686,0.0.0.0,10.181.213.137,5,0
2014-11-19 11:07:40.413,135,135,37.43037,-122.1745,27.06885,8.42,75.96376,3,10,1416424060,0.1481934,-0.4179382,-0.7802734,-10.08563,3.538158,-17.68279,58.25242,44.56205,25,0.03113395,0.04331978,0.01352486,2.964711,0.05812594,0.530947,0.09010278,0.2709059,-0.1165526,0.06339947,0.1103694,0.104585,0.0.0.0,10.181.213.137,5,0
2014-11-19 11:07:41.413,136,136,37.43037,-122.1745,27.06885,8.42,75.96376,3,10,1416424060,0.179306,-0.5243988,-0.81427,-7.717957,0.9548416,-17.56593,52.84386,39.15348,25,-0.2877074,-0.004867992,-0.2139205,2.927715,0.1207894,0.6332868,-0.2153609,-0.002186545,-0.2506194,0.05535097,0.07048091,0.004559136,0.0.0.0,10.181.213.137,1,0
2014-11-19 11:07:42.413,137,137,37.43043,-122.1743,26.33771,7.56,65.6375,3,10,1416424062,0.08728027,-0.5285645,-0.8641357,-8.7229,3.469711,-16.64792,50.48805,36.79768,25,0.159832,0.1573888,0.0208126,3.089477,0.004342102,0.5858346,0.09145214,-0.05500656,0.07506838,-0.06883411,0.08797498,-0.01571018,0.0.0.0,10.181.213.137,1,0
2014-11-19 11:07:43.413,138,138,37.43043,-122.1743,26.33771,7.56,65.6375,3,10,1416424062,0.06526184,-0.5540009,-0.7476959,-7.155762,4.290901,-17.51588,38.97264,25.28227,25,-0.9768746,0.5452503,0.9881984,-3.05366,-0.04150995,0.6248094,-0.8181654,0.6508937,0.854408,0.139493,0.05143443,0.1463287,0.0.0.0,10.181.213.137,1,0
2014-11-19 11:07:44.413,139,139,37.43047,-122.1742,26.41235,7.22,60.35027,3,10,1416424063,-0.2022247,-0.5964966,-0.9547424,-2.812195,7.661182,-19.16832,22.4902,8.799827,25,0.1086455,-0.0595861,0.08154333,-2.825879,-0.0491789,0.5459681,0.1943588,-0.07723612,0.2253162,-0.1281077,-0.04885432,-0.02848832,0.0.0.0,10.181.213.137,1,0
2014-11-19 11:07:45.414,140,140,37.43051,-122.1741,26.52859,7.44,56.65942,3,10,1416424064,0.1582642,-0.5596313,-0.644989,-2.113861,5.727974,-19.61897,19.42748,5.737106,25,-0.007383614,-0.2365414,0.02033803,-2.889472,0.006164219,0.6788678,0.2540556,0.1263767,-0.06073838,0.1910033,0.07888574,0.1471353,0.0.0.0,10.181.213.137,1,0
2014-11-19 11:07:46.414,141,141,37.43056,-122.174,26.47876,7.57,48.36641,3,10,1416424065,0.03990173,-0.5349884,-0.6565857,0.2537842,4.923882,-20.60374,12.01892,358.3286,25,0.3524632,0.3649332,-0.09182792,-2.77057,-0.00769132,0.6685408,0.2806985,0.4101966,-0.09364715,0.02837439,0.03587244,0.002873939,0.0.0.0,10.181.213.137,1,0
2014-11-19 11:07:47.413,142,142,37.43061,-122.174,26.29379,7.45,42.92989,3,10,1416424066,-0.01715088,-0.5558167,-0.8045959,0.1686707,6.412289,-22.55658,8.362947,354.6726,25,0.1651669,0.2788071,-0.2405378,-2.658532,-0.07740827,0.6295137,0.1060342,0.2085447,-0.1912052,-0.01393882,-0.02660469,-0.09320024,0.0.0.0,10.181.213.137,1,0
2014-11-19 11:07:48.414,143,143,37.43066,-122.1739,26.20667,7.06,39.09395,3,10,1416424067,-0.1787872,-0.5203552,-0.8294067,6.692474,6.703129,-22.47308,351.8989,338.2085,25,0.0317795,0.1076745,-0.682206,-2.407148,-0.02631367,0.5598641,-0.05606823,0.1919659,-0.446527,-0.2589563,-0.04833569,-0.01885654,0.0.0.0,10.181.213.137,1,0
2014-11-19 11:07:49.413,144,144,37.43068,-122.1739,26.138,7.22,39.09395,3,10,1416424068,-0.079422,-0.4281921,-0.82341,5.261749,7.113724,-21.23792,354.694,341.0037,25,0.3144802,0.1660204,-0.02810993,-2.420676,-0.05669541,0.5782647,0.2960289,0.1865297,0.02185182,-0.04045388,0.09268364,-0.02419314,0.0.0.0,10.181.213.137,5,0
2014-11-19 11:07:50.413,145,145,37.43068,-122.1739,26.17157,6.92,39.09395,3,10,1416424069,-0.07887268,-0.4213562,-1.218948,8.378937,6.206997,-21.02089,346.2928,332.6025,25,0.08201258,-0.4037557,0.5283334,-2.333395,-0.05001706,0.5640758,-0.1809053,-0.3251954,0.5634663,-0.01651064,0.1117072,-0.4245895,0.0.0.0,10.181.213.137,5,0
2014-11-19 11:07:51.414,146,146,37.43081,-122.1738,26.44479,7.12,18.97041,3,10,1416424070,0.001098633,-0.3456879,-0.8284302,7.970215,7.199261,-20.18634,344.4847,330.7944,25,-0.02047731,0.08871736,-0.001323857,-2.362464,-0.02858384,0.4988953,-0.03853584,0.08358002,-0.1366075,0.0572314,0.1364911,-0.03455482,0.0.0.0,10.181.213.137,5,0
2014-11-19 11:07:52.413,147,147,37.43091,-122.1738,26.43243,3.77,17.60469,3,10,1416424072,-0.1624908,-0.3456879,-1.018982,8.021332,8.174416,-20.23636,344.9688,331.2784,25,-0.2192394,-0.5344623,-0.3989005,-2.420728,-0.03486217,0.4230408,-0.2566165,-0.5070676,-0.4487576,-0.1243302,0.1178562,-0.06078567,0.0.0.0,10.181.213.137,5,0
2014-11-19 11:07:53.414,148,148,37.43093,-122.1738,26.52402,1.28,17.60469,3,10,1416424073,0.03733826,-0.4103241,-0.9835968,2.383209,8.670551,-20.18631,2.94272,349.2523,25,-1.226831,0.7001405,0.0950413,-2.737492,-0.03543212,0.4603616,-1.237682,0.2743282,-0.05730997,0.09115443,-0.03712747,0.06174196,0.0.0.0,10.181.213.137,1,0
2014-11-19 11:07:54.414,149,149,37.43093,-122.1738,26.99231,0.25,17.60469,4,10,1416424074,-0.02671814,-0.5549622,-0.8347473,7.152649,8.944271,-20.01942,350.2335,336.5432,25,-0.001179248,-0.1697169,0.2146058,-2.563959,0.00569196,0.4237891,-0.01638114,-0.181544,0.2289482,-0.03788799,-0.1503824,0.09168308,0.0.0.0,10.181.213.137,1,0
2014-11-19 11:07:55.413,150,150,37.43093,-122.1738,27.14258,0.8,17.60469,3,10,1416424075,0.05375671,-0.7044678,-0.7897339,7.936279,8.533653,-20.85399,355.1312,341.4408,25,0.1088599,0.1254522,-0.04842905,-2.657959,0.1004157,0.5862891,0.06150956,0.06660866,-0.03541642,-0.02974905,-0.1511941,0.03906949,0.0.0.0,10.181.213.137,1,0
2014-11-19 11:07:56.413,151,151,37.43094,-122.1738,27.01758,1.18,17.60469,3,10,1416424076,0.003570557,-0.8249664,-0.5548248,9.844177,8.088852,-19.88586,354.4476,340.7572,25,0.0004801679,-0.2276617,0.3883336,-2.697207,0.1158058,0.7053216,0.01684676,-0.1973545,0.4149974,-0.09138066,-0.1050477,0.1630415,0.0.0.0,10.181.213.137,1,0
2014-11-19 11:07:57.414,152,152,37.43098,-122.1738,26.9137,3.14,15.23626,3,10,1416424077,0.1332855,-0.5556946,-0.736557,14.78397,13.7003,-13.30948,340.7634,327.073,25,0.07747242,-0.05990301,-0.03589116,-2.77483,0.2621033,0.6607977,0.1329923,-0.02650445,0.04837081,-0.1084246,0.04099291,0.01375981,0.0.0.0,10.181.213.137,1,0
2014-11-19 11:07:58.413,153,153,37.431,-122.1738,26.38501,3.83,15.23626,3,10,1416424078,0.02798462,-0.545517,-0.9250183,9.060822,8.704739,-18.98459,355.3213,341.6309,25,-0.2137893,-0.06884272,0.06380934,-2.611605,0.2081973,0.5577331,-0.4227809,-0.2561222,0.119842,-0.1473884,-0.01625281,-0.09488353,0.0.0.0,10.181.213.137,1,0
2014-11-19 11:07:59.413,154,154,37.431,-122.1738,26.38501,3.83,15.23626,3,10,1416424078,0.05836487,-0.3330994,-0.6893463,10.90045,7.267666,-17.31543,344.3145,330.6242,25,0.02373995,-0.4759255,-0.1701416,-2.582435,0.1432565,0.6346455,0.2117143,0.1659828,-0.2175432,0.1300274,-0.1122318,0.04659038,0.0.0.0,10.181.213.137,1,0
2014-11-19 11:08:00.413,155,155,37.4311,-122.1737,26.53427,5.79,15.23626,3,10,1416424080,0.1895905,-0.6377716,-0.805603,7.868561,11.98948,-18.584,358.1804,344.49,25,0.1348406,0.02253301,0.1049592,-2.666884,0.1728587,0.6318742,0.1122242,0.015003,0.06267235,0.09976607,-0.04497722,-0.02404278,0.0.0.0,10.181.213.137,1,0
2014-11-19 11:08:01.413,156,156,37.4311,-122.1737,26.53427,5.79,15.23626,3,10,1416424080,-0.1335907,-0.7651215,-0.5037537,5.026794,5.911568,-21.67108,358.9314,345.241,25,0.2866845,-0.2982807,0.2058544,-2.57683,-0.05623462,0.8385325,0.3445837,-0.4659825,0.2828147,-0.0783449,0.0160017,0.1313957,0.0.0.0,10.181.213.137,1,0
2014-11-19 11:08:02.413,157,157,37.43122,-122.1737,26.52484,7.72,15.23626,3,10,1416424082,0.2474976,-0.6685638,-0.6865387,5.895386,5.791832,-22.45543,359.6837,345.9933,25,-0.1913345,-0.1741169,0.2097165,-2.62864,0.03922239,0.8274275,-0.12219,-0.03904994,0.1332839,0.1917849,0.09144793,0.06245132,0.0.0.0,10.181.213.137,1,0
2014-11-19 11:08:03.413,158,158,37.43122,-122.1737,26.52484,7.72,15.23626,3,10,1416424082,0.1577911,-0.8027954,-0.7368011,10.80005,2.028725,-19.91881,346.8067,333.1163,25,-0.3295015,0.1139561,-0.1409744,-2.510882,0.1596666,0.8532935,-0.3449145,0.314647,-0.09347885,0.04458801,-0.004713487,-0.05315902,0.0.0.0,10.181.213.137,1,0
2014-11-19 11:08:04.413,159,159,37.43129,-122.1737,26.53079,7.98,15.14097,3,10,1416424083,0.07655334,-0.7627106,-0.9571533,11.14075,2.302406,-20.85339,342.9262,329.2358,25,0.1248346,0.2242861,-0.1857928,-2.424481,0.07661705,0.7688295,-0.2404978,0.1760162,-0.1939617,-0.005970982,-0.05443088,-0.2528354,0.0.0.0,10.181.213.137,1,0
2014-11-19 11:08:05.413,160,160,37.43137,-122.1736,26.75748,8.14,15.14097,3,10,1416424084,0.1259308,-0.7637329,-0.7226257,11.31107,0.8313866,-20.45288,341.7605,328.0702,25,-0.3765547,-0.05599296,0.1910475,-2.44427,0.1146428,0.8049687,-0.2991538,0.05254767,0.09141087,0.09965099,0.03216454,0.1101995,0.0.0.0,10.181.213.137,1,0
2014-11-19 11:08:06.413,161,161,37.43145,-122.1736,26.4075,8.75,15.14097,3,10,1416424085,0.1201477,-0.6412201,-0.6915588,11.39612,2.456364,-19.20126,340.4925,326.8021,25,0.2222245,0.3131483,-0.1772139,-2.424486,0.0776713,0.7854622,-0.05939486,0.01049154,-0.1389211,-0.008873193,0.1032245,-0.04612309,0.0.0.0,10.181.213.137,1,0
2014-11-19 11:08:07.413,162,162,37.43154,-122.1736,26.50726,8.73,15.14097,3,10,1416424086,0.08918762,-0.6873932,-0.8829956,12.17947,2.422153,-20.76993,340.7576,327.0673,25,0.2474191,0.1061949,0.1544367,-2.426754,0.08309231,0.7725724,-0.07855609,-0.005399712,0.1643122,0.04049439,0.06051325,-0.2054511,0.0.0.0,10.181.213.137,1,0
2014-11-19 11:08:08.413,163,163,37.43162,-122.1735,26.51099,8.83,15.14097,3,10,1416424087,0.156662,-0.6921234,-0.7153473,11.4982,1.874786,-20.26929,339.4995,325.8091,25,-0.0617659,-0.108809,0.03533322,-2.402726,0.06206285,0.7455982,0.1828814,0.2000264,-0.08594196,0.08773357,0.06729693,0.02381033,0.0.0.0,10.181.213.137,1,0
2014-11-19 11:08:09.413,164,164,37.4317,-122.1735,26.55771,8.55,15.14097,3,10,1416424088,0.160141,-0.6162109,-1.036148,12.07718,2.182678,-20.73662,340.7078,327.0174,25,-0.565698,-0.1412708,-0.1133708,-2.426015,0.1190045,0.7168005,-0.4857857,-0.1016942,-0.1378621,0.08340531,0.001366749,-0.0244461,0.0.0.0,10.181.213.137,1,0
2014-11-19 11:08:10.414,165,165,37.43175,-122.1735,26.45627,7.82,15.75117,3,10,1416424089,0.1952515,-0.6737976,-0.7613068,11.75366,2.268204,-20.15253,339.6347,325.9443,25,0.1746789,0.1403907,-0.2263953,-2.415713,0.1044566,0.706908,0.1592047,0.3532803,-0.3266695,0.00766289,-0.007145662,-0.08182927,0.0.0.0,10.181.213.137,1,0
2014-11-19 11:08:11.413,166,166,37.43182,-122.1735,26.47592,7.68,14.57422,3,10,1416424090,0.1142731,-0.5720978,-0.6276398,12.67334,1.891888,-19.45161,336.0085,322.3182,25,0.3425044,0.2611166,-0.1663365,-2.393568,0.07578438,0.7029943,0.3138566,0.3349358,-0.1555484,-0.004279255,0.06856312,-0.03267601,0.0.0.0,10.181.213.137,1,0
2014-11-19 11:08:12.414,167,167,37.43189,-122.1734,26.90335,7.69,14.57422,3,10,1416424091,0.08056641,-0.6395721,-0.5795441,12.91183,2.541882,-18.98436,337.2902,323.5998,25,0.1964854,0.1215821,0.08059125,-2.405617,0.1084406,0.7213848,0.2642542,0.2541541,0.07107701,-0.0112451,0.05224033,0.1435607,0.0.0.0,10.181.213.137,1,0
2014-11-19 11:08:13.414,168,168,37.43196,-122.1734,27.29138,7.98,14.57422,3,10,1416424092,-0.04159546,-0.7378693,-1.078293,12.23065,1.13929,-19.25136,338.2215,324.5311,25,-0.2017014,-0.52113,0.7084855,-2.401414,0.1068583,0.7434535,-0.6250443,-0.6237424,0.7818678,-0.03865661,-0.04144278,-0.2790344,0.0.0.0,10.181.213.137,1,0
2014-11-19 11:08:14.414,169,169,37.43203,-122.1734,27.30856,7.95,14.40403,3,10,1416424093,-0.1400909,-0.6209412,-0.7559052,9.880493,1.378765,-20.48631,341.9165,328.2261,25,0.1346968,0.01211738,0.01174134,-2.337342,0.03589161,0.7446684,-0.03201689,-0.1466445,0.1529641,-0.1673618,0.008538602,-0.1067594,0.0.0.0,10.181.213.137,1,0
2014-11-19 11:08:15.413,170,170,37.43209,-122.1734,27.81647,7.61,14.40403,3,10,1416424094,0.1383972,-0.6242371,-0.7405853,9.250305,1.156403,-20.77,346.08,332.3896,25,0.02365473,-0.03550233,0.2505619,-2.377626,0.08012588,0.7480608,-0.009676521,0.01901936,0.187783,0.1399382,0.1015748,0.0128536,0.0.0.0,10.181.213.137,1,0
2014-11-19 11:08:16.413,171,171,37.43214,-122.1734,27.62338,6.88,14.40403,3,10,1416424095,0.007369995,-0.5017242,-0.6355743,8.705322,0.6774788,-20.00233,344.9547,331.2643,25,0.304333,0.1816334,0.01701147,-2.357121,0.07026233,0.7098824,0.3713142,0.3016165,0.001926771,-0.04370908,0.04574174,-0.04233722,0.0.0.0,10.181.213.137,1,0
2014-11-19 11:08:17.414,172,172,37.43219,-122.1733,27.94623,5.75,14.40403,3,10,1416424096,0.1839752,-0.5529633,-0.9238129,9.403564,1.994553,-20.75337,346.3992,332.7089,25,0.05406457,0.06797665,-0.09834362,-2.37375,0.1068485,0.6436232,-0.003081751,0.0894395,-0.1315998,0.0420109,0.05244449,-0.1339412,0.0.0.0,10.181.213.137,1,0
2014-11-19 11:08:18.414,173,173,37.43223,-122.1733,27.94928,4.66,14.40403,3,10,1416424097,0.1446381,-0.5623169,-0.7548828,10.78311,2.28532,-21.07045,343.2883,329.5979,25,0.04436134,-0.002894057,0.01610893,-2.38577,0.131279,0.6021072,0.06398214,0.07227942,-0.01193616,0.02027625,0.03453523,0.06065904,0.0.0.0,10.181.213.137,1,0
2014-11-19 11:08:19.414,174,174,37.43227,-122.1733,28.05365,3.14,14.40403,3,10,1416424098,0.1298523,-0.5810699,-0.8036804,10.22119,2.336624,-21.02037,343.7835,330.0931,25,0.01343671,0.02423503,-0.01780217,-2.381574,0.1245819,0.610655,-0.01184237,0.02529713,-0.02571334,0.02405174,-0.003759549,-0.01053276,0.0.0.0,10.181.213.137,1,0
2014-11-19 11:08:20.413,175,175,37.43229,-122.1733,27.9953,2.56,14.40403,3,10,1416424099,-0.02464294,-0.6691132,-0.706131,10.91949,0.9169006,-21.17049,341.2896,327.5993,25,-0.04373629,-0.162349,0.03925047,-2.351368,0.09819978,0.6598299,-0.03566238,-0.1438882,0.05205822,-0.1071563,-0.04367957,0.1069535,0.0.0.0,10.181.213.137,1,0
2014-11-19 11:08:21.413,176,176,37.43229,-122.1733,28.53046,0.57,14.40403,3,10,1416424100,0.1395264,-0.6688995,-0.5885925,12.12863,0.4208527,-20.78665,340.9621,327.2717,25,-0.08369383,-0.04259673,0.1625125,-2.405953,0.1539204,0.7519425,-0.04852915,-0.008417479,0.1161064,0.02755189,0.01415919,0.1331363,0.0.0.0,10.181.213.137,1,0
2014-11-19 11:08:22.413,177,177,37.43227,-122.1733,27.68057,0.29,14.40403,3,10,1416424101,0.06599426,-0.6860962,-0.6663055,10.56189,1.03664,-21.45421,341.3011,327.6107,25,-0.05461558,-0.05617965,-0.06583441,-2.332439,0.06963511,0.7472435,-0.05714351,0.00247614,-0.1000996,-0.003097493,-0.02739671,0.04169319,0.0.0.0,10.181.213.137,1,0
2014-11-19 11:08:23.413,178,178,37.43227,-122.1733,26.98795,0,14.40403,3,10,1416424103,0.063797,-0.7500916,-0.6693878,12.82693,2.764217,-21.60439,342.7791,329.0887,25,0.06888346,-0.04106568,0.08406348,-2.377211,0.1570993,0.7531627,-0.009845172,-0.03648336,0.09892809,-0.02235607,-0.06298351,-0.006047589,0.0.0.0,10.181.213.137,1,0
2014-11-19 11:08:24.413,179,179,37.43227,-122.1733,26.98795,0,14.40403,3,10,1416424103,0.03703308,-0.74263,-0.6142273,9.540161,3.328667,-21.05365,347.9249,334.2346,25,0.002653307,-0.204331,-0.1225363,-2.451675,0.07571588,0.798596,0.04900155,-0.1365931,-0.0826565,-0.009701944,-0.05229955,0.08604927,0.0.0.0,10.181.213.137,1,0
2014-11-19 11:08:25.413,180,180,37.43229,-122.1733,27.49762,1.25,14.40403,3,10,1416424104,-0.1157684,-0.7749329,-0.6310883,10.28958,4.218132,-21.42078,345.3538,331.6635,25,0.08519132,-0.1342172,0.2408803,-2.45356,0.008635765,0.7978979,0.02229669,-0.0617301,0.2672794,-0.04266588,-0.0237493,0.0007230804,0.0.0.0,10.181.213.137,1,0
2014-11-19 11:08:26.413,181,181,37.43231,-122.1733,27.05899,1.32,14.40403,3,10,1416424105,-0.09695435,-0.7259979,-0.7995605,11.92444,5.312851,-20.88678,340.0497,326.3593,25,-0.06521256,0.02529257,-0.08894825,-2.412187,-0.02247573,0.7621354,-0.1428308,-0.03913314,-0.02624207,-0.09836727,-0.04756943,-0.08239196,0.0.0.0,10.181.213.137,1,0
2014-11-19 11:08:27.414,182,182,37.43235,-122.1733,26.96613,2.19,14.40403,3,10,1416424107,0.07185364,-0.6813965,-0.7759552,10.71533,6.322048,-21.63774,343.2533,329.5629,25,-0.07780585,-0.002758502,-0.0392771,-2.452337,0.02059019,0.7498273,-0.006216976,0.008619638,-0.07936456,0.001137862,0.02434687,0.06922164,0.0.0.0,10.181.213.137,1,0
