time,timestamp,recordtime,lat,long,alt,speed,course,verticalAccuracy,horizontalAccuracy,locTimeStamp,accelerationX,accelerationY,accelerationZ,HeadingX,HeadingY,HeadingZ,TrueHeading,MagneticHeading,HeadingAccuracy,RotationX,RotationY,RotationZ,motionYaw,motionRoll,motionPitch,motionRotationRateX,motionRotationRateY,motionRotationRateZ,motionUserAccelerationX,motionUserAccelerationY,motionUserAccelerationZ,en0,pdp_ip0,DeviceOrientation,Activity,Activity Confidence,Activity Start,Steps,Last Step Date,State
2014-11-07 18:35:08.291,1,0.5,37.78683,-122.4112,28.22754,0,289.3359,3,30,1415414107,0.06118774,-0.4964447,-0.880127,-20.76885,35.14828,-16.14929,42.85113,29.04265,20,0.320929,0.1582157,-0.04162308,-0.06985714,0.04610599,0.4844245,0.4100965,0.1850376,-0.1620767,0.01388552,-0.02436737,-0.0001983697,0.0.0.0,10.62.21.216,5,unknown,2,2014-11-07 18:34:57.675,0,2014-11-07 18:29:52.817,0
2014-11-07 18:35:08.793,2,1,37.78683,-122.4112,28.22754,0,289.3359,3,30,1415414107,0.02153015,-0.5318298,-0.860611,-20.32398,35.18227,-19.02457,42.16839,28.35991,20,0.02662948,-0.007215036,0.09599311,-0.07120156,0.04220359,0.5188494,-0.01674374,-0.06878265,0.06373647,-0.008470584,-0.03210328,0.00789109,0.0.0.0,10.62.21.216,1,unknown,2,2014-11-07 18:34:57.675,0,2014-11-07 18:29:52.817,0
2014-11-07 18:35:09.288,3,1.5,37.78683,-122.4112,28.64868,0,289.3359,3,30,1415414108,-0.03968811,-0.5426483,-0.9340515,-19.57112,35.18229,-17.43829,41.5824,27.77391,20,0.1297945,-0.03096164,0.2177211,-0.01296329,-0.01834685,0.5240607,-0.04566683,0.05875688,0.1978703,-0.01989815,-0.05381447,-0.0424782,0.0.0.0,10.62.21.216,1,unknown,2,2014-11-07 18:34:57.675,0,2014-11-07 18:29:52.817,0
2014-11-07 18:35:09.787,4,2,37.78683,-122.4112,28.64868,0,289.3359,3,30,1415414108,-0.09764099,-0.6000824,-0.796875,-19.91333,34.3666,-18.16534,40.39754,26.58906,20,0.03948296,0.01227771,0.02105229,-0.003157659,-0.05768245,0.5895353,0.02399494,-0.02602509,-0.003201848,-0.03751494,-0.04155936,0.0265788,0.0.0.0,10.62.21.216,1,unknown,2,2014-11-07 18:34:57.675,0,2014-11-07 18:29:52.817,0
2014-11-07 18:35:10.282,5,2.5,37.78683,-122.4112,28.90427,0,289.3359,3,10,1415414109,-0.1082764,-0.6269836,-0.7758484,-20.08443,33.92477,-19.45425,40.24833,26.43985,20,0.1074926,0.008149273,0.02719141,0.007917296,-0.08915001,0.6467824,0.04896325,-0.04623391,-0.005736359,-0.02643849,-0.02422451,0.01197508,0.0.0.0,10.62.21.216,1,unknown,2,2014-11-07 18:34:57.675,0,2014-11-07 18:29:52.817,0
2014-11-07 18:35:10.725,6,3,37.78683,-122.4112,28.90427,0,289.3359,3,10,1415414109,-0.09030151,-0.6778412,-0.7422485,-19.02359,32.73524,-20.21439,40.76735,26.95887,20,-0.02772883,0.02293514,0.08885477,0.007384623,-0.1094294,0.7178983,-0.07331789,0.001874575,0.04912925,-0.006152727,-0.02925435,0.01412664,0.0.0.0,10.62.21.216,1,unknown,2,2014-11-07 18:34:57.675,0,2014-11-07 18:29:52.817,0
2014-11-07 18:35:11.291,7,3.5,37.78691,-122.4113,28.81656,0.59,289.3359,3,10,1415414110,-0.03845215,-0.6478882,-0.7464294,-21.31638,32.97316,-19.05774,39.83253,26.02405,20,0.03606932,0.09920781,-0.008970326,0.001705752,-0.1100231,0.701913,0.03763341,0.03670125,-0.07613516,0.03620725,0.01691074,0.000843087,0.0.0.0,10.62.21.216,1,unknown,2,2014-11-07 18:34:57.675,0,2014-11-07 18:29:52.817,0
2014-11-07 18:35:11.786,8,4,37.78691,-122.4113,28.81656,0.59,289.3359,3,10,1415414110,-0.02072144,-0.5892029,-0.764801,-20.90573,34.40059,-18.72714,40.65744,26.84896,20,0.04724235,0.1165357,-0.01127796,0.006591413,-0.1194112,0.6631224,0.08490657,0.1086018,-0.08392129,0.0665071,0.02663702,0.01486872,0.0.0.0,10.62.21.216,1,unknown,2,2014-11-07 18:34:57.675,0,2014-11-07 18:29:52.817,0
2014-11-07 18:35:12.291,9,4.5,37.78698,-122.4111,29.15714,1.82,254.8828,3,10,1415414112,-0.1276093,-0.6048737,-0.8066254,-21.28216,34.29862,-19.02463,41.28482,27.47633,20,0.184229,0.03752341,0.02993287,-0.004798493,-0.1047415,0.6524779,0.005804958,-0.1215749,0.0346587,0.006916983,-0.01012194,-0.03348802,0.0.0.0,10.62.21.216,1,unknown,2,2014-11-07 18:34:57.675,0,2014-11-07 18:29:52.817,0
2014-11-07 18:35:12.795,10,5,37.78698,-122.4112,28.91025,2.82,254.1797,3,10,1415414112,-0.0620575,-0.591568,-0.826767,-21.07683,35.86198,-19.95001,40.81383,27.00534,20,-0.05499002,0.03806882,0.0988315,-0.01961513,-0.07842632,0.6607233,-0.1551195,-0.009596709,0.09484731,0.0005328626,0.008616078,-0.01929008,0.0.0.0,10.62.21.216,1,unknown,2,2014-11-07 18:34:57.675,0,2014-11-07 18:29:52.817,0
2014-11-07 18:35:13.282,11,5.5,37.78693,-122.4113,28.50302,3.3,255.9375,3,10,1415414113,0.02038574,-0.552063,-0.8167572,-22.75366,35.5561,-19.58655,42.25392,28.44544,20,-0.05843561,0.08270633,0.06474331,-0.03845226,-0.06174227,0.6262413,-0.09506854,0.03433416,-0.03409614,0.07286698,0.04424857,-0.006569457,0.0.0.0,10.62.21.216,1,unknown,2,2014-11-07 18:34:57.675,0,2014-11-07 18:29:52.817,0
2014-11-07 18:35:13.786,12,6,37.78693,-122.4113,28.50302,3.3,255.9375,3,10,1415414113,-0.1061859,-0.4240265,-0.8761749,-24.2936,37.01752,-17.50443,43.48824,29.67976,20,-0.001282046,3.96811e-05,0.007388408,-0.0248807,-0.0761734,0.5536557,-0.2388293,-0.2049809,0.1696233,-0.02076393,0.07780223,-0.04152223,0.0.0.0,10.62.21.216,1,unknown,2,2014-11-07 18:34:57.675,0,2014-11-07 18:29:52.817,0
2014-11-07 18:35:14.287,13,6.5,37.78692,-122.4113,28.09476,3.75,259.4531,3,10,1415414114,0.08305359,-0.5658112,-0.7786102,-25.08067,34.80843,-20.51196,45.94536,32.13688,20,0.3685847,0.3117933,-0.1129143,-0.1430071,0.04583199,0.5976534,0.3778696,0.1897306,-0.2540518,0.02325257,3.635023e-05,-0.007461703,0.0.0.0,10.62.21.216,1,unknown,2,2014-11-07 18:34:57.675,0,2014-11-07 18:29:52.817,0
2014-11-07 18:35:14.794,14,7,37.78692,-122.4113,28.09476,3.75,259.4531,3,10,1415414114,0.00819397,-0.4657593,-0.8902588,-24.97801,37.69728,-18.76041,44.26147,30.45299,20,0.4283684,0.09458642,-0.2256315,-0.1047511,-0.00521992,0.5317975,0.1703702,-0.07455286,-0.1405673,0.006848866,0.02690458,-0.03412611,0.0.0.0,10.62.21.216,1,unknown,2,2014-11-07 18:34:57.675,0,2014-11-07 18:29:52.817,0
2014-11-07 18:35:15.292,15,7.5,37.78692,-122.4113,28.09476,3.75,259.4531,3,10,1415414114,-0.06968689,-0.5378113,-0.9549713,-27.23658,38.10513,-17.76898,46.20603,32.39755,20,0.08029324,-0.03898975,0.01322473,-0.1095531,-0.01631926,0.534297,-0.07575335,-0.05352406,0.05534961,-0.04929506,-0.05576629,-0.06117966,0.0.0.0,10.62.21.216,1,unknown,0,2014-11-07 18:35:15.326,0,2014-11-07 18:29:52.817,0
2014-11-07 18:35:15.788,16,8,37.78689,-122.4113,28.09079,3.87,257.6953,3,10,1415414115,0.05377197,-0.5447998,-0.8234711,-30.45334,39.73647,-19.15701,48.67491,34.86643,20,-0.2208016,-0.1379848,0.2659427,-0.1799897,0.04551113,0.5685672,-0.1720156,-0.211346,0.2202715,0.03252404,-0.05401254,-0.04075234,0.0.0.0,10.62.21.216,1,unknown,0,2014-11-07 18:35:15.326,0,2014-11-07 18:29:52.817,0
2014-11-07 18:35:16.267,17,8.5,37.78689,-122.4113,28.09079,3.87,257.6953,3,10,1415414115,-0.001953125,-0.5339203,-0.9256439,-30.04269,43.81485,-21.80096,45.47803,31.66954,20,0.3223937,0.03769065,-0.309895,-0.1580221,0.01653715,0.5510269,0.1806483,0.01030388,-0.3478138,-0.02559392,0.006258932,-0.04380482,0.0.0.0,10.62.21.216,5,unknown,0,2014-11-07 18:35:15.326,0,2014-11-07 18:29:52.817,0
2014-11-07 18:35:16.794,18,9,37.78687,-122.4114,27.81323,4.14,258.0469,3,5,1415414116,0.08551025,-0.6462402,-0.7889557,-29.66627,40.04235,-26.98956,46.63865,32.83017,20,-0.1555222,0.2720195,-0.002579005,-0.256405,0.06195672,0.6029094,-0.1528599,0.2743527,-0.147227,0.003717573,-0.07047087,0.1118733,0.0.0.0,10.62.21.216,1,unknown,0,2014-11-07 18:35:15.326,0,2014-11-07 18:29:52.817,0
2014-11-07 18:35:17.303,19,9.5,37.78687,-122.4114,27.81323,4.14,258.0469,3,5,1415414116,-0.1191711,-0.4326172,-0.9043427,-30.62445,39.83842,-20.90857,46.56873,32.76025,20,0.2125176,0.3475944,-0.6901691,-0.1544463,-0.09782431,0.4643024,-0.03065791,0.09528923,-0.546485,-0.08288317,0.05757087,0.01168551,0.0.0.0,10.62.21.216,1,unknown,0,2014-11-07 18:35:15.326,0,2014-11-07 18:29:52.817,0
2014-11-07 18:35:17.787,20,10,37.78684,-122.4114,27.74643,4.63,256.9922,3,5,1415414117,-0.06968689,-0.4146118,-0.9171143,-35.27848,39.02275,-16.28168,51.79045,37.98197,20,0.1594845,0.2512354,-0.3314605,-0.2019332,-0.08769801,0.4404706,0.1152445,0.1750647,-0.2919912,-0.0002726105,-0.003566408,-0.01916741,0.0.0.0,10.62.21.216,5,automotive,0,2014-11-07 18:35:17.847,0,2014-11-07 18:29:52.817,0
2014-11-07 18:35:18.282,21,10.5,37.78684,-122.4114,27.74643,4.63,256.9922,3,5,1415414117,0.02552795,-0.4701843,-0.8304443,-39.077,39.26066,-18.03333,54.82947,41.02099,20,-0.3461556,-0.1356843,0.3299619,-0.2551859,-0.04498475,0.4651228,-0.1375946,-0.1797173,0.1099501,0.05950993,-0.04658467,0.007226962,0.0.0.0,10.62.21.216,5,automotive,0,2014-11-07 18:35:17.847,0,2014-11-07 18:29:52.817,0
2014-11-07 18:35:18.792,22,11,37.78683,-122.4115,27.67209,5.15,259.4531,3,5,1415414118,0.04373169,-0.4780731,-0.8196716,-42.15687,33.82283,-22.39578,60.10947,46.30099,20,-0.02230451,0.3390545,-0.1238631,-0.3666171,0.05076354,0.5138327,0.07337004,0.2596675,-0.05476473,0.01200881,-0.06126149,-0.006063518,0.0.0.0,10.62.21.216,1,automotive,0,2014-11-07 18:35:17.847,0,2014-11-07 18:29:52.817,0
2014-11-07 18:35:19.287,23,11.5,37.78683,-122.4115,27.67209,5.15,259.4531,3,5,1415414118,0.1227722,-0.5476227,-0.9138489,-41.23291,33.31304,-25.27094,60.18332,46.37484,20,0.07147712,0.2095817,-0.3146104,-0.4191125,0.1402813,0.4936882,0.2066092,0.2075422,-0.4135024,0.01260121,-0.06492618,-0.0844496,0.0.0.0,10.62.21.216,5,automotive,0,2014-11-07 18:35:17.847,0,2014-11-07 18:29:52.817,0
2014-11-07 18:35:19.793,24,12,37.78683,-122.4116,27.73099,5.75,260.5078,3,5,1415414119,0.1669922,-0.4939117,-0.9738617,-41.67778,29.94839,-22.59402,62.68053,48.87204,20,0.1079054,0.1157636,0.1869872,-0.3901473,0.1065028,0.4922993,-0.04779113,0.1617744,0.1265457,0.02872787,-0.02765175,0.01825348,0.0.0.0,10.62.21.216,5,automotive,0,2014-11-07 18:35:17.847,0,2014-11-07 18:29:52.817,0
2014-11-07 18:35:20.282,25,12.5,37.78683,-122.4116,27.74838,6.4,261.9141,3,5,1415414120,0.05078125,-0.4416199,-0.866333,-36.71576,31.40981,-18.72733,59.78749,45.97901,20,0.2395412,0.122437,-0.09490947,-0.3416765,0.03707124,0.4725463,0.1987173,0.04837175,-0.1576099,0.001926247,0.02244629,0.001098051,0.0.0.0,10.62.21.216,5,automotive,0,2014-11-07 18:35:17.847,0,2014-11-07 18:29:52.817,0
2014-11-07 18:35:20.787,26,13,37.78683,-122.4116,27.74838,6.4,261.9141,3,5,1415414120,0.04827881,-0.4471893,-0.9582825,-34.86783,33.04116,-20.97455,56.95771,43.14922,20,0.1482102,-0.01069312,0.04181376,-0.3420459,0.04164398,0.4758327,-0.02126316,0.04185264,0.02087543,-0.01436307,-0.01785807,0.04127811,0.0.0.0,10.62.21.216,5,automotive,0,2014-11-07 18:35:17.847,0,2014-11-07 18:29:52.817,0
2014-11-07 18:35:21.294,27,13.5,37.78682,-122.4117,27.48184,7.13,256.9922,4,5,1415414121,0.0909729,-0.485611,-0.819519,-36.51043,29.30265,-18.00018,61.3131,47.50462,20,-0.1670809,-0.07894648,0.193823,-0.3982455,0.06356076,0.5054039,-0.1002029,-0.1349516,0.1362858,0.05660573,-0.02525378,0.01431016,0.0.0.0,10.62.21.216,5,automotive,0,2014-11-07 18:35:17.847,0,2014-11-07 18:29:52.817,0
2014-11-07 18:35:21.734,28,14,37.78682,-122.4117,27.48184,7.13,256.9922,4,5,1415414121,0.05212402,-0.4464569,-0.8995209,-35.51803,30.35624,-16.7774,59.98659,46.1781,20,0.01570945,-0.04837046,0.05129834,-0.3608859,0.04160401,0.4744465,-0.01289909,-0.1159638,0.03800069,0.01022796,0.01145739,-0.03184782,0.0.0.0,10.62.21.216,5,automotive,0,2014-11-07 18:35:17.847,0,2014-11-07 18:29:52.817,0
2014-11-07 18:35:22.288,29,14.5,37.78687,-122.4118,27.76755,7.63,260.7517,4,5,1415414122,0.07685852,-0.3793335,-0.9732666,-35.72336,30.83207,-15.85199,60.1857,46.37722,20,0.1162741,0.05530294,0.01775663,-0.3619907,0.04948729,0.4471257,-0.008718972,0.05913354,-0.01712202,0.02428927,0.04246777,-0.03614736,0.0.0.0,10.62.21.216,5,automotive,0,2014-11-07 18:35:17.847,0,2014-11-07 18:29:52.817,0
2014-11-07 18:35:22.783,30,15,37.78687,-122.4118,27.76755,7.63,260.7517,4,5,1415414122,0.06820679,-0.3722076,-0.8993988,-35.72335,30.49218,-15.71979,59.66237,45.85389,20,-0.02262728,0.04270858,0.06809597,-0.3605696,0.04801599,0.4181138,-0.04736057,0.001186254,0.02178547,0.03177495,0.02000535,-0.008217332,0.0.0.0,10.62.21.216,5,automotive,0,2014-11-07 18:35:17.847,0,2014-11-07 18:29:52.817,0
2014-11-07 18:35:23.283,31,15.5,37.78687,-122.4118,27.76755,7.63,260.7517,4,5,1415414122,0.0582428,-0.3721313,-0.9112854,-34.69673,30.15232,-15.85211,60.00609,46.19761,20,-0.06716333,0.08903081,0.0771105,-0.3632306,0.05530712,0.404411,-0.03239314,0.04826467,-0.001208987,0.01859241,0.01655473,-0.00814256,0.0.0.0,10.62.21.216,5,automotive,0,2014-11-07 18:35:17.847,0,2014-11-07 18:29:52.817,0
2014-11-07 18:35:23.789,32,16,37.78686,-122.4119,27.45447,7.62,260.7517,4,10,1415414123,0.05578613,-0.4080048,-0.9047699,-34.21764,29.13272,-16.11652,60.94701,47.13852,20,0.3293233,0.1176499,-0.2106789,-0.4069737,0.08869625,0.4059242,0.06134273,0.02594586,-0.1529183,-0.02477169,-0.00010575,0.02186159,0.0.0.0,10.62.21.216,5,automotive,0,2014-11-07 18:35:17.847,0,2014-11-07 18:29:52.817,0
2014-11-07 18:35:24.286,33,16.5,37.78686,-122.4119,27.45447,7.62,260.7517,4,10,1415414123,0.1313477,-0.4819641,-0.8378143,-34.35452,27.97719,-16.18262,62.30705,48.49857,20,-0.3553781,-0.2891876,0.1845376,-0.4694297,0.16188,0.4663716,-0.2674858,-0.3662158,0.1230803,0.04871124,-0.03367383,-0.01518533,0.0.0.0,10.62.21.216,5,automotive,0,2014-11-07 18:35:17.847,0,2014-11-07 18:29:52.817,0
2014-11-07 18:35:24.783,34,17,37.78685,-122.412,27.74796,7.44,260.7517,4,5,1415414124,0.01144409,-0.3761444,-0.9337616,-33.63588,30.39023,-13.30734,60.1296,46.32111,20,-0.03849493,-0.04944452,0.01186944,-0.4064193,0.06100835,0.4012462,-0.171572,-0.2639243,0.05012941,-0.0282196,0.01707648,-0.05808165,0.0.0.0,10.62.21.216,5,automotive,0,2014-11-07 18:35:17.847,0,2014-11-07 18:29:52.817,0
2014-11-07 18:35:25.312,35,17.5,37.78685,-122.412,27.74796,7.44,260.7517,4,5,1415414124,0.0458374,-0.3931885,-0.9267273,-34.25186,30.05038,-14.10052,60.64597,46.83749,20,-0.05012975,-0.09506766,0.08411834,-0.4076121,0.05409685,0.3932526,-0.1514646,-0.1024768,0.03431528,-0.01023977,0.01008687,0.002226625,0.0.0.0,10.62.21.216,5,automotive,0,2014-11-07 18:35:17.847,0,2014-11-07 18:29:52.817,0
2014-11-07 18:35:25.786,36,18,37.78684,-122.412,28.31396,7.37,260.7517,3,5,1415414125,0.1038513,-0.4311829,-0.9261627,-32.71192,28.24911,-15.3233,61.13606,47.32758,20,0.1860079,0.07571048,-0.0510038,-0.4448734,0.09964769,0.4213501,0.04542257,0.05495819,-0.1008398,0.002601936,-0.02103037,0.01256397,0.0.0.0,10.62.21.216,5,automotive,2,2014-11-07 18:35:25.411,0,2014-11-07 18:29:52.817,0
2014-11-07 18:35:26.285,37,18.5,37.78684,-122.412,28.31396,7.37,260.7517,3,5,1415414125,0.05453491,-0.3951416,-0.8718872,-33.77277,29.77851,-16.21564,60.32645,46.51796,20,-0.04127367,0.05657673,0.08545232,-0.4353898,0.08598237,0.4244741,-0.03363946,-0.05948808,0.06068081,-0.02016518,0.01094749,-0.0006650172,0.0.0.0,10.62.21.216,5,automotive,2,2014-11-07 18:35:25.411,0,2014-11-07 18:29:52.817,0
2014-11-07 18:35:26.783,38,19,37.78683,-122.4121,27.94598,7.32,260.7517,4,5,1415414126,0.05448914,-0.3391571,-0.9613342,-34.69673,31.98761,-14.0675,59.52218,45.7137,20,-0.05631733,0.119038,0.1315586,-0.3991071,0.04989204,0.3743048,-0.1684824,0.1020219,0.1101215,0.01452525,0.02710929,0.01296261,0.0.0.0,10.62.21.216,5,automotive,2,2014-11-07 18:35:25.411,0,2014-11-07 18:29:52.817,0
2014-11-07 18:35:27.247,39,19.5,37.78682,-122.4122,27.98636,7.27,260.7517,3,5,1415414127,0.05357361,-0.2940826,-0.9411163,-36.27089,33.2791,-14.5303,59.58261,45.77413,20,0.3342299,0.1076929,-0.2058395,-0.4006037,0.05386186,0.3616537,0.2540756,0.04574789,-0.2215112,-0.0231927,0.05096497,-0.02824737,0.0.0.0,10.62.21.216,5,automotive,2,2014-11-07 18:35:25.411,0,2014-11-07 18:29:52.817,0
2014-11-07 18:35:27.782,40,20,37.78682,-122.4122,27.98636,7.27,260.7517,3,5,1415414127,0.1694794,-0.4017334,-0.8939056,-38.08459,31.47781,-15.42258,62.21651,48.40802,20,0.5614242,0.2634234,-0.09358454,-0.4354495,0.07089473,0.3714039,0.5708634,0.1649978,-0.3816609,0.06366348,0.01773969,-0.02425732,0.0.0.0,10.62.21.216,5,automotive,2,2014-11-07 18:35:25.411,0,2014-11-07 18:29:52.817,0
2014-11-07 18:35:28.285,41,20.5,37.78681,-122.4123,27.82489,6.89,260.7517,3,5,1415414128,0.09791565,-0.4381561,-0.8262939,-44.75766,28.79288,-25.10593,66.46328,52.6548,20,0.1476632,-0.006568687,0.1329735,-0.4930314,0.1299847,0.4499615,0.0580535,-0.04744071,0.07565592,-0.04454311,0.02443887,0.1450037,0.0.0.0,10.62.21.216,5,automotive,2,2014-11-07 18:35:25.411,0,2014-11-07 18:29:52.817,0
2014-11-07 18:35:28.788,42,21,37.78681,-122.4123,27.82489,6.89,260.7517,3,5,1415414128,-0.1187134,-0.1976166,-1.204559,-38.52946,40.28031,-3.029236,56.61627,42.80779,20,1.668574,0.5307164,-0.8100766,-0.3229161,-0.06072905,0.1885451,1.156077,0.5842041,-0.6597757,-0.04556268,0.1392733,-0.2657181,0.0.0.0,10.62.21.216,5,automotive,2,2014-11-07 18:35:25.411,0,2014-11-07 18:29:52.817,0
2014-11-07 18:35:29.295,43,21.5,37.78681,-122.4123,27.82489,6.89,260.7517,3,5,1415414128,-0.07519531,-0.2158661,-0.9841309,-38.22147,38.20714,-7.75531,58.40842,44.59993,20,-0.3835676,0.01733132,0.003742807,-0.3352827,-0.02925704,0.2540937,-0.8440535,-0.2357219,0.07748778,-0.07161621,0.08864862,0.03217455,0.0.0.0,10.62.21.216,5,automotive,2,2014-11-07 18:35:25.411,0,2014-11-07 18:29:52.817,0
2014-11-07 18:35:29.782,44,22,37.7868,-122.4123,28.23798,6.74,260.7517,4,5,1415414129,-0.002365112,-0.2273865,-1.019058,-38.66634,36.26991,-7.061371,60.10043,46.29195,20,0.3678949,0.000267115,-0.2720379,-0.3393317,-0.02160664,0.2437463,0.2633223,0.01073606,-0.2808537,-0.01946946,0.01930927,-0.1081703,0.0.0.0,10.62.21.216,5,automotive,2,2014-11-07 18:35:25.411,0,2014-11-07 18:29:52.817,0
2014-11-07 18:35:30.303,45,22.5,37.7868,-122.4123,29.00974,6.46,260.7517,4,5,1415414130,-0.01951599,-0.2267914,-1.060516,-39.14544,36.94965,-6.796844,60.14649,46.33801,20,-0.1664353,-0.02962474,0.098207,-0.3688988,0.006304486,0.2569748,-0.2573718,-0.04772984,0.09778617,-0.0173279,0.01155639,-0.08133312,0.0.0.0,10.62.21.216,5,automotive,2,2014-11-07 18:35:25.411,0,2014-11-07 18:29:52.817,0
2014-11-07 18:35:30.784,46,23,37.7868,-122.4123,29.00974,6.46,260.7517,4,5,1415414130,0.05104065,-0.2777863,-0.9519958,-39.79563,35.14837,-9.407654,61.5811,47.77261,20,0.09445913,0.2654485,-0.01118901,-0.4008912,0.03012717,0.2874168,0.1081077,0.1803931,-0.1143498,0.008451289,0.01246455,0.01548999,0.0.0.0,10.62.21.216,5,automotive,2,2014-11-07 18:35:25.411,0,2014-11-07 18:29:52.817,0
2014-11-07 18:35:31.285,47,23.5,37.7868,-122.4123,29.00974,6.46,260.7517,4,5,1415414130,0.02093506,-0.2696228,-0.9615936,-38.70057,33.10918,-11.12619,62.14978,48.34129,20,0.0300069,0.1028915,-0.02864203,-0.3976029,0.03657263,0.2860084,-0.05103483,0.03631119,-0.02083936,-0.01396098,0.01402814,-0.005604113,0.0.0.0,10.62.21.216,5,automotive,2,2014-11-07 18:35:25.411,0,2014-11-07 18:29:52.817,0
2014-11-07 18:35:31.790,48,24,37.78681,-122.4123,28.72263,5.93,260.7517,4,5,1415414131,0.005737305,-0.3996429,-0.9192657,-39.4192,31.17195,-17.76898,62.44899,48.6405,20,0.4433956,0.2748284,-0.215425,-0.4316656,0.07281191,0.3507064,0.3067566,0.1925025,-0.1904931,-0.07285132,-0.0620936,0.02502082,0.0.0.0,10.62.21.216,5,automotive,2,2014-11-07 18:35:25.411,0,2014-11-07 18:29:52.817,0
2014-11-07 18:35:32.286,49,24.5,37.78679,-122.4126,28.90085,5.44,260.5072,3,5,1415414132,0.05810547,-0.4255676,-0.858429,-40.92493,29.47262,-14.79462,66.0269,52.21842,20,-0.1451093,-0.08011588,0.2430747,-0.4746639,0.09802419,0.4055536,-0.1996997,-0.1930533,0.2123537,-0.02452953,-0.01765817,0.04594273,0.0.0.0,10.62.21.216,5,automotive,2,2014-11-07 18:35:25.411,0,2014-11-07 18:29:52.817,0
2014-11-07 18:35:32.717,50,25,37.78679,-122.4126,28.90085,5.44,260.5072,3,5,1415414132,0.05448914,-0.486145,-0.7985687,-39.82986,29.13277,-14.72849,65.2636,51.45511,20,0.2757416,0.07967006,-0.1568453,-0.4677239,0.08959606,0.4344748,0.3029117,-0.08471286,-0.1843647,-0.02768106,-0.06806435,0.06772898,0.0.0.0,10.62.21.216,5,automotive,2,2014-11-07 18:35:25.411,0,2014-11-07 18:29:52.817,0
2014-11-07 18:35:33.282,51,25.5,37.78677,-122.4126,28.87616,5.76,260.5072,4,5,1415414133,0.09254456,-0.5849915,-0.8074036,-38.90589,27.46744,-18.33078,65.28308,51.4746,20,-0.07270856,-0.05400678,0.3479926,-0.5166876,0.1429223,0.5305725,-0.1265035,-0.07761093,0.2736779,-0.02803563,-0.09344478,0.06258554,0.0.0.0,10.62.21.216,1,automotive,2,2014-11-07 18:35:25.411,0,2014-11-07 18:29:52.817,0
2014-11-07 18:35:33.786,52,26,37.78677,-122.4126,28.87616,5.76,260.5072,4,5,1415414133,0.07957458,-0.4750214,-0.8678894,-38.83745,26.24391,-16.81058,66.10323,52.29474,20,-0.2096808,-0.3297076,0.2260888,-0.4587526,0.1047064,0.5308409,-0.2228215,-0.3557625,0.210819,0.03552414,-0.009045875,-0.05167362,0.0.0.0,10.62.21.216,1,automotive,2,2014-11-07 18:35:25.411,0,2014-11-07 18:29:52.817,0
2014-11-07 18:35:34.281,53,26.5,37.78678,-122.4127,28.73438,6.87,260.5072,4,5,1415414134,0.05285645,-0.3439789,-0.8974152,-39.96674,28.0452,-12.94391,66.63672,52.82824,20,0.08522861,0.1302509,0.05288558,-0.4000085,0.04952851,0.4577819,0.02750245,0.06337532,0.01876566,0.005653447,0.07989896,0.01036064,0.0.0.0,10.62.21.216,5,automotive,2,2014-11-07 18:35:25.411,0,2014-11-07 18:29:52.817,0
2014-11-07 18:35:34.782,54,27,37.78678,-122.4127,28.73438,6.87,260.5072,4,5,1415414134,0.03575134,-0.3257904,-0.9579315,-44.79187,26.31186,-15.55475,69.62553,55.81705,20,-0.1669296,-0.001891111,0.1858799,-0.3860689,0.03750496,0.4041806,-0.3139931,-0.05806074,0.1763669,-0.01216656,0.09101941,0.006394353,0.0.0.0,10.62.21.216,5,automotive,2,2014-11-07 18:35:25.411,0,2014-11-07 18:29:52.817,0
2014-11-07 18:35:35.288,55,27.5,37.78676,-122.4128,29.12827,7.56,260.5072,3,5,1415414135,-0.02478027,-0.2828217,-0.979248,-40.24051,28.92883,-12.7457,65.5785,51.77002,20,0.1645684,0.2121581,-0.1581747,-0.3728291,-0.005269862,0.3421093,0.01227152,0.1809879,-0.1403932,-0.02829972,0.07941715,0.04117242,0.0.0.0,10.62.21.216,5,automotive,2,2014-11-07 18:35:25.411,0,2014-11-07 18:29:52.817,0
2014-11-07 18:35:35.790,56,28,37.78676,-122.4128,29.12827,7.56,260.5072,3,5,1415414135,0.04307556,-0.302536,-0.9276428,-38.52946,25.80206,-10.96103,67.98672,54.17824,20,0.07043368,-0.03771116,0.007076285,-0.4153051,0.02467055,0.3506181,0.096832,-0.05909921,-0.06004232,0.01784837,0.04346002,-0.01812592,0.0.0.0,10.62.21.216,5,automotive,2,2014-11-07 18:35:25.411,0,2014-11-07 18:29:52.817,0
2014-11-07 18:35:36.282,57,28.5,37.78675,-122.4129,28.87375,7.18,260.5072,3,5,1415414136,0.02359009,-0.2876129,-0.9096069,-36.3051,27.1955,-11.12628,65.33749,51.52901,20,-0.05651494,0.08594421,-0.04728523,-0.4181555,0.01582867,0.3256105,-0.01576681,0.04612251,-0.05053382,-0.006161495,0.05407922,-0.03819776,0.0.0.0,10.62.21.216,5,automotive,2,2014-11-07 18:35:25.411,0,2014-11-07 18:29:52.817,0
2014-11-07 18:35:36.790,58,29,37.78675,-122.4129,28.87375,7.18,260.5072,3,5,1415414136,0.05337524,-0.1622772,-1.022812,-36.57887,30.93401,-13.7041,61.65562,47.84713,20,0.1525869,0.0709506,-0.04982322,-0.4145205,-0.002626242,0.2736311,0.173658,-0.02850839,-0.09184672,0.03770004,0.07828894,-0.05290861,0.0.0.0,10.62.21.216,5,automotive,2,2014-11-07 18:35:25.411,0,2014-11-07 18:29:52.817,0
2014-11-07 18:35:37.285,59,29.5,37.78674,-122.413,29.68582,6.66,260.5072,3,5,1415414137,-0.002029419,-0.1632385,-0.9616852,-36.81842,26.20988,-11.62201,67.196,53.38752,20,0.08050949,0.03055178,-0.00709839,-0.4194427,-0.00544443,0.2314107,0.01471776,-0.02969598,-0.03404408,0.004826254,0.05944426,0.01432975,0.0.0.0,10.62.21.216,5,automotive,2,2014-11-07 18:35:25.411,0,2014-11-07 18:29:52.817,0
2014-11-07 18:35:37.790,60,30,37.78674,-122.413,29.68582,6.66,260.5072,3,5,1415414137,0.06585693,-0.2934265,-0.955719,-39.48764,28.31702,-12.81183,66.84631,53.03782,20,0.3285057,0.2816413,-0.2437184,-0.4979962,0.07462292,0.2883464,0.1998449,0.2814396,-0.2923779,-0.01375177,0.02107692,0.05146051,0.0.0.0,10.62.21.216,5,automotive,2,2014-11-07 18:35:25.411,0,2014-11-07 18:29:52.817,0
2014-11-07 18:35:38.290,61,30.5,37.78673,-122.413,30.58633,5.57,260.5072,3,5,1415414138,0.05601501,-0.228653,-0.9802704,-42.29375,27.77322,-9.176483,69.31087,55.50239,20,0.5618737,0.4028628,-0.341103,-0.4953516,0.01151699,0.2251752,0.2793121,0.2944808,-0.3340971,0.05409688,0.03486159,0.01283734,0.0.0.0,10.62.21.216,5,automotive,2,2014-11-07 18:35:25.411,0,2014-11-07 18:29:52.817,0
2014-11-07 18:35:38.789,62,31,37.78673,-122.413,30.58633,5.57,260.5072,3,5,1415414138,0.1048737,-0.2773132,-0.972702,-41.78044,24.00072,-11.25861,72.09785,58.28937,20,-0.261017,-0.06386393,0.3847972,-0.506923,0.07810935,0.276474,-0.2684447,-0.06458735,0.3682477,0.06522263,-0.01136698,-0.01794484,0.0.0.0,10.62.21.216,5,automotive,2,2014-11-07 18:35:25.411,0,2014-11-07 18:29:52.817,0
2014-11-07 18:35:39.283,63,31.5,37.78672,-122.4131,31.16223,4.56,260.5072,4,5,1415414139,0.07980347,-0.2246246,-0.9684296,-44.51811,22.30142,-10.00275,75.41984,61.61135,20,-0.4534298,-0.1920203,0.6643794,-0.4060253,0.07249193,0.2387326,-0.4981532,-0.1997884,0.6711525,0.07401965,-0.03460101,0.009751228,0.0.0.0,10.62.21.216,5,automotive,2,2014-11-07 18:35:25.411,0,2014-11-07 18:29:52.817,0
2014-11-07 18:35:39.788,64,32,37.78672,-122.4131,31.16223,4.56,260.5072,4,5,1415414139,0.3407898,-0.4653931,-0.9653015,-50.19877,7.619293,-7.68927,92.16609,78.3576,20,-0.07311016,-0.4491251,0.1228708,-0.4692192,0.191375,0.3506587,-0.09858777,-0.1359019,-0.09415077,0.1734014,-0.1273393,0.01912344,0.0.0.0,10.62.21.216,5,automotive,2,2014-11-07 18:35:25.411,0,2014-11-07 18:29:52.817,0
2014-11-07 18:35:40.286,65,32.5,37.78671,-122.4131,31.39084,3.14,260.5072,4,5,1415414140,-0.108078,-0.2579498,-0.9818115,-52.90222,24.10272,3.051636,81.2872,67.47872,20,0.02713548,0.4471996,0.5211226,-0.04927319,-0.08472158,0.2572228,-0.1339694,0.3669349,0.549356,-0.01285977,-0.01055789,0.04122243,0.0.0.0,10.62.21.216,5,automotive,2,2014-11-07 18:35:25.411,0,2014-11-07 18:29:52.817,0
2014-11-07 18:35:40.781,66,33,37.78671,-122.4131,31.39084,3.14,260.5072,4,5,1415414140,0.02720642,-0.3921509,-0.9758148,-53.3813,22.81121,-0.7821045,81.27615,67.46767,20,0.2692259,0.283685,0.1466376,0.1078321,-0.01641643,0.3039391,0.2238511,0.2882104,0.1067311,0.002433908,-0.08501152,-0.02716475,0.0.0.0,10.62.21.216,5,automotive,2,2014-11-07 18:35:25.411,0,2014-11-07 18:29:52.817,0
2014-11-07 18:35:41.287,67,33.5,37.78671,-122.4131,31.74329,3.17,220.7812,4,10,1415414141,0.05410767,-0.439621,-0.855835,-59.30151,19.37857,-2.467621,85.24744,71.43896,20,-0.006325007,0.1910645,0.4733026,0.2952541,0.02054942,0.3600631,-0.03303133,0.1582561,0.4281408,0.03399233,-0.07450078,0.07486766,0.0.0.0,10.62.21.216,5,automotive,2,2014-11-07 18:35:25.411,0,2014-11-07 18:29:52.817,0
2014-11-07 18:35:41.787,68,34,37.78671,-122.4131,31.74329,3.17,220.7812,4,10,1415414141,0.0534668,-0.5139313,-0.9042511,-64.84528,18.0191,-2.467621,14.81143,1.002943,21,0.3891427,0.2095788,0.1472507,0.487433,0.04963657,0.4514732,0.3708569,0.09135227,0.1690836,0.009981555,-0.09015189,-0.0573881,0.0.0.0,10.62.21.216,5,automotive,2,2014-11-07 18:35:25.411,0,2014-11-07 18:29:52.817,0
2014-11-07 18:35:42.289,69,34.5,37.78667,-122.4131,31.41559,2.38,171.1553,4,5,1415414142,0.0003814697,-0.5268555,-0.9436646,-69.43089,21.82558,-7.689331,0.5927544,346.7843,21,-0.06303276,-0.1634318,0.3605798,0.6983207,0.04041098,0.4801825,-0.2876864,-0.06881869,0.4063869,-0.01440783,-0.09273122,-0.006910365,0.0.0.0,10.62.21.216,1,automotive,2,2014-11-07 18:35:25.411,0,2014-11-07 18:29:52.817,0
2014-11-07 18:35:42.791,70,35,37.78667,-122.4131,31.41559,2.38,171.1553,4,5,1415414142,0.2871704,-0.7705231,-0.8125763,-67.85674,7.551285,-16.67859,2.682201,348.8737,21,-1.389338,-1.187422,1.751333,0.5799694,0.315119,0.6414325,-1.083747,-0.700002,1.385806,0.1475309,-0.210784,-0.06548445,0.0.0.0,10.62.21.216,1,automotive,2,2014-11-07 18:35:25.411,0,2014-11-07 18:29:52.817,0
2014-11-07 18:35:43.289,71,35.5,37.78664,-122.4131,31.2511,2.18,171.1553,4,5,1415414143,-0.05847168,-0.3640747,-0.9078674,-68.64381,32.66725,-0.1871338,344.9918,331.1833,21,0.2377569,0.412452,0.2635115,0.990716,-0.07038736,0.3978437,0.2284766,0.3642473,0.08159208,-0.02815062,0.03150483,0.02905182,0.0.0.0,10.62.21.216,5,automotive,2,2014-11-07 18:35:25.411,0,2014-11-07 18:29:52.817,0
2014-11-07 18:35:43.786,72,36,37.78664,-122.4131,31.2511,2.18,171.1553,4,5,1415414143,-0.008651733,-0.3387451,-1.028183,-71.21039,30.52608,-8.217957,344.236,330.4275,21,-0.4369965,-0.4611969,0.5474998,0.9992483,0.002242339,0.4380319,-0.9095785,-0.4754123,0.6687456,0.04260132,0.05376617,-0.0884479,0.0.0.0,10.62.21.216,5,automotive,2,2014-11-07 18:35:25.411,0,2014-11-07 18:29:52.817,0
2014-11-07 18:35:44.282,73,36.5,37.78658,-122.4131,30.7963,5.84,171.1553,4,5,1415414144,0.02230835,-0.2952423,-0.9844971,-71.17618,33.68684,-6.730774,341.1039,327.2954,21,0.6500323,0.3473319,-0.4043683,1.034683,0.004916206,0.4084437,0.4973763,0.2932032,-0.4225153,-0.01597113,0.1400862,-0.1040758,0.0.0.0,10.62.21.216,5,automotive,2,2014-11-07 18:35:25.411,0,2014-11-07 18:29:52.817,0
2014-11-07 18:35:44.724,74,37,37.78658,-122.4131,30.7963,5.84,171.1553,4,5,1415414144,0.01165771,-0.1805573,-1.038391,-71.75793,31.68162,-6.962097,340.2199,326.4114,21,-0.3993698,-0.1838833,0.3209045,1.063319,0.006879233,0.3381366,-0.3666196,-0.2602698,0.3100449,0.04268944,0.1315802,-0.09946404,0.0.0.0,10.62.21.216,5,automotive,2,2014-11-07 18:35:25.411,0,2014-11-07 18:29:52.817,0
2014-11-07 18:35:45.291,75,37.5,37.78651,-122.4131,29.98682,6.49,171.1553,4,5,1415414145,-0.1379242,-0.04122925,-1.019455,-71.5526,33.51692,-0.2861938,338.9579,325.1494,21,-0.1926318,-0.1313652,0.110852,1.092064,-0.07943623,0.20179,-0.360955,-0.1454002,0.1633007,-0.006180742,0.1693717,-0.05910086,0.0.0.0,10.62.21.216,5,automotive,2,2014-11-07 18:35:25.411,0,2014-11-07 18:29:52.817,0
2014-11-07 18:35:45.791,76,38,37.78651,-122.4131,29.98682,6.49,171.1553,4,5,1415414145,-0.0969696,-0.05647278,-1.069901,-71.62106,31.40978,-1.211548,341.1143,327.3058,21,0.1437473,-0.096885,-0.05745637,1.052442,-0.06753055,0.1649158,0.04026654,-0.08447024,-0.1094179,-0.04249088,0.09739678,-0.0632863,0.0.0.0,10.62.21.216,5,automotive,2,2014-11-07 18:35:25.411,0,2014-11-07 18:29:52.817,0
2014-11-07 18:35:46.287,77,38.5,37.78644,-122.4131,30.01718,6.8,171.1553,4,5,1415414146,-0.06228638,-0.02442932,-0.93367,-72.47657,31.03593,-0.385376,342.2459,328.4374,21,0.2171318,-0.02542946,-0.1048337,1.027918,-0.08135423,0.1299764,0.1552234,-0.1112747,-0.1059643,-0.02350115,0.07869218,-0.007381085,0.0.0.0,10.62.21.216,5,automotive,2,2014-11-07 18:35:25.411,0,2014-11-07 18:29:52.817,0
2014-11-07 18:35:46.787,78,39,37.78644,-122.4131,30.01718,6.8,171.1553,4,5,1415414146,-0.04238892,-0.02867126,-1.02504,-70.45755,30.18627,-1.211487,343.0812,329.2727,21,0.1734597,0.1717449,-0.0009078716,1.020306,-0.08221369,0.09798326,0.3065673,0.08658153,-0.1423364,0.02270621,0.07568605,-0.1014807,0.0.0.0,10.62.21.216,5,automotive,2,2014-11-07 18:35:25.411,0,2014-11-07 18:29:52.817,0
2014-11-07 18:35:47.282,79,39.5,37.7864,-122.4131,29.16986,5.22,171.1553,4,5,1415414147,0.01637268,-0.03953552,-1.066437,-70.69709,28.45297,-2.764893,344.4638,330.6553,21,-0.02971502,0.03131371,0.01011815,0.983636,-0.03623826,0.08232033,-0.09633598,0.04612269,-0.02943972,0.04942856,0.040754,-0.04331684,0.0.0.0,10.62.21.216,5,automotive,2,2014-11-07 18:35:25.411,0,2014-11-07 18:29:52.817,0
2014-11-07 18:35:47.783,80,40,37.7864,-122.4131,29.16986,5.22,171.1553,4,5,1415414147,0.06384277,-0.03086853,-1.048279,-71.24463,26.54974,-1.839539,345.3242,331.5157,21,-0.2877476,-0.03666347,0.3099134,0.9695523,-0.02608526,0.05865579,-0.1243358,0.09671631,0.121266,0.1053374,0.003232753,-0.03683415,0.0.0.0,10.62.21.216,5,automotive,2,2014-11-07 18:35:25.411,0,2014-11-07 18:29:52.817,0
2014-11-07 18:35:48.288,81,40.5,37.78635,-122.413,29.1442,4.95,171.1553,4,5,1415414148,-0.0118866,-0.09098816,-0.9987183,0,1.401298e-45,0,0,0,-1,0.4075755,0.2127796,-0.2393761,0.962229,-0.03547304,0.05163037,0.3198509,0.1892639,-0.2669241,0.01471217,-0.02056664,-0.01992041,0.0.0.0,10.62.21.216,5,automotive,2,2014-11-07 18:35:25.411,0,2014-11-07 18:29:52.817,0
2014-11-07 18:35:48.791,82,41,37.78635,-122.413,29.1442,4.95,171.1553,4,5,1415414148,-0.01153564,-0.08912659,-1.078522,-71.62106,27.60331,-1.87262,82.72408,68.91559,25,-0.06944831,-0.0931651,0.2097327,0.9627372,-0.02938855,0.05695705,-0.1306955,-0.100856,0.1442632,0.03827832,-0.02930115,-0.07566112,0.0.0.0,10.62.21.216,5,automotive,2,2014-11-07 18:35:25.411,0,2014-11-07 18:29:52.817,0
2014-11-07 18:35:49.282,83,41.5,37.78631,-122.413,29.1142,4.55,171.1553,4,5,1415414149,0.0003814697,-0.1420898,-1.010727,-71.0051,26.24384,-2.53363,83.35353,69.54505,25,0.04257436,0.08114918,0.138641,0.9582262,-0.02371408,0.07994569,0.03837971,0.06680271,0.05588819,0.02984645,-0.05498136,-0.01189707,0.0.0.0,10.62.21.216,5,automotive,2,2014-11-07 18:35:25.411,0,2014-11-07 18:29:52.817,0
2014-11-07 18:35:49.799,84,42,37.78631,-122.413,29.1142,4.55,171.1553,4,5,1415414149,-0.06173706,-0.06086731,-1.002975,-71.58685,27.22945,-1.178436,82.97725,69.16876,25,0.06546956,0.04945038,0.02877412,0.9795839,-0.04053206,0.07112516,0.0228247,-0.02668409,-0.01625961,-0.02261555,-0.0008036876,-0.02190225,0.0.0.0,10.62.21.216,5,automotive,2,2014-11-07 18:35:25.411,0,2014-11-07 18:29:52.817,0
2014-11-07 18:35:50.272,85,42.5,37.78633,-122.413,29.01013,1.18,171.1553,4,5,1415414150,-0.04763794,-0.2071533,-0.9978485,-72.92146,26.03989,-1.674194,84.10936,70.30088,25,0.05060858,-0.01179993,0.2215622,0.9506517,-0.03749136,0.1253166,-0.1494397,-0.1625662,0.2386684,0.003420938,-0.1169392,0.01140417,0.0.0.0,10.62.21.216,5,automotive,2,2014-11-07 18:35:25.411,0,2014-11-07 18:29:52.817,0
2014-11-07 18:35:50.783,86,43,37.78633,-122.413,29.01013,1.18,171.1553,4,5,1415414150,-0.07324219,-0.1501617,-0.9826355,-72.13439,27.43334,0.0112915,82.96098,69.1525,25,0.09424821,0.01419571,-0.03186632,0.9671688,-0.05694925,0.1299329,0.04452632,0.01021452,-0.05896376,-0.04347587,-0.02239471,-0.007244552,0.0.0.0,10.62.21.216,5,automotive,2,2014-11-07 18:35:25.411,0,2014-11-07 18:29:52.817,0
2014-11-07 18:35:51.282,87,43.5,37.78633,-122.413,29.30975,0.77,171.1553,4,5,1415414151,-0.05981445,-0.1296539,-0.9772491,-72.98991,27.60325,-0.02175903,83.36337,69.55489,25,-0.00253959,0.07722528,0.02776825,0.9675964,-0.07272916,0.1324576,-0.002616584,-0.03667578,-0.04214701,0.0003579969,0.02210055,0.02032763,0.0.0.0,10.62.21.216,5,automotive,2,2014-11-07 18:35:25.411,0,2014-11-07 18:29:52.817,0
2014-11-07 18:35:51.786,88,44,37.78633,-122.413,29.30975,0.77,171.1553,4,5,1415414151,-0.09074402,-0.1867523,-0.9785004,-72.92147,27.73921,0.9035339,82.93202,69.12354,25,0.1950515,0.1176987,-0.1048143,0.9706416,-0.07234856,0.116435,0.1403162,0.09513908,-0.1123392,-0.03008692,-0.06078404,-0.00315888,0.0.0.0,10.62.21.216,5,automotive,2,2014-11-07 18:35:25.411,0,2014-11-07 18:29:52.817,0
2014-11-07 18:35:52.282,89,44.5,37.78635,-122.413,29.73779,0.29,171.1553,4,5,1415414152,-0.05677795,-0.2844849,-0.9631958,-73.64011,24.91833,-3.690308,84.74541,70.93693,25,0.1999517,0.1201919,-0.09617127,0.9295808,-0.0351512,0.2159659,0.07862256,0.0743534,-0.1076209,-0.03043074,-0.0588871,0.014405,0.0.0.0,10.62.21.216,5,automotive,2,2014-11-07 18:35:25.411,0,2014-11-07 18:29:52.817,0
2014-11-07 18:35:52.791,90,45,37.78635,-122.413,29.73779,0.29,171.1553,4,5,1415414152,-0.05134583,-0.2959442,-0.9632874,-73.84542,23.35496,-5.607208,86.24594,72.43745,25,0.2808165,0.1542237,-0.1611149,0.9116163,-0.006181504,0.2891378,0.1682733,0.02747258,-0.1708961,-0.06185467,-0.006103357,-0.01261283,0.0.0.0,10.62.21.216,5,automotive,2,2014-11-07 18:35:25.411,0,2014-11-07 18:29:52.817,0
2014-11-07 18:35:53.291,91,45.5,37.78635,-122.413,30.05984,0.54,171.1553,4,5,1415414153,0.009231567,-0.2024231,-0.9820557,-74.32452,22.60724,-6.202057,86.37659,72.56811,25,-0.6072987,-0.3919981,0.4889542,0.9205551,-0.006322204,0.2801943,-0.6376981,-0.3776687,0.4410213,0.02943682,0.04936948,-0.01940992,0.0.0.0,10.62.21.216,5,automotive,2,2014-11-07 18:35:25.411,0,2014-11-07 18:29:52.817,0
2014-11-07 18:35:53.784,92,46,37.78635,-122.413,30.05984,0.54,171.1553,4,5,1415414153,-0.05487061,-0.05085754,-1.010742,-73.43478,30.35616,-3.954712,81.04442,67.23593,25,0.09273926,0.08870324,0.2335387,1.001214,-0.05268009,0.2047725,0.0409858,0.0797414,0.2297441,-0.008869196,0.1352597,-0.04368961,0.0.0.0,10.62.21.216,5,automotive,2,2014-11-07 18:35:25.411,0,2014-11-07 18:29:52.817,0
2014-11-07 18:35:54.284,93,46.5,37.78634,-122.413,30.42395,1,171.1553,4,5,1415414154,0.02598572,-0.1124725,-1.000168,-72.06592,32.05548,-12.15085,78.91013,65.10164,25,0.07232666,0.1020808,0.1339072,1.030275,0.02397895,0.219795,-0.007214971,0.04618635,0.161724,0.007026202,0.08779583,-0.0456702,0.0.0.0,10.62.21.216,5,automotive,2,2014-11-07 18:35:25.411,0,2014-11-07 18:29:52.817,0
2014-11-07 18:35:54.791,94,47,37.78634,-122.413,30.42395,1,171.1553,4,5,1415414154,0.02952576,-0.1184998,-1.009781,-72.30547,32.36135,-10.79581,78.89557,65.08708,25,0.1315415,0.07980189,-0.04605697,1.03143,0.02138517,0.1411661,0.03718796,0.003929566,-0.06270871,-0.01045916,0.01893257,-0.01710127,0.0.0.0,10.62.21.216,5,automotive,2,2014-11-07 18:35:25.411,0,2014-11-07 18:29:52.817,0
2014-11-07 18:35:55.282,95,47.5,37.78633,-122.413,30.43427,0.72,171.1553,4,5,1415414155,0.03302002,-0.2547302,-0.9276733,-66.17993,42.31937,-20.80969,70.2346,56.42612,25,0.3971806,0.884896,0.1950504,1.180976,0.1285069,0.2070597,0.6038154,0.9335066,0.3556706,-0.1219066,-0.06350547,0.07074405,0.0.0.0,10.62.21.216,5,automotive,2,2014-11-07 18:35:25.411,0,2014-11-07 18:29:52.817,0
2014-11-07 18:35:55.791,96,48,37.78633,-122.413,30.43427,0.72,171.1553,4,5,1415414155,0.06973267,-0.0266571,-0.9508209,-64.84532,48.13105,-15.95154,67.47208,53.66359,25,0.4780566,0.268746,-0.4235758,1.235412,0.1598316,-0.001457467,0.4579718,0.1762578,-0.4416504,-0.109454,-0.01465632,-0.0323545,0.0.0.0,10.62.21.216,5,automotive,2,2014-11-07 18:35:25.411,0,2014-11-07 18:29:52.817,0
2014-11-07 18:35:56.289,97,48.5,37.78633,-122.413,30.34164,0,171.1553,4,5,1415414156,0.1405945,-0.1332855,-1.058167,-70.21799,34.63843,-14.92703,77.59761,63.78913,25,1.490141,0.05036544,-0.87345,1.021022,0.1379281,0.04236702,1.104037,-0.1270981,-0.9342233,0.001441381,-0.05496622,-0.1041816,0.0.0.0,10.62.21.216,5,automotive,2,2014-11-07 18:35:25.411,0,2014-11-07 18:29:52.817,0
2014-11-07 18:35:56.784,98,49,37.78633,-122.413,30.34164,0,171.1553,4,5,1415414156,0.6126251,-0.3312378,-0.7955322,-44.00484,8.536858,-68.73062,80.05946,66.25098,25,0.01591132,0.8456855,-0.8052944,0.8622015,0.9790549,0.4254724,0.2575071,1.515865,-0.3190711,-0.1875532,0.01232995,-0.3753018,0.0.0.0,10.62.21.216,5,automotive,2,2014-11-07 18:35:25.411,0,2014-11-07 18:29:52.817,0
2014-11-07 18:35:57.291,99,49.5,37.78632,-122.413,30.25531,0.21,171.1553,4,5,1415414157,0.5890045,-0.03146362,-0.7547913,-73.33211,-11.20927,-59.90652,104.2778,90.46932,25,0.3829705,-0.4413036,0.001153948,0.7340837,0.7290791,-0.01269038,0.1264527,-0.5492293,-0.1783864,-0.03432403,-0.02820822,0.01075809,0.0.0.0,10.62.21.216,4,automotive,2,2014-11-07 18:35:25.411,0,2014-11-07 18:29:52.817,0
2014-11-07 18:35:57.724,100,50,37.78632,-122.413,30.25531,0.21,171.1553,4,5,1415414157,0.7237244,-0.242691,-0.6787567,-98.62132,-35.44159,-51.67734,119.28,105.4715,25,0.06045003,0.04704234,0.03983423,0.514616,0.8181784,0.1994008,0.01719489,0.0329397,0.01264023,0.01890527,-0.03925313,-0.001775822,0.0.0.0,10.62.21.216,4,automotive,2,2014-11-07 18:35:25.411,0,2014-11-07 18:29:52.817,0
2014-11-07 18:35:58.291,101,50.5,37.78631,-122.413,29.98367,0.44,171.1553,4,5,1415414158,0.6556549,-0.5666962,-0.5236053,-62.621,-20.48757,-75.93512,94.77382,80.96534,25,-0.05211274,0.02034176,0.02848677,0.7635673,0.9154189,0.5742661,-0.04838884,-0.01761248,0.01836626,-0.02571987,-0.03939235,0.02181263,0.0.0.0,10.62.21.216,4,automotive,2,2014-11-07 18:35:25.411,0,2014-11-07 18:29:52.817,0
2014-11-07 18:35:58.782,102,51,37.78631,-122.413,29.98367,0.44,171.1553,4,5,1415414158,0.4328003,-0.7096863,-0.5855713,-81.37402,-0.9113846,-69.72195,87.37669,73.56821,25,0.63195,-0.4885984,0.3529865,0.867103,0.6534739,0.7030709,0.5137631,-0.488813,0.2693072,-0.0296212,-0.05418118,0.01214157,0.0.0.0,10.62.21.216,4,automotive,2,2014-11-07 18:35:25.411,0,2014-11-07 18:29:52.817,0
2014-11-07 18:35:59.291,103,51.5,37.7863,-122.413,29.80499,0.38,171.1553,4,5,1415414159,0.258606,-0.8880768,-0.6066284,-88.76572,2.011452,-59.93951,86.01537,72.20689,25,-0.169923,-0.3474959,0.1951583,0.911652,0.4938876,0.814424,-0.3186835,-0.3805047,0.2503409,0.0506098,-0.002070197,0.001963567,0.0.0.0,10.62.21.216,4,automotive,2,2014-11-07 18:35:25.411,0,2014-11-07 18:29:52.817,0
2014-11-07 18:35:59.786,104,52,37.7863,-122.413,29.80499,0.38,171.1553,4,5,1415414159,0.1660919,-0.5100555,-1.230515,-99.20307,32.83715,-32.47589,81.97916,68.17067,25,0.8456751,0.6424429,-1.179969,1.150178,0.14895,0.3949417,1.245204,1.501164,-1.14511,-0.06915055,-0.07834985,-0.2829409,0.0.0.0,10.62.21.216,5,automotive,2,2014-11-07 18:35:25.411,0,2014-11-07 18:29:52.817,0
2014-11-07 18:36:00.282,105,52.5,37.78629,-122.413,29.93268,0.55,171.1553,4,5,1415414160,0.5758057,-0.2666779,-0.4096069,-76.41198,9.658401,-74.24957,88.47017,74.66168,25,-0.9519842,3.706126,-0.3260514,0.9239523,0.7759205,0.4669724,1.75712,3.330612,1.149185,-0.3719854,0.1921893,-0.2809938,0.0.0.0,10.62.21.216,5,automotive,2,2014-11-07 18:35:25.411,0,2014-11-07 18:29:52.817,0
2014-11-07 18:36:00.785,106,53,37.78629,-122.413,29.93268,0.55,171.1553,4,5,1415414160,0.7598114,-0.3335266,-0.5282898,-67.75412,8.332916,-88.758,90.99481,77.18633,25,0.06048252,0.04328542,0.03364425,0.8490894,0.970735,0.3343357,0.005169661,0.00307661,0.0001578397,0.02058332,-0.000410571,-0.02027047,0.0.0.0,10.62.21.216,4,automotive,2,2014-11-07 18:35:25.411,0,2014-11-07 18:29:52.817,0
2014-11-07 18:36:01.287,107,53.5,37.78627,-122.413,29.63788,0.15,171.1553,4,5,1415414161,0.7930908,-0.3427887,-0.5411377,-66.72751,7.99308,-88.89017,90.79405,76.98557,25,0.05926865,0.03829812,0.02867452,0.8475534,0.9706099,0.3392156,0.005185614,0.004317255,0.0001824409,0.0001149208,-0.01837253,0.01349269,0.0.0.0,10.62.21.216,4,automotive,2,2014-11-07 18:35:25.411,0,2014-11-07 18:29:52.817,0
2014-11-07 18:36:01.783,108,54,37.78627,-122.413,29.63788,0.15,171.1553,4,5,1415414161,0.7799988,-0.3586578,-0.5282135,-67.68568,8.129028,-88.62579,90.58569,76.77721,25,0.05804786,0.03953862,0.02622228,0.846393,0.9690621,0.3549501,0.01024032,0.003043929,0.003939651,-0.02847646,-0.006857067,0.008584562,0.0.0.0,10.62.21.216,4,automotive,2,2014-11-07 18:35:25.411,0,2014-11-07 18:29:52.817,0
2014-11-07 18:36:02.285,109,54.5,37.78627,-122.413,30.04367,0,171.1553,4,5,1415414162,0.7591553,-0.3570862,-0.5290985,-67.85677,8.298965,-89.05539,90.40167,76.59319,25,0.06668236,0.04199272,0.03117177,0.8447614,0.9689441,0.3607172,0.004091381,0.003060291,0.0002669081,0.0168303,0.009927771,-0.005010496,0.0.0.0,10.62.21.216,4,automotive,2,2014-11-07 18:35:25.411,0,2014-11-07 18:29:52.817,0
2014-11-07 18:36:02.788,110,55,37.78627,-122.413,30.04367,0,171.1553,4,5,1415414162,0.7888641,-0.3590546,-0.5312653,-67.30923,8.77478,-89.05536,90.22942,76.42094,25,0.06175232,0.03952078,0.02745453,0.8431426,0.9684576,0.3634678,0.006662315,0.005505541,-0.0009190723,-0.009422266,-0.003918407,-0.006133487,0.0.0.0,10.62.21.216,4,automotive,1,2014-11-07 18:36:02.599,0,2014-11-07 18:29:52.817,0
2014-11-07 18:36:03.289,111,55.5,37.78627,-122.413,30.18353,0,171.1553,4,5,1415414163,0.7589569,-0.4111633,-0.5241852,-68.02789,8.46891,-88.42728,90.0239,76.21542,25,0.05926439,0.04079031,0.02992781,0.8412188,0.9693615,0.3718553,0.006745533,0.004042021,0.001658271,-0.04295257,-0.03028638,0.003930768,0.0.0.0,10.62.21.216,4,automotive,1,2014-11-07 18:36:02.599,0,2014-11-07 18:29:52.817,0
2014-11-07 18:36:03.785,112,56,37.78627,-122.413,30.18353,0,171.1553,4,5,1415414163,0.7121582,-0.4425964,-0.5076752,-67.41193,8.468903,-88.69168,89.80109,75.99261,25,0.05433008,0.04081055,0.02746385,0.8422184,0.9640294,0.3948524,-0.001881781,9.811448e-07,0.001832504,-0.01037497,-0.05186675,0.0002916258,0.0.0.0,10.62.21.216,4,automotive,1,2014-11-07 18:36:03.544,0,2014-11-07 18:29:52.817,0
2014-11-07 18:36:04.247,113,56.5,37.78624,-122.413,30.8591,0.23,171.1553,4,5,1415414164,0.7646484,-0.4143219,-0.5391235,-67.71993,8.434929,-88.65863,89.48679,75.67831,25,0.0592319,0.04454723,0.03611779,0.8441445,0.9590523,0.422587,0.005464266,0.003290395,0.009446003,-0.01320313,0.01110389,-0.004132505,0.0.0.0,10.62.21.216,4,automotive,1,2014-11-07 18:36:03.544,0,2014-11-07 18:29:52.817,0
2014-11-07 18:36:04.787,114,57,37.78624,-122.413,30.8591,0.23,171.1553,4,5,1415414164,0.7755585,-0.3817902,-0.538147,-67.41196,7.789192,-89.68304,89.15967,75.35119,25,0.04318369,0.03839852,0.02867106,0.843291,0.9632115,0.4126542,-0.004591245,-0.001898824,0.003215516,-0.003286616,0.01011197,0.009888995,0.0.0.0,10.62.21.216,4,automotive,1,2014-11-07 18:36:03.544,0,2014-11-07 18:29:52.817,0
2014-11-07 18:36:05.288,115,57.5,37.78623,-122.413,30.95004,0.68,171.1553,4,5,1415414165,0.7846832,-0.3557739,-0.5348053,-67.10397,8.298981,-88.79071,89.04552,75.23704,25,0.06048518,0.03954981,0.03238004,0.8434659,0.9645866,0.3908683,0.01374362,0.0002234292,0.001901598,0.002696353,0.02619402,-0.004846648,0.0.0.0,10.62.21.216,4,automotive,1,2014-11-07 18:36:03.544,0,2014-11-07 18:29:52.817,0
2014-11-07 18:36:05.787,116,58,37.78623,-122.413,30.95004,0.68,171.1553,4,5,1415414165,0.7450562,-0.4108734,-0.5549164,-67.92528,9.182632,-88.19598,88.98958,75.18109,25,0.0579898,0.04082466,0.03608477,0.8431194,0.9655429,0.3827894,-7.718004e-05,-0.008657736,0.005450502,-0.03563757,-0.05344677,-0.004297203,0.0.0.0,10.62.21.216,4,unknown,0,2014-11-07 18:36:05.751,0,2014-11-07 18:29:52.817,0
2014-11-07 18:36:06.286,117,58.5,37.78621,-122.413,30.99512,1.04,171.1553,4,5,1415414166,0.7351685,-0.394455,-0.5255127,-66.55647,8.706818,-89.18747,88.92192,75.11343,25,0.06916815,0.05068129,0.03124873,0.845851,0.9587161,0.4026505,0.01607376,0.01224881,0.0007951659,0.01253433,-0.002932365,-0.02563996,0.0.0.0,10.62.21.216,4,automotive,0,2014-11-07 18:36:06.066,0,2014-11-07 18:29:52.817,0
2014-11-07 18:36:06.787,118,59,37.78621,-122.413,30.99512,1.04,171.1553,4,5,1415414166,0.7790527,-0.3952484,-0.5312958,-65.39296,8.910759,-88.39417,88.71506,74.90658,25,0.05312048,0.05075506,0.02508804,0.8436589,0.9618787,0.401085,-0.005111726,0.008415912,0.001921591,0.01335467,-0.003244078,-0.001123535,0.0.0.0,10.62.21.216,4,automotive,0,2014-11-07 18:36:06.066,0,2014-11-07 18:29:52.817,0
2014-11-07 18:36:07.288,119,59.5,37.7862,-122.413,31.25253,1.04,171.1553,4,5,1415414167,0.7654266,-0.3731232,-0.54039,-66.65914,9.012726,-88.69159,88.51405,74.70557,25,0.06300613,0.04074583,0.02500282,0.8422818,0.9611795,0.3963484,0.006013245,0.000878011,-0.0006318128,0.01737287,0.01488232,0.008910634,0.0.0.0,10.62.21.216,4,automotive,1,2014-11-07 18:36:07.327,0,2014-11-07 18:29:52.817,0
2014-11-07 18:36:07.789,120,60,37.7862,-122.413,31.25253,1.04,171.1553,4,5,1415414167,0.7325745,-0.3626404,-0.5047607,-66.83025,9.182648,-89.12131,88.498,74.68952,25,0.06538753,0.03208496,0.03847282,0.8413314,0.9577428,0.389799,0.0145414,-0.005492995,0.002917483,0.0101522,-0.004961505,0.01296535,0.0.0.0,10.62.21.216,4,automotive,1,2014-11-07 18:36:07.957,0,2014-11-07 18:29:52.817,0
2014-11-07 18:36:08.282,121,60.5,37.78618,-122.413,31.35138,2.14,171.1553,4,5,1415414168,0.7858124,-0.4233551,-0.5643463,-67.412,8.40097,-88.82385,88.47319,74.6647,25,0.07156393,0.0183633,0.0371226,0.836946,0.9590331,0.3987737,0.0131572,-0.01052699,0.007755493,-0.0008645951,-0.005907004,-0.01213176,0.0.0.0,10.62.21.216,4,unknown,0,2014-11-07 18:36:08.272,0,2014-11-07 18:29:52.817,0
2014-11-07 18:36:08.785,122,61,37.78618,-122.413,31.35138,2.14,171.1553,4,5,1415414168,0.71315,-0.4633789,-0.519043,-67.00134,9.080688,-88.22897,88.35483,74.54634,25,0.06546103,0.03701075,0.02743349,0.8339896,0.9544556,0.4205795,0.01063635,-0.001863276,0.0004480518,-0.03787089,-0.06665555,0.01292193,0.0.0.0,10.62.21.216,4,unknown,0,2014-11-07 18:36:08.272,0,2014-11-07 18:29:52.817,0
2014-11-07 18:36:09.288,123,61.5,37.78616,-122.413,31.39914,2.16,171.1553,4,5,1415414169,0.7669983,-0.3779144,-0.5263672,-67.68576,9.488556,-88.62552,88.13399,74.32551,25,0.06298696,0.04324867,0.028719,0.8290293,0.9540684,0.4172858,0.007945906,-0.00183911,-0.004563467,0.03114098,0.05141407,-0.01177162,0.0.0.0,10.62.21.216,4,unknown,0,2014-11-07 18:36:08.272,0,2014-11-07 18:29:52.817,0
2014-11-07 18:36:09.775,124,62,37.78616,-122.413,31.39914,2.16,171.1553,4,5,1415414169,0.7162628,-0.4493103,-0.5308075,-67.6173,9.488533,-88.22897,88.03102,74.22253,25,0.07415465,0.03319976,0.02124537,0.8207797,0.9537619,0.4236255,0.02508159,-0.006878611,-0.00837663,-0.04770214,-0.01807006,-0.001550514,0.0.0.0,10.62.21.216,4,unknown,0,2014-11-07 18:36:08.272,0,2014-11-07 18:29:52.817,0
2014-11-07 18:36:10.282,125,62.5,37.78613,-122.413,31.10526,2.58,171.1553,4,5,1415414170,0.717926,-0.4621277,-0.5263062,-67.1382,9.352577,-88.95609,87.83884,74.03035,25,0.09894069,0.02928305,0.01382926,0.8078495,0.9482318,0.4422787,0.03593069,-0.01437602,-0.01827201,-0.05521603,-0.01944874,-0.02624125,0.0.0.0,10.62.21.216,4,unknown,0,2014-11-07 18:36:08.272,0,2014-11-07 18:29:52.817,0
2014-11-07 18:36:10.773,126,63,37.78613,-122.413,31.10526,2.58,171.1553,4,5,1415414170,0.7563019,-0.442688,-0.5428162,-66.4538,8.332977,-88.29498,87.6097,73.80121,25,0.1051661,0.01303724,0.003837083,0.782117,0.949819,0.4492738,0.03934215,-0.01931754,-0.0294052,-0.05672672,0.01945552,-0.03154244,0.0.0.0,10.62.21.216,4,unknown,0,2014-11-07 18:36:08.272,0,2014-11-07 18:29:52.817,0
2014-11-07 18:36:11.291,127,63.5,37.78609,-122.413,30.89438,3.42,171.1553,4,5,1415414171,0.7683411,-0.39711,-0.5081787,-66.93289,7.789185,-88.75784,87.53416,73.72569,25,0.0878188,-0.0005270396,0.004944691,0.7574193,0.9407075,0.4326589,0.03890203,-0.04037356,-0.02220715,0.02503656,0.01302086,0.001978931,0.0.0.0,10.62.21.216,4,unknown,0,2014-11-07 18:36:08.272,0,2014-11-07 18:29:52.817,0
2014-11-07 18:36:11.792,128,64,37.78609,-122.413,30.89438,3.42,171.1553,4,5,1415414171,0.7094421,-0.3893738,-0.5619354,-67.61731,6.837555,-88.62567,87.65889,73.8504,25,0.1150171,0.03416703,0.01633929,0.7335355,0.9369339,0.4169422,0.05336538,-0.003050137,-0.01568975,-0.04989035,0.04783452,-0.01061613,0.0.0.0,10.62.21.216,4,unknown,0,2014-11-07 18:36:08.272,0,2014-11-07 18:29:52.817,0
2014-11-07 18:36:12.286,129,64.5,37.78606,-122.413,30.77219,3.58,171.1553,4,5,1415414172,0.7419281,-0.3957825,-0.5240936,-67.78841,7.687187,-89.38571,87.81882,74.01034,25,0.09772363,0.03923289,0.0126849,0.7075784,0.9389798,0.4236837,0.04223683,-0.005470598,-0.01694519,0.02443478,0.005328963,-0.003113798,0.0.0.0,10.62.21.216,4,unknown,0,2014-11-07 18:36:08.272,0,2014-11-07 18:29:52.817,0
2014-11-07 18:36:12.791,130,65,37.78606,-122.413,30.77219,3.58,171.1553,4,5,1415414172,0.8000488,-0.4016724,-0.5532837,-67.20667,7.585213,-90.34412,87.94556,74.13707,25,0.06309348,0.068064,0.01662292,0.6913205,0.9518763,0.4164054,0.002361484,0.02600183,-0.01661484,0.0566087,-0.005131293,-0.02325216,0.0.0.0,10.62.21.216,4,unknown,0,2014-11-07 18:36:08.272,0,2014-11-07 18:29:52.817,0
2014-11-07 18:36:13.282,131,65.5,37.78602,-122.413,30.67078,4.2,171.1553,4,10,1415414173,0.7899017,-0.4149017,-0.5243835,-68.37017,8.061012,-90.93903,88.11467,74.30619,25,0.05303366,0.06450736,0.04244839,0.6919633,0.9557213,0.4149292,-0.006448419,0.02616402,0.006762848,0.02485142,-0.01038801,0.007091097,0.0.0.0,10.62.21.216,4,unknown,0,2014-11-07 18:36:13.316,0,2014-11-07 18:29:52.817,0
2014-11-07 18:36:13.782,132,66,37.78602,-122.413,30.67078,4.2,171.1553,4,10,1415414173,0.7963257,-0.4174347,-0.5029297,-68.91769,8.264938,-89.88147,88.30991,74.50143,25,0.02189864,0.08724729,0.08081309,0.7065195,0.9812062,0.4148308,-0.03059538,0.05035345,0.04652275,0.05519953,-0.02186116,-0.005176784,0.0.0.0,10.62.21.216,4,automotive,0,2014-11-07 18:36:13.631,0,2014-11-07 18:29:52.817,0
2014-11-07 18:36:14.288,133,66.5,37.78595,-122.413,30.26288,5.12,171.1553,4,10,1415414174,0.8467865,-0.493576,-0.518219,-70.59451,9.590408,-89.51801,88.46532,74.65683,25,-0.001815211,0.07882851,0.1127492,0.7409439,1.01309,0.4232658,-0.06565581,0.0384873,0.08705722,0.08341394,-0.05628557,-0.02289527,0.0.0.0,10.62.21.216,4,automotive,0,2014-11-07 18:36:13.631,0,2014-11-07 18:29:52.817,0
2014-11-07 18:36:14.783,134,67,37.78595,-122.413,30.26288,5.12,171.1553,4,10,1415414174,0.8141022,-0.5140228,-0.4619141,-69.70478,8.162979,-90.97214,88.29781,74.48933,25,-0.006635532,0.08623476,0.0931105,0.7919745,1.01478,0.451966,-0.07071941,0.03724406,0.06746206,0.0528146,-0.07710473,-0.008634359,0.0.0.0,10.62.21.216,4,automotive,0,2014-11-07 18:36:13.631,0,2014-11-07 18:29:52.817,0
2014-11-07 18:36:15.283,135,67.5,37.78589,-122.413,30.02051,5.5,171.1553,4,10,1415414175,0.7489014,-0.4228516,-0.5412903,-70.11544,7.891113,-91.76535,87.88037,74.07188,25,0.04789269,0.05471864,0.07191467,0.8350777,1.000307,0.4601239,-0.01001877,0.008164562,0.04751429,0.01147473,-0.001589081,-0.0617763,0.0.0.0,10.62.21.216,4,automotive,0,2014-11-07 18:36:13.631,0,2014-11-07 18:29:52.817,0
2014-11-07 18:36:15.788,136,68,37.78589,-122.413,30.02051,5.5,171.1553,4,10,1415414175,0.7319641,-0.4291687,-0.4169769,-72.40823,6.973488,-91.40192,87.84048,74.032,25,0.07147125,0.03336435,0.05572531,0.8528073,0.9754847,0.4679301,0.000911831,-0.01804606,0.03753025,0.04675109,0.008855417,-0.04409965,0.0.0.0,10.62.21.216,4,automotive,2,2014-11-07 18:36:15.837,0,2014-11-07 18:29:52.817,0
2014-11-07 18:36:16.251,137,68.5,37.78581,-122.4129,30.01669,5.83,171.1553,4,10,1415414176,0.638916,-0.3633118,-0.5650177,-73.60596,7.619232,-90.57574,87.94092,74.13244,25,0.06546636,0.06438752,0.03259949,0.8595996,0.9635828,0.4553344,-0.00490847,0.0128531,-0.01514751,-0.01753641,0.01080755,-0.03537392,0.0.0.0,10.62.21.216,4,automotive,2,2014-11-07 18:36:15.837,0,2014-11-07 18:29:52.817,0
2014-11-07 18:36:16.784,138,69,37.78581,-122.4129,30.01669,5.83,171.1553,4,10,1415414176,0.7197418,-0.3709564,-0.5640106,-71.51849,7.85714,-92.92209,87.93073,74.12224,25,0.05207865,0.05186773,-0.006918893,0.8564886,0.9674639,0.4554684,-0.01967802,-0.0007916516,-0.03004511,-0.002015143,0.03241232,-0.02856927,0.0.0.0,10.62.21.216,4,automotive,2,2014-11-07 18:36:15.837,0,2014-11-07 18:29:52.817,0
2014-11-07 18:36:17.289,139,69.5,37.78581,-122.4129,30.09302,5.89,171.1553,4,10,1415414177,0.7453308,-0.4127655,-0.5410919,-70.38919,8.366928,-92.0296,88.02536,74.21688,25,0.08050895,0.04175331,-0.004537228,0.8525445,0.9442466,0.4305786,0.03078563,0.00747217,-0.03610321,-0.01680258,0.02043921,-0.005969536,0.0.0.0,10.62.21.216,4,automotive,2,2014-11-07 18:36:15.837,0,2014-11-07 18:29:52.817,0
2014-11-07 18:36:17.794,140,70,37.78581,-122.4129,30.09302,5.89,171.1553,4,10,1415414177,0.6944427,-0.3919067,-0.525528,-67.34355,8.332939,-90.60846,88.10661,74.29813,25,0.05095852,0.06174832,-0.02407205,0.8343552,0.9500014,0.4113007,-0.0002232775,0.0275567,-0.05447434,-0.0394782,0.01280847,-6.301704e-05,0.0.0.0,10.62.21.216,4,automotive,2,2014-11-07 18:36:17.728,0,2014-11-07 18:29:52.817,0
2014-11-07 18:36:18.282,141,70.5,37.78572,-122.4129,29.91458,5.49,171.5315,4,10,1415414178,0.7572479,-0.4243622,-0.5509033,-68.5755,8.53688,-92.52542,88.40295,74.59447,25,0.05450319,0.04193147,-0.0008484831,0.8300423,0.9533237,0.3811704,-0.009035838,0.0127788,-0.03243652,0.01371132,-0.01256017,-0.001456284,0.0.0.0,10.62.21.216,4,automotive,2,2014-11-07 18:36:18.358,0,2014-11-07 18:29:52.817,0
2014-11-07 18:36:18.791,142,71,37.78572,-122.4129,29.91458,5.49,171.5315,4,10,1415414178,0.7418213,-0.3985596,-0.5390625,-67.41199,9.148651,-91.93039,88.54144,74.73296,25,0.06671005,0.03450551,0.02494903,0.8274608,0.951354,0.3617572,0.004343904,-0.005786326,-0.01157012,0.01628204,-0.04667068,0.01230314,0.0.0.0,10.62.21.216,4,automotive,2,2014-11-07 18:36:18.358,0,2014-11-07 18:29:52.817,0
2014-11-07 18:36:19.291,143,71.5,37.78563,-122.4129,29.6261,6.95,171.5315,4,10,1415414179,0.7403259,-0.4382019,-0.5408478,-66.79602,9.012688,-92.12863,88.43378,74.6253,25,0.05075666,0.03824566,0.004043744,0.8255301,0.9464158,0.3720143,0.002020801,0.004102089,-0.02743643,0.03134204,-0.04089571,-0.05576555,0.0.0.0,10.62.21.216,4,automotive,2,2014-11-07 18:36:18.358,0,2014-11-07 18:29:52.817,0
2014-11-07 18:36:19.783,144,72,37.78563,-122.4129,29.6261,6.95,171.5315,4,10,1415414179,0.7490234,-0.4014282,-0.5720367,-67.99376,7.211426,-90.77347,88.32478,74.5163,25,0.05573037,0.04566469,0.001647431,0.8177914,0.9486399,0.3744147,-0.01281896,0.00796935,-0.03595111,0.02568641,-0.04487091,-0.01613362,0.0.0.0,10.62.21.216,4,automotive,2,2014-11-07 18:36:18.358,0,2014-11-07 18:29:52.817,0
2014-11-07 18:36:20.282,145,72.5,37.78556,-122.4129,29.02182,6.98,171.5315,4,10,1415414180,0.7374115,-0.38237,-0.5562286,-66.8987,7.823158,-90.97165,88.37465,74.56617,25,0.06177735,0.03576918,0.02249599,0.8100042,0.9531642,0.3740013,0.009242228,-0.005650662,-0.00397987,0.03009018,-0.04319575,-0.05240198,0.0.0.0,10.62.21.216,4,automotive,2,2014-11-07 18:36:18.358,0,2014-11-07 18:29:52.817,0
2014-11-07 18:36:20.791,146,73,37.78556,-122.4129,29.02182,6.98,171.5315,4,10,1415414180,0.7547607,-0.3935547,-0.5836945,-69.25995,8.604828,-90.01337,88.49176,74.68328,25,0.06662856,0.02336258,0.03593377,0.8062924,0.9478433,0.3842952,0.01162717,-0.004395191,0.01207571,0.01361801,-0.002474498,-0.0137903,0.0.0.0,10.62.21.216,4,automotive,2,2014-11-07 18:36:18.358,0,2014-11-07 18:29:52.817,0
2014-11-07 18:36:21.283,147,73.5,37.78549,-122.4129,28.5853,7.89,171.5315,4,10,1415414181,0.7595673,-0.3725281,-0.5810394,-67.61734,10.37212,-88.09647,88.4599,74.65142,25,0.06174699,0.02956801,0.02613573,0.8035536,0.9448853,0.38439,-0.005644002,-0.01545082,-0.0002746848,0.02654148,-0.01198443,-0.04213452,0.0.0.0,10.62.21.216,4,automotive,2,2014-11-07 18:36:18.358,0,2014-11-07 18:29:52.817,0
2014-11-07 18:36:21.767,148,74,37.78549,-122.4129,28.5853,7.89,171.5315,4,10,1415414181,0.8315887,-0.3338776,-0.5336151,-67.2067,9.964272,-90.21164,88.39238,74.5839,25,0.06551696,0.0456828,0.02012125,0.7981198,0.9521926,0.3785151,0.008012587,0.009350433,-0.002539498,0.07748247,0.0220527,-0.01237403,0.0.0.0,10.62.21.216,4,automotive,2,2014-11-07 18:36:18.358,0,2014-11-07 18:29:52.817,0
2014-11-07 18:36:22.288,149,74.5,37.78543,-122.4129,28.0495,7.82,171.5315,4,10,1415414182,0.796875,-0.2700958,-0.5058899,-69.02039,8.706772,-90.37689,88.76062,74.95213,25,0.1048321,0.03194435,0.06311026,0.7943915,0.9573937,0.3733283,0.03745579,-0.004250825,0.03553314,0.06663281,0.1035623,0.006734961,0.0.0.0,10.62.21.216,4,automotive,2,2014-11-07 18:36:18.358,0,2014-11-07 18:29:52.817,0
2014-11-07 18:36:22.772,150,75,37.78543,-122.4129,28.0495,7.82,171.5315,4,10,1415414182,0.8431396,-0.2799835,-0.5786285,-69.87589,9.624413,-88.88962,89.32637,75.51788,25,0.04572435,0.04331418,0.0188637,0.7901754,0.9710391,0.3320951,-0.01684795,0.007154677,-0.01020339,0.04662589,0.0392202,-0.04490473,0.0.0.0,10.62.21.216,4,automotive,2,2014-11-07 18:36:18.358,0,2014-11-07 18:29:52.817,0
2014-11-07 18:36:23.287,151,75.5,37.78543,-122.4129,28.0495,7.82,171.5315,4,10,1415414182,0.8572845,-0.3553162,-0.529892,-69.60212,9.284546,-89.41843,89.64221,75.83373,25,0.07999497,0.0134953,0.07402416,0.7905712,0.972394,0.3340931,0.01496654,-0.03250824,0.04613188,0.01116507,-0.01505926,-0.03178891,0.0.0.0,10.62.21.216,4,automotive,2,2014-11-07 18:36:18.358,0,2014-11-07 18:29:52.817,0
2014-11-07 18:36:23.790,152,76,37.78535,-122.4129,27.76761,8.08,171.5315,4,10,1415414183,0.7227783,-0.3504639,-0.5159912,-65.22186,5.546043,-89.08792,89.99121,76.18273,25,0.08007593,0.03583976,0.06560058,0.7882929,0.9666756,0.3335392,0.04099622,-0.004065577,0.04764051,-0.06356512,0.01694913,0.109213,0.0.0.0,10.62.21.216,4,automotive,2,2014-11-07 18:36:23.402,0,2014-11-07 18:29:52.817,0
2014-11-07 18:36:24.285,153,76.5,37.78533,-122.4128,27.12152,7.6,171.5315,4,10,1415414184,0.76474,-0.3599243,-0.5386963,-70.45764,8.027054,-89.98016,90.24162,76.43314,25,0.08392207,0.05314471,0.04728256,0.7851986,0.97568,0.3379925,0.02514222,0.01342243,0.02815397,-0.01803334,-0.005182874,0.009356053,0.0.0.0,10.62.21.216,4,automotive,2,2014-11-07 18:36:23.402,0,2014-11-07 18:29:52.817,0
