time,timestamp,recordtime,lat,long,alt,speed,course,verticalAccuracy,horizontalAccuracy,locTimeStamp,accelerationX,accelerationY,accelerationZ,HeadingX,HeadingY,HeadingZ,TrueHeading,MagneticHeading,HeadingAccuracy,RotationX,RotationY,RotationZ,motionYaw,motionRoll,motionPitch,motionRotationRateX,motionRotationRateY,motionRotationRateZ,motionUserAccelerationX,motionUserAccelerationY,motionUserAccelerationZ,en0,pdp_ip0,DeviceOrientation,Activity,Activity Confidence,Activity Start,Steps,Last Step Date,State
2014-11-07 19:04:15.279,1,0.5,37.57072,-122.3138,5.062919,-1,-1,32.73775,165,1415415853,0.1764832,-0.7333221,-0.7207947,-58.15305,-2.942955,-11.10809,100.9889,87.18039,20,0.06641604,-0.3059285,-0.2058496,-0.2570285,0.3440075,0.790733,0.006352192,-0.3242025,-0.1842716,-0.02333777,-0.009208517,-0.05307759,0.0.0.0,10.62.21.216,1,unknown,0,2014-11-07 19:04:00.531,0,2014-11-07 19:04:10.693,0
2014-11-07 19:04:15.779,2,1,37.57072,-122.3138,5.062919,-1,-1,32.73775,165,1415415853,-0.007507324,-0.6341553,-0.8926392,-61.19871,-7.531136,8.291565,114.1634,100.3549,20,-0.4304813,-0.4313711,-0.31668,-0.3330667,0.05483687,0.7661757,-0.7586386,-0.5529719,-0.4006739,0.01545303,-0.03714509,-0.02952372,0.0.0.0,10.62.21.216,1,unknown,0,2014-11-07 19:04:00.531,0,2014-11-07 19:04:10.693,0
2014-11-07 19:04:16.279,3,1.5,37.57072,-122.3138,5.062919,-1,-1,32.73775,165,1415415853,0.2623749,-0.6222076,-0.735733,-57.50285,-21.73745,-3.14328,122.0238,108.2154,20,0.1135902,0.1292661,-0.1355197,-0.5865785,0.3909271,0.7245887,-0.0225637,0.0949042,-0.2224398,0.00852209,0.006821672,-0.08037741,0.0.0.0,10.62.21.216,1,unknown,0,2014-11-07 19:04:00.531,0,2014-11-07 19:04:10.693,0
2014-11-07 19:04:16.779,4,2,37.57072,-122.3138,5.062919,-1,-1,32.73775,165,1415415853,0.2664642,-0.7281647,-0.7913208,-57.12643,-21.43158,-1.722168,122.8266,109.0181,20,0.01628736,-0.01554833,0.1673384,-0.5694389,0.3384685,0.7287071,-0.270028,-0.1223192,0.1180259,0.01732925,-0.06463939,-0.04206423,0.0.0.0,10.62.21.216,1,unknown,0,2014-11-07 19:04:00.531,0,2014-11-07 19:04:10.693,0
2014-11-07 19:04:17.282,5,2.5,37.56928,-122.3121,3.589417,24.8,139.9219,64,30,1415415857,0.2374725,-0.6687775,-0.7666168,-57.63974,-20.58195,0.09558105,122.9236,109.1151,20,0.02576928,0.08747925,-0.1494558,-0.5559275,0.3144927,0.7316589,-0.05263475,-0.01682465,-0.1900173,-0.003496021,-0.04275634,-0.05234503,0.0.0.0,10.62.21.216,1,unknown,0,2014-11-07 19:04:00.531,0,2014-11-07 19:04:10.693,0
2014-11-07 19:04:17.853,6,3,37.56904,-122.3121,4.877014,23.06,139.2188,3,10,1415415857,0.2323303,-0.6991577,-0.740036,-57.63973,-20.78581,-0.8297119,122.8569,109.0484,20,0.1714218,0.00181814,0.09364873,-0.563277,0.3225926,0.7310994,0.08462632,0.04536336,0.02360907,0.002945167,-0.04063975,-0.04418883,0.0.0.0,10.62.21.216,1,unknown,0,2014-11-07 19:04:00.531,0,2014-11-07 19:04:10.693,0
2014-11-07 19:04:18.353,7,3.5,37.56904,-122.3121,4.877014,23.06,139.2188,3,10,1415415857,0.287796,-0.6666718,-0.7566071,-57.36597,-22.34918,-1.490723,123.8304,110.0219,20,0.1501581,0.00335798,0.1318299,-0.5797257,0.3367289,0.7199392,0.08358107,0.07069117,0.0293156,0.02289032,0.006247575,-0.01397981,0.0.0.0,10.62.21.216,1,unknown,0,2014-11-07 19:04:18.184,0,2014-11-07 19:04:10.693,0
2014-11-07 19:04:18.853,8,4,37.56888,-122.312,4.698578,23.49,139.5703,3,5,1415415858,0.2540741,-0.586853,-0.698288,-57.43442,-22.82501,-1.358643,124.2826,110.4741,20,0.1271441,-0.01800643,0.04543805,-0.5854838,0.3402407,0.7107784,0.0611157,-0.04450896,0.01827927,0.02678706,0.03279496,0.004281027,0.0.0.0,10.62.21.216,1,unknown,0,2014-11-07 19:04:18.184,0,2014-11-07 19:04:10.693,0
2014-11-07 19:04:19.353,9,4.5,37.56888,-122.312,4.698578,23.49,139.5703,3,5,1415415858,0.2266693,-0.6955109,-0.8004456,-56.5789,-22.17927,-1.722168,124.5384,110.7299,20,0.1764403,0.06147721,0.09540535,-0.5804676,0.3339401,0.6992087,0.07775465,-0.03150735,0.1239734,0.002972155,-0.02988017,-0.06624956,0.0.0.0,10.62.21.216,1,unknown,0,2014-11-07 19:04:18.184,0,2014-11-07 19:04:10.693,0
2014-11-07 19:04:19.792,10,5,37.56888,-122.312,4.698578,23.49,139.5703,3,5,1415415858,0.2447815,-0.6166229,-0.6947632,-57.12643,-22.17926,-1.457855,124.0937,110.2852,20,0.1496515,0.07253972,0.0265368,-0.5857096,0.3393023,0.7040892,0.1665175,0.09312406,0.02543365,0.01947986,-0.01188562,-0.09685136,0.0.0.0,10.62.21.216,1,unknown,0,2014-11-07 19:04:18.184,0,2014-11-07 19:04:10.693,0
2014-11-07 19:04:20.353,11,5.5,37.56874,-122.3118,4.581207,23.63,139.2188,3,5,1415415859,0.2353058,-0.6826324,-0.6719818,-56.98954,-22.92695,-1.722168,125.3051,111.4967,20,0.02025973,0.0128676,0.130647,-0.5836361,0.340898,0.699962,0.2102236,-0.003550255,0.1633023,0.009751821,-0.003379176,-0.05575901,0.0.0.0,10.62.21.216,1,unknown,0,2014-11-07 19:04:18.184,0,2014-11-07 19:04:10.693,0
2014-11-07 19:04:20.854,12,6,37.56855,-122.3116,4.28363,23.69,139.2188,3,5,1415415860,0.3534088,-0.6915741,-0.8405151,-56.37357,-22.65504,-1.986572,124.3138,110.5053,20,0.1495221,0.1634859,0.06797159,-0.5874728,0.3414927,0.6947359,0.06094051,0.07585648,-0.06562255,0.05962135,-0.05125418,-0.1230767,0.0.0.0,10.62.21.216,1,automotive,2,2014-11-07 19:04:20.706,0,2014-11-07 19:04:10.693,0
2014-11-07 19:04:21.353,13,6.5,37.56855,-122.3116,4.28363,23.69,139.2188,3,5,1415415860,0.2777405,-0.5848389,-0.7154236,-55.99714,-22.96092,-2.151855,124.781,110.9725,20,0.3708803,0.01247158,0.2588039,-0.5941819,0.3540387,0.6965405,0.3132368,0.1449842,0.2065575,0.0856902,-0.02145707,-0.1154222,0.0.0.0,10.62.21.216,1,automotive,2,2014-11-07 19:04:20.706,0,2014-11-07 19:04:10.693,0
2014-11-07 19:04:21.853,14,7,37.56841,-122.3114,2.912903,23.82,139.4608,4,10,1415415861,0.252655,-0.669342,-0.6912537,-56.85266,-22.38316,-1.391693,124.2454,110.4369,20,-0.007572965,0.06984886,0.04001613,-0.5873798,0.3384688,0.7170201,-0.03591174,0.03319306,0.03844808,-0.00162609,0.01079438,0.04666454,0.0.0.0,10.62.21.216,1,automotive,2,2014-11-07 19:04:20.706,0,2014-11-07 19:04:10.693,0
2014-11-07 19:04:22.353,15,7.5,37.56841,-122.3114,2.912903,23.82,139.4608,4,10,1415415861,0.2268219,-0.7167358,-0.75177,-57.5713,-21.66947,-0.4993286,123.7432,109.9348,20,-0.05428534,0.1159735,-0.0002277003,-0.569313,0.3065,0.7172273,-0.1111513,0.03590876,0.01542149,0.02197081,-0.03001926,-0.01275377,0.0.0.0,10.62.21.216,1,automotive,2,2014-11-07 19:04:20.706,0,2014-11-07 19:04:10.693,0
2014-11-07 19:04:22.853,16,8,37.56835,-122.3114,3.086609,23.73,139.4608,3,5,1415415862,0.1770782,-0.5796509,-0.5696564,-57.60551,-22.45116,0.0625,124.4131,110.6047,20,0.1872181,-0.1300006,0.1121979,-0.5707429,0.3062457,0.7279482,0.1664317,-0.1494308,0.1111531,0.008269352,0.02738458,0.02734265,0.0.0.0,10.62.21.216,1,automotive,2,2014-11-07 19:04:20.706,0,2014-11-07 19:04:10.693,0
2014-11-07 19:04:23.353,17,8.5,37.56815,-122.3112,2.55899,23.98,139.5199,3,10,1415415863,0.2531433,-0.6589508,-0.7857819,-57.43441,-22.07732,-0.4993896,123.9419,110.1334,20,0.350293,0.1732019,0.01639229,-0.571881,0.3083988,0.7178398,0.06145379,0.01695896,-0.066806,0.05797592,-0.08978423,-0.09641051,0.0.0.0,10.62.21.216,1,automotive,2,2014-11-07 19:04:20.706,0,2014-11-07 19:04:10.693,0
2014-11-07 19:04:23.853,18,9,37.56815,-122.3112,2.55899,23.98,139.5199,3,10,1415415863,0.2950745,-0.6619263,-0.713913,-56.9211,-22.99496,-0.2019043,125.0934,111.2849,20,-0.1054202,0.03319337,0.04828764,-0.5833959,0.3257384,0.7110978,-0.2359516,0.0403387,0.02722385,0.05028678,0.05171375,0.1109933,0.0.0.0,10.62.21.216,1,automotive,2,2014-11-07 19:04:20.706,0,2014-11-07 19:04:10.693,0
2014-11-07 19:04:24.353,19,9.5,37.56797,-122.311,2.459442,24.11,139.5199,3,10,1415415864,0.2286377,-0.6547394,-0.7179108,-57.7424,-22.17928,-0.4661865,124.1314,110.3229,20,-0.0899733,0.133483,-0.02840581,-0.5718876,0.3125934,0.714658,-0.1291574,0.07925478,-0.02026266,-0.001812058,0.03753074,-0.006719171,0.0.0.0,10.62.21.216,1,automotive,2,2014-11-07 19:04:20.706,0,2014-11-07 19:04:10.693,0
2014-11-07 19:04:24.853,20,10,37.56797,-122.311,2.459442,24.11,139.5199,3,10,1415415864,0.1971283,-0.6696625,-0.7952423,-57.36597,-20.92179,-1.490814,122.752,108.9435,20,0.04838271,0.1340212,0.008578308,-0.5397317,0.29183,0.6954504,-0.119812,-0.0262651,0.04667175,-0.03848657,0.01277108,-0.01332339,0.0.0.0,10.62.21.216,1,automotive,2,2014-11-07 19:04:20.706,0,2014-11-07 19:04:10.693,0
2014-11-07 19:04:25.353,21,10.5,37.5678,-122.3108,1.875092,24.14,139.1849,3,10,1415415865,0.2765961,-0.5734253,-0.7080078,-57.19487,-21.70348,-2.317017,122.9825,109.174,20,0.007984689,0.1227656,-0.06541549,-0.552838,0.3109021,0.6882372,0.003948221,0.0417142,-0.1459426,0.0202196,0.03456018,-0.01791204,0.0.0.0,10.62.21.216,1,automotive,2,2014-11-07 19:04:20.706,0,2014-11-07 19:04:10.693,0
2014-11-07 19:04:25.853,22,11,37.5678,-122.3108,1.875092,24.14,139.1849,3,10,1415415865,0.1963196,-0.6030731,-0.8099213,-57.33175,-22.31523,-3.242371,123.0376,109.2291,20,0.1293513,0.004939897,-0.1095164,-0.5486143,0.3091934,0.6767125,-0.1153812,-0.04178536,-0.07528753,-0.008445378,-0.01532246,-0.03928706,0.0.0.0,10.62.21.216,1,automotive,2,2014-11-07 19:04:20.706,0,2014-11-07 19:04:10.693,0
2014-11-07 19:04:26.353,23,11.5,37.56765,-122.3106,1.446564,24.22,139.4649,3,10,1415415866,0.2891541,-0.3339539,-1.0103,-56.40779,-18.95054,-13.32227,118.901,105.0926,20,0.489538,0.1988726,0.1163988,-0.4666668,0.2935875,0.3680793,0.5138045,0.1500922,0.0744504,-0.005692203,0.02773173,-0.220107,0.0.0.0,10.62.21.216,1,automotive,2,2014-11-07 19:04:20.706,0,2014-11-07 19:04:10.693,0
2014-11-07 19:04:26.853,24,12,37.56765,-122.3106,1.446564,24.22,139.4649,3,10,1415415866,0.1944275,-0.3221283,-0.8565979,-58.90591,-18.71265,-10.24866,118.9877,105.1792,20,-0.1635804,0.03268524,-0.1549137,-0.4666067,0.2586393,0.3717712,-0.1323588,-0.1029239,-0.1397513,-0.04423157,0.008850327,0.04495309,0.0.0.0,10.62.21.216,5,automotive,2,2014-11-07 19:04:20.706,0,2014-11-07 19:04:10.693,0
2014-11-07 19:04:27.335,25,12.5,37.56748,-122.3105,0.5769653,24.27,139.4649,3,10,1415415867,0.2195892,-0.3234711,-0.8543243,-58.94012,-17.65907,-11.07483,117.9812,104.1727,20,-0.09994151,0.1825014,-0.2102254,-0.4645898,0.2658553,0.3678667,-0.1017086,0.07787403,-0.2563396,-0.04102477,-0.004296472,0.03038115,0.0.0.0,10.62.21.216,5,automotive,2,2014-11-07 19:04:20.706,0,2014-11-07 19:04:10.693,0
2014-11-07 19:04:27.853,26,13,37.56748,-122.3105,0.5769653,24.27,139.4649,3,10,1415415867,0.2524719,-0.3969879,-0.8786316,-57.67396,-19.66429,-11.17392,119.8055,105.997,20,0.2407492,-0.0662171,0.2765488,-0.490214,0.296376,0.4089335,0.3288165,-0.3042231,0.281003,0.005981533,0.01695473,-0.02008727,0.0.0.0,10.62.21.216,5,automotive,2,2014-11-07 19:04:20.706,0,2014-11-07 19:04:10.693,0
2014-11-07 19:04:28.353,27,13.5,37.56733,-122.3103,0.03155518,24.4,139.4649,3,10,1415415868,0.3200989,-0.4546051,-0.9415741,-57.19487,-19.73228,-8.530121,120.3492,106.5407,20,0.06713403,0.1785729,-0.01319064,-0.5016379,0.2897705,0.4426931,-0.04098219,0.1044203,-0.06275459,0.04498877,-0.04399185,-0.07924549,0.0.0.0,10.62.21.216,5,automotive,2,2014-11-07 19:04:20.706,0,2014-11-07 19:04:10.693,0
2014-11-07 19:04:28.854,28,14,37.56733,-122.3103,0.03155518,24.4,139.4649,3,10,1415415868,0.2837219,-0.3648224,-0.8411713,-56.98954,-20.1401,-9.521606,120.2821,106.4736,20,-0.1399204,0.07474588,-0.1705462,-0.5113862,0.3037111,0.4438883,-0.2245708,0.02412397,-0.2112894,0.007873204,0.05845197,0.03805722,0.0.0.0,10.62.21.216,5,automotive,2,2014-11-07 19:04:20.706,0,2014-11-07 19:04:10.693,0
2014-11-07 19:04:29.353,29,14.5,37.56716,-122.3101,0.1481934,24.47,139.4649,3,10,1415415869,0.2159424,-0.4113312,-0.8291626,-57.98194,-19.76626,-8.761475,119.8455,106.037,20,0.09602187,-0.176983,0.04157088,-0.4883212,0.2763756,0.4535334,0.02221081,-0.07933381,0.09578643,-0.01077231,0.04623775,0.0616607,0.0.0.0,10.62.21.216,5,automotive,2,2014-11-07 19:04:20.706,0,2014-11-07 19:04:10.693,0
2014-11-07 19:04:29.853,30,15,37.56716,-122.3101,0.1481934,24.47,139.4649,3,10,1415415869,0.2841492,-0.3937531,-0.9351349,-58.5637,-17.35325,-9.125031,118.0165,104.208,20,-0.4623812,0.2913642,0.002433597,-0.4760744,0.2668182,0.4228068,-0.4972717,0.2477187,-0.0677136,0.0209375,0.002698415,-0.03570321,0.0.0.0,10.62.21.216,5,automotive,2,2014-11-07 19:04:20.706,0,2014-11-07 19:04:10.693,0
2014-11-07 19:04:30.353,31,15.5,37.56699,-122.3099,0.1760864,24.45,139.1958,3,10,1415415870,0.20784,-0.3615265,-0.8251953,-57.94772,-16.74152,-10.57913,117.2944,103.4859,20,0.2490045,-0.08266825,-0.06838571,-0.4523307,0.2585268,0.3955514,0.2631974,-0.09023027,-0.04947519,-0.01042146,0.005327473,0.008298378,0.0.0.0,10.62.21.216,5,automotive,2,2014-11-07 19:04:20.706,0,2014-11-07 19:04:10.693,0
2014-11-07 19:04:30.853,32,16,37.56699,-122.3099,0.1760864,24.45,139.1958,3,10,1415415870,0.2162018,-0.4419708,-0.901825,-58.87169,-16.23177,-10.0173,116.9476,103.1391,20,0.1048156,0.03071157,0.06556223,-0.444836,0.2446802,0.4149154,0.007755807,-0.03968984,0.05557325,-0.004864164,-0.03759186,-0.01364249,0.0.0.0,10.62.21.216,5,automotive,2,2014-11-07 19:04:20.706,0,2014-11-07 19:04:10.693,0
2014-11-07 19:04:31.353,33,16.5,37.56683,-122.3097,-0.5010071,24.45,139.1958,3,10,1415415871,0.2544098,-0.4349823,-0.8836212,-58.5637,-16.60564,-9.785889,117.168,103.3595,20,-0.03630421,-0.02063204,0.06507327,-0.4502778,0.2562317,0.4129641,-0.07018445,-0.09643868,0.05133579,0.01519777,-0.01623073,0.02276571,0.0.0.0,10.62.21.216,5,automotive,2,2014-11-07 19:04:20.706,0,2014-11-07 19:04:10.693,0
2014-11-07 19:04:31.853,34,17,37.56683,-122.3097,-0.5010071,24.45,139.1958,3,10,1415415871,0.2288361,-0.459198,-0.947525,-58.63214,-16.4697,-10.11639,116.7048,102.8964,20,0.3267571,-0.1020507,0.1641999,-0.4472106,0.2559188,0.4231764,0.2323968,-0.09292612,0.1536191,0.02644278,-0.03430283,-0.07231355,0.0.0.0,10.62.21.216,5,automotive,2,2014-11-07 19:04:20.706,0,2014-11-07 19:04:10.693,0
2014-11-07 19:04:32.353,35,17.5,37.56666,-122.3095,-0.7209778,24.59,139.1958,3,10,1415415872,0.2788849,-0.3922272,-0.9077454,-57.67396,-17.14942,-9.78598,117.5274,103.7189,20,0.04355919,0.1215166,-0.01492941,-0.4611172,0.2626242,0.4258956,0.03494533,0.07256708,-0.08882891,0.01861144,0.001423878,-0.06551745,0.0.0.0,10.62.21.216,5,automotive,2,2014-11-07 19:04:20.706,0,2014-11-07 19:04:10.693,0
2014-11-07 19:04:32.853,36,18,37.56666,-122.3095,-0.7209778,24.59,139.1958,3,10,1415415872,0.2596741,-0.4335632,-0.9002838,-57.67396,-17.89712,-8.860535,118.5475,104.739,20,0.1912102,0.006678942,0.09615956,-0.4626197,0.2693457,0.4312455,0.1069405,0.01179402,0.0559135,0.01473156,-0.01066256,-0.01967848,0.0.0.0,10.62.21.216,5,automotive,2,2014-11-07 19:04:20.706,0,2014-11-07 19:04:10.693,0
2014-11-07 19:04:33.353,37,18.5,37.56649,-122.3094,-0.8951721,24.7,139.1958,3,10,1415415873,0.3072205,-0.4245911,-0.8584442,-57.22909,-16.9115,-9.290161,117.7998,103.9913,20,0.0735139,0.005032309,0.1207413,-0.4581702,0.2776838,0.4340563,-0.02301518,0.007610572,0.05459245,0.05811553,-0.002358227,0.0157316,0.0.0.0,10.62.21.216,5,automotive,2,2014-11-07 19:04:20.706,0,2014-11-07 19:04:10.693,0
2014-11-07 19:04:33.853,38,19,37.56649,-122.3094,-0.8951721,24.7,139.1958,3,10,1415415873,0.2972565,-0.4166565,-0.9050751,-57.36597,-17.45526,-9.752808,118.1247,104.3162,20,0.158505,-0.008917329,0.1809804,-0.462093,0.2740436,0.437324,0.07779101,-0.01016361,0.1381875,0.06171232,0.02266844,-0.02763469,0.0.0.0,10.62.21.216,5,automotive,2,2014-11-07 19:04:20.706,0,2014-11-07 19:04:10.693,0
2014-11-07 19:04:34.353,39,19.5,37.56649,-122.3094,-0.8951721,24.7,139.1958,3,10,1415415873,0.2182159,-0.4430389,-0.8088837,-57.5713,-16.7755,-9.356232,117.4904,103.6819,20,-0.1385893,0.09670497,0.02297696,-0.4564029,0.2695155,0.4543298,-0.1554245,0.0006113672,0.01385826,-0.03683021,0.007982492,0.06754882,0.0.0.0,10.62.21.216,5,automotive,2,2014-11-07 19:04:20.706,0,2014-11-07 19:04:10.693,0
2014-11-07 19:04:34.832,40,20,37.56632,-122.3092,-0.7657166,24.99,139.1958,3,10,1415415874,0.3032379,-0.41185,-0.8934479,-58.28993,-17.28532,-9.521515,117.7236,103.9151,20,0.1884378,-0.05656607,0.1313141,-0.4601061,0.2794191,0.449755,0.1371979,-0.0470595,0.0763401,0.05619513,0.02829651,-0.03723614,0.0.0.0,10.62.21.216,5,automotive,2,2014-11-07 19:04:20.706,0,2014-11-07 19:04:10.693,0
2014-11-07 19:04:35.353,41,20.5,37.56632,-122.3092,-0.7657166,24.99,139.1958,3,10,1415415874,0.2478943,-0.4333496,-0.8889923,-58.42682,-16.94544,-9.323242,117.412,103.6035,20,0.07170721,0.01950553,0.01373605,-0.4540889,0.2741196,0.4501204,-0.0496831,-0.02499201,0.04814406,0.01354203,0.0169526,0.01500137,0.0.0.0,10.62.21.216,5,automotive,2,2014-11-07 19:04:20.706,0,2014-11-07 19:04:10.693,0
2014-11-07 19:04:35.853,42,21,37.56615,-122.309,-0.597229,25.3,139.1958,3,10,1415415875,0.2950287,-0.3672485,-0.8379974,-58.01617,-17.62518,-8.794464,118.287,104.4785,20,0.05668219,0.003545466,0.03945127,-0.461553,0.2821203,0.4432347,-0.06936987,0.027111,0.01162966,0.04600915,0.05892978,0.04452114,0.0.0.0,10.62.21.216,5,automotive,2,2014-11-07 19:04:20.706,0,2014-11-07 19:04:10.693,0
2014-11-07 19:04:36.353,43,21.5,37.56615,-122.309,-0.597229,25.3,139.1958,3,10,1415415875,0.2293396,-0.4239655,-0.8770905,-58.05039,-16.77551,-9.224213,117.3358,103.5273,20,-0.02663534,0.1130078,-0.07166753,-0.4497715,0.2669784,0.4455432,-0.071389,0.07875559,-0.09756818,-0.01523916,-0.01497471,-0.009810793,0.0.0.0,10.62.21.216,5,automotive,2,2014-11-07 19:04:20.706,0,2014-11-07 19:04:10.693,0
2014-11-07 19:04:36.853,44,22,37.56598,-122.3088,-1.321747,25.43,139.1958,3,10,1415415876,0.2226105,-0.4748993,-0.9598389,-56.81844,-17.18336,-10.08353,117.5875,103.779,20,-0.0424167,0.09509882,0.07840186,-0.4487253,0.2663782,0.4397434,-0.1630782,-0.06065754,0.05382056,-0.01839193,-0.02796706,-0.01302401,0.0.0.0,10.62.21.216,5,automotive,2,2014-11-07 19:04:20.706,0,2014-11-07 19:04:10.693,0
2014-11-07 19:04:37.353,45,22.5,37.56598,-122.3088,-1.321747,25.43,139.1958,3,10,1415415876,0.2910004,-0.3941345,-0.9517059,-58.08461,-17.08141,-9.852203,117.3405,103.5321,20,0.1074623,0.1413401,0.06160877,-0.4496078,0.26214,0.4325708,-0.05747397,0.1235604,-0.01109364,0.03776256,0.02839806,-0.06404264,0.0.0.0,10.62.21.216,5,automotive,2,2014-11-07 19:04:20.706,0,2014-11-07 19:04:10.693,0
2014-11-07 19:04:37.853,46,23,37.5658,-122.3086,-1.577179,25.72,139.1958,3,10,1415415877,0.259201,-0.4160309,-0.955246,-57.63973,-16.7755,-10.28186,117.1329,103.3244,20,-0.1424413,0.1154968,0.05023175,-0.4510117,0.266677,0.4229071,-0.2830861,0.09766627,0.02303693,0.02316301,-0.001299495,-0.002627907,0.0.0.0,10.62.21.216,5,automotive,2,2014-11-07 19:04:20.706,0,2014-11-07 19:04:10.693,0
2014-11-07 19:04:38.353,47,23.5,37.56562,-122.3084,-1.439331,25.85,139.1958,3,10,1415415878,0.2321167,-0.3921204,-0.8821564,-57.43441,-16.63955,-9.885254,117.1607,103.3522,20,-0.2302649,0.1400426,-0.1527576,-0.4517952,0.2617017,0.4228395,-0.1608946,0.01266938,-0.1809679,-0.03757392,-0.001040729,-0.0004245698,0.0.0.0,10.62.21.216,5,automotive,2,2014-11-07 19:04:20.706,0,2014-11-07 19:04:10.693,0
2014-11-07 19:04:38.853,48,24,37.56562,-122.3084,-1.439331,25.85,139.1958,3,10,1415415878,0.1952667,-0.4532318,-0.8132629,-58.49526,-16.4696,-9.455658,117.0096,103.2011,20,-0.1230269,0.06623202,-0.1016579,-0.4435594,0.2519099,0.4329307,-0.1132761,0.01890251,-0.09605492,-0.0356146,-0.03575885,0.05363544,0.0.0.0,10.62.21.216,5,automotive,2,2014-11-07 19:04:20.706,0,2014-11-07 19:04:10.693,0
2014-11-07 19:04:39.353,49,24.5,37.56545,-122.3082,-1.585144,25.92,139.2621,3,10,1415415879,0.2975616,-0.3836823,-0.9707336,-57.94773,-17.42123,-11.17416,117.6751,103.8667,20,0.04997102,0.07738853,0.1423042,-0.4565273,0.2721404,0.4058857,-0.07366832,0.02067842,0.1009685,0.05532158,0.0272789,-0.03723926,0.0.0.0,10.62.21.216,5,automotive,2,2014-11-07 19:04:20.706,0,2014-11-07 19:04:10.693,0
2014-11-07 19:04:39.853,50,25,37.56545,-122.3082,-1.585144,25.92,139.2621,3,10,1415415879,0.2542267,-0.3815155,-0.9595947,-58.05039,-17.45524,-10.6123,117.8029,103.9944,20,0.04614033,0.1811645,-0.01933056,-0.4507292,0.26241,0.4078209,-0.1333973,0.1124722,-0.02256004,0.009500867,0.0196415,-0.008319861,0.0.0.0,10.62.21.216,5,automotive,2,2014-11-07 19:04:20.706,0,2014-11-07 19:04:10.693,0
2014-11-07 19:04:40.353,51,25.5,37.56527,-122.3081,-1.134399,26.03,139.2621,3,10,1415415880,0.2345886,-0.3931274,-0.8493652,-57.81084,-17.01339,-11.108,117.2924,103.4839,20,-0.006612096,-0.05815225,0.05736342,-0.4488581,0.2637329,0.4119412,0.1691875,-0.1155737,0.02977864,0.003720896,0.007612414,-0.005887333,0.0.0.0,10.62.21.216,5,automotive,2,2014-11-07 19:04:20.706,0,2014-11-07 19:04:10.693,0
2014-11-07 19:04:40.853,52,26,37.56527,-122.3081,-1.134399,26.03,139.2621,3,10,1415415880,0.235321,-0.4265594,-0.9244385,-58.46104,-16.5036,-10.3479,117.024,103.2155,20,-0.05413248,0.1420003,-0.01970153,-0.4451832,0.2580945,0.4100507,-0.02306465,0.03814319,-0.05136701,-0.02820791,-0.0224715,-0.04464148,0.0.0.0,10.62.21.216,5,automotive,2,2014-11-07 19:04:20.706,0,2014-11-07 19:04:10.693,0
2014-11-07 19:04:41.333,53,26.5,37.56509,-122.3079,-0.7736511,26.16,139.2621,3,10,1415415881,0.2095337,-0.4167633,-0.8464661,-57.81084,-17.21732,-10.38095,117.5622,103.7537,20,-0.08270767,0.06260905,-0.01794358,-0.4448786,0.260013,0.4113715,-0.1878789,0.03557559,0.002822765,-0.0126527,-0.0236409,0.05881409,0.0.0.0,10.62.21.216,5,automotive,2,2014-11-07 19:04:20.706,0,2014-11-07 19:04:10.693,0
2014-11-07 19:04:41.853,54,27,37.56509,-122.3079,-0.7736511,26.16,139.2621,3,10,1415415881,0.1835785,-0.3991852,-0.813324,-57.81084,-17.28526,-10.44711,117.6379,103.8295,20,-0.1975677,0.03455265,-0.05885719,-0.4479547,0.2600212,0.4141299,0.1422773,-0.1742029,-0.0001263098,-0.04800483,0.005573451,0.05815485,0.0.0.0,10.62.21.216,5,automotive,2,2014-11-07 19:04:20.706,0,2014-11-07 19:04:10.693,0
2014-11-07 19:04:42.353,55,27.5,37.56491,-122.3077,-0.8326416,26.27,139.2621,3,5,1415415882,0.2414551,-0.3939514,-0.9054871,-58.08461,-16.26566,-10.24884,116.9082,103.0997,20,-0.03179495,0.05967239,-0.04874064,-0.4437184,0.261944,0.4079807,0.05516104,2.779784e-05,-0.07617491,-0.003237829,-0.0227991,-0.06559747,0.0.0.0,10.62.21.216,5,automotive,2,2014-11-07 19:04:42.148,0,2014-11-07 19:04:10.693,0
2014-11-07 19:04:42.853,56,28,37.56491,-122.3077,-0.8326416,26.27,139.2621,3,5,1415415882,0.1763763,-0.4325409,-1.008636,-57.98194,-16.29967,-10.54626,116.696,102.8875,20,0.06800861,0.1679917,-0.15982,-0.4311258,0.2528089,0.4054597,-0.1180271,0.07323787,-0.06324473,-0.04292462,-0.04931488,-0.06086475,0.0.0.0,10.62.21.216,5,automotive,2,2014-11-07 19:04:42.148,0,2014-11-07 19:04:10.693,0
2014-11-07 19:04:43.353,57,28.5,37.56473,-122.3075,-1.009094,26.36,139.2621,3,5,1415415883,0.2456207,-0.3922424,-0.8650818,-58.94013,-16.63953,-11.07504,116.8937,103.0853,20,-0.1423151,0.09175975,0.02416393,-0.4431656,0.2652722,0.4033682,-0.005700578,-0.06918838,-0.05097106,-0.01227983,0.0001539608,0.002730628,0.0.0.0,10.62.21.216,5,automotive,2,2014-11-07 19:04:43.410,0,2014-11-07 19:04:10.693,0
2014-11-07 19:04:43.854,58,29,37.56473,-122.3075,-1.009094,26.36,139.2621,3,5,1415415883,0.2355347,-0.3658752,-0.8053131,-57.50285,-16.9114,-11.27332,117.0649,103.2564,20,-0.1115199,0.05432769,0.03862036,-0.4425494,0.2608336,0.4054163,-0.1977536,0.01054937,0.009877765,-0.008023214,0.03206609,0.09938813,0.0.0.0,10.62.21.216,5,automotive,2,2014-11-07 19:04:43.410,0,2014-11-07 19:04:10.693,0
2014-11-07 19:04:44.353,59,29.5,37.56455,-122.3073,-1.341644,26.43,139.2621,3,5,1415415884,0.210556,-0.4522552,-1.029083,-58.46104,-15.00813,-10.2157,115.8943,102.0859,20,0.2505901,0.1709678,-0.06985231,-0.4356785,0.2571096,0.4053573,-0.09327098,0.04054679,-0.07616413,-0.02597659,-0.05874734,-0.1050963,0.0.0.0,10.62.21.216,5,automotive,2,2014-11-07 19:04:43.410,0,2014-11-07 19:04:10.693,0
2014-11-07 19:04:44.853,60,30,37.56455,-122.3073,-1.341644,26.43,139.2621,3,5,1415415884,0.2727661,-0.370575,-0.9608307,-57.53707,-15.17806,-10.7114,116.0229,102.2145,20,-0.1408961,0.2201816,-0.1815834,-0.4433153,0.2598584,0.4037423,-0.12922,0.131982,-0.2552404,-0.004396924,-0.0129755,-0.07149734,0.0.0.0,10.62.21.216,5,automotive,2,2014-11-07 19:04:43.410,0,2014-11-07 19:04:10.693,0
2014-11-07 19:04:45.353,61,30.5,37.56438,-122.3071,-1.459808,26.49,139.2621,3,5,1415415885,0.2960052,-0.3358765,-0.8516388,-57.09221,-17.04731,-10.81055,117.6762,103.8677,20,0.1029594,-0.0908066,0.1408415,-0.4547074,0.2744398,0.4009031,0.2894789,-0.01986032,0.04029932,0.02931983,0.0713108,-0.06635281,0.0.0.0,10.62.21.216,5,automotive,2,2014-11-07 19:04:43.410,0,2014-11-07 19:04:10.693,0
2014-11-07 19:04:45.854,62,31,37.56438,-122.3071,-1.459808,26.49,139.2621,3,5,1415415885,0.2584229,-0.3706818,-0.9347229,-57.70818,-17.52314,-10.94272,117.6718,103.8633,20,0.0909347,0.1209674,-0.07402869,-0.4511741,0.2700001,0.4015933,-0.08192843,0.1074181,-0.09908112,-0.0006676666,-0.01924038,-0.05290978,0.0.0.0,10.62.21.216,5,automotive,2,2014-11-07 19:04:43.410,0,2014-11-07 19:04:10.693,0
2014-11-07 19:04:46.353,63,31.5,37.5642,-122.3069,-1.515533,26.62,139.2621,3,5,1415415886,0.2429504,-0.3540344,-0.9720612,-58.87168,-16.91138,-10.54614,117.2773,103.4689,20,0.2148846,0.1122024,0.09216695,-0.4467016,0.2587891,0.3913747,-0.002030081,0.1744641,-0.001198232,-0.01257591,0.03107195,-0.06589915,0.0.0.0,10.62.21.216,5,automotive,2,2014-11-07 19:04:43.410,0,2014-11-07 19:04:10.693,0
2014-11-07 19:04:46.853,64,32,37.5642,-122.3069,-1.515533,26.62,139.2621,3,5,1415415886,0.2505493,-0.3504944,-0.9457092,-58.08461,-16.60555,-10.38089,117.267,103.4585,20,0.1024108,0.1314875,0.0762977,-0.4461365,0.2540858,0.3877729,-0.1767521,0.05122643,0.008738853,-0.01526024,0.04917867,0.009174684,0.0.0.0,10.62.21.216,5,automotive,2,2014-11-07 19:04:43.410,0,2014-11-07 19:04:10.693,0
2014-11-07 19:04:47.353,65,32.5,37.56402,-122.3067,-1.479706,26.59,139.2621,3,5,1415415887,0.2007294,-0.3565216,-0.9175873,-58.05038,-16.16373,-11.00879,116.6501,102.8417,20,0.02905722,0.03050864,-0.09207933,-0.4388035,0.2437954,0.3830037,-0.1641965,-0.05851971,-0.05258618,-0.004003658,0.007359966,0.03848436,0.0.0.0,10.62.21.216,5,automotive,2,2014-11-07 19:04:43.410,0,2014-11-07 19:04:10.693,0
2014-11-07 19:04:47.830,66,33,37.56402,-122.3067,-1.479706,26.59,139.2621,3,5,1415415887,0.2313232,-0.3768768,-0.8764648,-58.52948,-16.70754,-11.14105,117.002,103.1935,20,0.08960525,-0.07721436,0.1015525,-0.4381691,0.23097,0.3739601,0.07954351,-0.1474945,0.1301487,0.05409607,-0.001684465,0.02861989,0.0.0.0,10.62.21.216,5,automotive,2,2014-11-07 19:04:43.410,0,2014-11-07 19:04:10.693,0
2014-11-07 19:04:48.353,67,33.5,37.56384,-122.3065,-2.20636,26.42,139.2621,4,5,1415415888,0.2694244,-0.4048462,-0.8927917,-58.66636,-16.36766,-10.28177,116.8844,103.0759,20,0.09899822,0.02177454,0.002680738,-0.4408723,0.2434013,0.3856961,-0.008234671,0.1322354,-0.02141806,0.03023995,-0.02591069,-0.01842227,0.0.0.0,10.62.21.216,5,automotive,2,2014-11-07 19:04:43.410,0,2014-11-07 19:04:10.693,0
2014-11-07 19:04:48.853,68,34,37.56384,-122.3065,-2.20636,26.42,139.2621,4,5,1415415888,0.2200012,-0.4154205,-0.8458405,-57.94772,-16.26571,-9.323425,117.3392,103.5307,20,0.02560576,-0.02105016,0.05769792,-0.4461761,0.2490628,0.3951623,0.0900605,-0.08177341,0.04677584,0.007440241,-0.03618462,0.01077369,0.0.0.0,10.62.21.216,5,automotive,2,2014-11-07 19:04:43.410,0,2014-11-07 19:04:10.693,0
2014-11-07 19:04:49.353,69,34.5,37.56365,-122.3063,-1.807678,26.36,139.3661,4,5,1415415889,0.2539978,-0.3983002,-0.9337158,-57.94772,-16.19774,-10.64536,117.6202,103.8117,20,0.3798366,-0.05997838,0.1941373,-0.4459623,0.2550558,0.3946439,0.206888,-0.0357978,0.1764276,0.04169117,0.007373813,-0.04683981,0.0.0.0,10.62.21.216,5,automotive,2,2014-11-07 19:04:43.410,0,2014-11-07 19:04:10.693,0
2014-11-07 19:04:49.854,70,35,37.56365,-122.3063,-1.807678,26.36,139.3661,4,5,1415415889,0.1571808,-0.4376068,-0.8761902,-58.49526,-15.2461,-9.455566,116.0428,102.2343,20,0.05327601,-0.04892174,-0.02258041,-0.438557,0.2210659,0.414035,0.06503825,-0.1945027,0.06296144,-0.01011448,-0.03963364,-0.01732748,0.0.0.0,10.62.21.216,5,automotive,2,2014-11-07 19:04:43.410,0,2014-11-07 19:04:10.693,0
2014-11-07 19:04:50.354,71,35.5,37.56365,-122.3063,-1.807678,26.36,139.3661,4,5,1415415889,0.1519012,-0.4494781,-0.8529663,-58.83747,-16.87744,-5.225372,118.1166,104.3081,20,-0.3629505,0.1837629,-0.2989462,-0.4486234,0.1761462,0.4473639,-0.09547394,-0.1423505,-0.1915118,-0.01945724,-0.02106865,0.0224663,0.0.0.0,10.62.21.216,5,automotive,2,2014-11-07 19:04:43.410,0,2014-11-07 19:04:10.693,0
2014-11-07 19:04:50.853,72,36,37.56347,-122.3061,-1.812042,26.48,139.3661,4,5,1415415890,0.303772,-0.3348846,-1.05954,-56.68155,-18.88265,-10.8768,120.015,106.2065,20,0.2246664,0.3208044,-0.250791,-0.4966651,0.26222,0.33256,-0.1417946,0.6630617,-0.3322209,0.03198576,-0.02906592,-0.1706729,0.0.0.0,10.62.21.216,5,automotive,2,2014-11-07 19:04:43.410,0,2014-11-07 19:04:10.693,0
2014-11-07 19:04:51.354,73,36.5,37.56347,-122.3061,-1.812042,26.48,139.3661,4,5,1415415890,0.3382263,-0.2758789,-1.006958,-55.55227,-20.2761,-12.56226,121.1363,107.3278,20,0.01217065,0.1270136,0.06145724,-0.5168464,0.2937223,0.327375,-0.1975529,0.1611651,-0.02633009,0.05108506,0.05440763,-0.06500688,0.0.0.0,10.62.21.216,5,automotive,2,2014-11-07 19:04:43.410,0,2014-11-07 19:04:10.693,0
2014-11-07 19:04:51.853,74,37,37.56329,-122.3059,-0.9997864,26.8,139.3661,4,5,1415415891,0.2725067,-0.2924347,-0.8669281,-56.44201,-20.07218,-11.76904,120.7381,106.9296,20,0.1592858,-0.2015076,0.2137688,-0.5023316,0.2661399,0.3437034,0.03062909,-0.2184595,0.2129823,0.03926912,0.05514639,0.06440198,0.0.0.0,10.62.21.216,5,automotive,2,2014-11-07 19:04:43.410,0,2014-11-07 19:04:10.693,0
2014-11-07 19:04:52.353,75,37.5,37.5631,-122.3057,-0.8074036,26.82,139.3661,4,5,1415415892,0.2699432,-0.2853088,-0.8896942,-58.15305,-18.7807,-10.84363,119.3595,105.5511,20,-0.1978484,0.1704114,0.01745116,-0.4864413,0.2426897,0.33797,-0.2309766,0.07428016,-0.04552775,0.01162257,0.05158911,0.05288282,0.0.0.0,10.62.21.216,5,automotive,2,2014-11-07 19:04:43.410,0,2014-11-07 19:04:10.693,0
2014-11-07 19:04:52.853,76,38,37.5631,-122.3057,-0.8074036,26.82,139.3661,4,5,1415415892,0.1711426,-0.3817596,-0.9395752,-57.63973,-17.79513,-9.224243,119.1057,105.2972,20,0.2190269,-0.01756355,-0.007483483,-0.4770539,0.2354671,0.3461948,-0.08226449,-0.02053093,0.09651741,-0.01826872,-0.02409776,0.0286965,0.0.0.0,10.62.21.216,5,automotive,2,2014-11-07 19:04:43.410,0,2014-11-07 19:04:10.693,0
2014-11-07 19:04:53.353,77,38.5,37.56293,-122.3055,-0.8224792,26.89,139.194,4,5,1415415893,0.2599792,-0.3276367,-0.9552917,-57.43441,-19.08663,-9.158142,120.1232,106.3147,20,0.230927,-0.01979208,0.07007842,-0.4877875,0.2359724,0.3457049,-0.01730349,0.06203081,0.009767402,0.03550578,0.01059768,-0.02989254,0.0.0.0,10.62.21.216,5,automotive,2,2014-11-07 19:04:43.410,0,2014-11-07 19:04:10.693,0
2014-11-07 19:04:53.853,78,39,37.56293,-122.3055,-0.8224792,26.89,139.194,4,5,1415415893,0.2020569,-0.3365784,-0.924057,-57.53708,-18.10104,-9.521667,119.1875,105.379,20,0.2628982,-0.09328068,0.08668137,-0.4860968,0.2337941,0.3572938,0.2408697,-0.03634917,0.05822755,-0.001463136,0.01201744,-0.03627257,0.0.0.0,10.62.21.216,5,automotive,2,2014-11-07 19:04:43.410,0,2014-11-07 19:04:10.693,0
2014-11-07 19:04:54.354,79,39.5,37.56276,-122.3053,-0.8239746,26.75,139.194,4,5,1415415894,0.3776703,-0.2697601,-0.966629,-52.95148,-26.73358,-13.75186,126.8861,113.0777,20,-0.3880311,0.4715132,-0.7926809,-0.6412707,0.3654202,0.2665459,-0.5729963,0.6341341,-1.071568,0.01140213,-0.02770632,-0.05036318,0.0.0.0,10.62.21.216,5,automotive,2,2014-11-07 19:04:43.410,0,2014-11-07 19:04:10.693,0
2014-11-07 19:04:54.854,80,40,37.56276,-122.3053,-0.8239746,26.75,139.194,4,5,1415415894,0.4676361,-0.3076935,-0.7029724,-45.66245,-30.43812,-26.67395,127.5988,113.7903,20,-0.2107173,-0.3980166,1.402708,-0.6136304,0.607953,0.3315319,-0.4488164,-0.01928755,1.56901,0.01092585,0.05046747,0.1331158,0.0.0.0,10.62.21.216,5,automotive,2,2014-11-07 19:04:43.410,0,2014-11-07 19:04:10.693,0
2014-11-07 19:04:55.331,81,40.5,37.56258,-122.3051,-0.6087036,27.02,139.194,4,5,1415415895,0.5652771,-0.2050476,-0.7392578,-46.89439,-30.23421,-26.40952,126.5314,112.7229,20,0.5751895,0.513018,0.1401142,-0.6249285,0.6260827,0.3267048,0.4317034,0.5152919,-0.07737804,0.009992143,0.1124125,-0.002705301,0.0.0.0,10.62.21.216,5,automotive,2,2014-11-07 19:04:43.410,0,2014-11-07 19:04:10.693,0
2014-11-07 19:04:55.854,82,41,37.56258,-122.3051,-0.6087036,27.02,139.194,4,5,1415415895,0.8014679,-0.2435455,-1.032501,-46.38108,-32.17147,-24.19519,129.9445,116.136,20,0.4058253,0.678394,0.7646095,-0.6633596,0.6064128,0.3147426,-0.001980755,0.7205789,0.4796697,0.3103072,0.07789751,-0.2653134,0.0.0.0,10.62.21.216,5,automotive,2,2014-11-07 19:04:43.410,0,2014-11-07 19:04:10.693,0
2014-11-07 19:04:56.353,83,41.5,37.5624,-122.3049,-0.3520813,26.51,139.194,4,5,1415415896,0.762558,-0.3529816,-1.211929,-46.75751,-34.85641,-20.5267,130.6584,116.8499,20,-0.1284799,0.6576551,-0.5003656,-0.7211585,0.5911084,0.404585,-0.3599354,0.1661462,-0.6053081,0.1904535,-0.01497777,-0.4089074,0.0.0.0,10.62.21.216,5,automotive,2,2014-11-07 19:04:43.410,0,2014-11-07 19:04:10.693,0
2014-11-07 19:04:56.854,84,42,37.5624,-122.3049,-0.3520813,26.51,139.194,4,5,1415415896,0.6924133,-0.2418671,-0.7920837,-41.93237,-35.02634,-26.17816,131.97,118.1616,20,-0.1283894,0.09181807,-0.2319632,-0.7551649,0.6844662,0.3326934,-0.2028861,0.1051286,-0.3989248,0.07710759,0.06261291,-0.06237346,0.0.0.0,10.62.21.216,5,automotive,2,2014-11-07 19:04:43.410,0,2014-11-07 19:04:10.693,0
2014-11-07 19:04:57.354,85,42.5,37.56224,-122.3047,-0.3389587,26.88,139.194,6,5,1415415897,0.4884186,-0.2956238,-0.7290802,-43.57497,-33.66686,-25.25278,131.8991,118.0907,20,0.1459125,-0.03569541,0.007114368,-0.7307035,0.6250185,0.3230379,0.08862798,-0.1248248,0.0374928,-0.04886618,0.009160245,0.0236295,0.0.0.0,10.62.21.216,5,automotive,2,2014-11-07 19:04:43.410,0,2014-11-07 19:04:10.693,0
2014-11-07 19:04:57.854,86,43,37.56224,-122.3047,-0.3389587,26.88,139.194,6,5,1415415897,0.516098,-0.2289124,-0.7768555,-42.68523,-33.93873,-25.78156,132.0933,118.2848,20,0.1330063,0.03607172,-0.09323381,-0.7330812,0.5958191,0.2734402,0.102063,0.02115883,-0.1065182,-0.01758659,0.01664275,-0.01389834,0.0.0.0,10.62.21.216,5,automotive,2,2014-11-07 19:04:43.410,0,2014-11-07 19:04:10.693,0
2014-11-07 19:04:58.354,87,43.5,37.56205,-122.3046,0.2637329,27.12,139.194,6,5,1415415898,0.5844574,-0.2815552,-0.9565582,-43.23277,-33.73481,-26.17816,132.6043,118.7958,20,0.590981,0.325197,0.147089,-0.7352999,0.5921555,0.2534411,0.02834612,0.446976,-0.09049068,0.04537251,-0.05038029,-0.1565288,0.0.0.0,10.62.21.216,5,automotive,2,2014-11-07 19:04:43.410,0,2014-11-07 19:04:10.693,0
2014-11-07 19:04:58.854,88,44,37.56205,-122.3046,0.2637329,27.12,139.194,6,5,1415415898,0.5641327,-0.197052,-0.9091797,-40.46088,-34.17664,-29.18561,134.4049,120.5964,20,0.2900257,0.187013,-0.04014715,-0.7552768,0.6120343,0.1986602,0.3442183,0.05981673,-0.02977086,-0.007935854,0.007857132,-0.1975865,0.0.0.0,10.62.21.216,5,automotive,2,2014-11-07 19:04:43.410,0,2014-11-07 19:04:10.693,0
2014-11-07 19:04:59.354,89,44.5,37.56186,-122.3043,0.9994507,26.64,139.2955,6,5,1415415899,0.6011658,-0.2211304,-0.759552,-40.15289,-36.24982,-28.29333,135.7883,121.9799,20,0.1571936,0.007691209,-0.007278419,-0.7805007,0.6376619,0.2141974,0.1027222,-0.02049763,0.003986884,0.03075869,-0.0005715578,0.002641983,0.0.0.0,10.62.21.216,4,automotive,2,2014-11-07 19:04:43.410,0,2014-11-07 19:04:10.693,0
2014-11-07 19:04:59.854,90,45,37.56186,-122.3043,0.9994507,26.64,139.2955,6,5,1415415899,0.6361542,-0.2017059,-0.8177948,-40.70042,-36.3178,-28.88818,135.4792,121.6707,20,0.07372269,-0.01254083,0.08241365,-0.7812592,0.6558217,0.2229512,0.1860761,-0.09012351,0.1179069,0.05098877,0.01473363,-0.06891178,0.0.0.0,10.62.21.216,4,automotive,2,2014-11-07 19:04:43.410,0,2014-11-07 19:04:10.693,0
2014-11-07 19:05:00.354,91,45.5,37.56186,-122.3043,0.9994507,26.64,139.2955,6,5,1415415899,0.7081299,-0.1877747,-0.9089813,-39.87912,-34.14266,-30.47449,133.9273,120.1188,20,0.1496073,0.07879415,0.03521152,-0.7614368,0.6768291,0.1903408,-0.1132979,0.1624087,-0.02275521,0.09767956,0.001617247,-0.1190379,0.0.0.0,10.62.21.216,4,automotive,2,2014-11-07 19:04:43.410,0,2014-11-07 19:04:10.693,0
2014-11-07 19:05:00.854,92,46,37.56168,-122.3041,0.8347168,26.56,139.2955,6,5,1415415900,0.5949249,-0.2432098,-0.8401337,-43.06166,-33.49694,-26.34338,132.6455,118.8371,20,-0.1867936,-0.2805036,0.1354034,-0.7444572,0.6054505,0.2518171,-0.2780038,-0.3408729,0.09469102,0.06855287,0.003024668,0.01315583,0.0.0.0,10.62.21.216,4,automotive,2,2014-11-07 19:04:43.410,0,2014-11-07 19:04:10.693,0
2014-11-07 19:05:01.354,93,46.5,37.56168,-122.3041,0.8347168,26.56,139.2955,6,5,1415415900,0.3691406,-0.5016022,-0.8381958,-51.75375,-30.30221,-12.85941,129.6006,115.7921,20,0.5964288,-0.3632989,0.525242,-0.7060425,0.4524441,0.461274,0.5449351,-0.5233776,0.4615405,0.02737851,-0.07816507,-0.03896157,0.0.0.0,10.62.21.216,4,automotive,2,2014-11-07 19:04:43.410,0,2014-11-07 19:04:10.693,0
2014-11-07 19:05:01.854,94,47,37.5615,-122.304,0.3358765,26.15,139.2934,6,5,1415415901,0.3509979,-0.5380554,-0.7783203,-53.39635,-28.73884,-6.381836,129.3003,115.4918,20,0.07405718,0.06189453,0.04366253,-0.7040628,0.4045601,0.5474184,0.1224869,-0.03260601,0.04706768,0.005410967,-0.01636541,-0.01501441,0.0.0.0,10.62.21.216,4,automotive,2,2014-11-07 19:04:43.410,0,2014-11-07 19:04:10.693,0
2014-11-07 19:05:02.354,95,47.5,37.5615,-122.304,0.3358765,26.15,139.2934,6,5,1415415901,0.4201965,-0.4878235,-0.812027,-50.72713,-30.71006,-9.554565,130.8789,117.0704,20,0.2508325,-0.1199275,0.2342122,-0.721961,0.4483154,0.4941275,0.1789659,-0.01625388,0.148255,0.03391186,-0.005716779,-0.03742841,0.0.0.0,10.62.21.216,4,automotive,2,2014-11-07 19:04:43.410,0,2014-11-07 19:04:10.693,0
2014-11-07 19:05:02.854,96,48,37.56132,-122.3038,0.4603577,26.29,139.6547,6,5,1415415902,0.4342194,-0.4184265,-0.7656555,-51.89064,-29.69049,-10.94257,129.9674,116.1589,20,0.05992485,-0.09446365,0.09523597,-0.7254648,0.4595369,0.4649638,0.08286219,-0.1341618,0.05730873,0.06064561,0.01841299,-0.00550083,0.0.0.0,10.62.21.216,4,automotive,2,2014-11-07 19:04:43.410,0,2014-11-07 19:04:10.693,0
2014-11-07 19:05:03.354,97,48.5,37.56132,-122.3038,0.4603577,26.29,139.6547,6,5,1415415902,0.5240936,-0.4872742,-0.9628296,-51.68531,-29.89441,-12.92557,129.4089,115.6004,20,0.1364236,0.05206986,0.163039,-0.7303404,0.4670686,0.4404421,-0.07645917,0.06601284,0.08000101,0.1047712,-0.03822966,-0.1151895,0.0.0.0,10.62.21.216,5,automotive,2,2014-11-07 19:04:43.410,0,2014-11-07 19:04:10.693,0
2014-11-07 19:05:03.831,98,49,37.56114,-122.3036,0.8120728,26.22,139.6547,6,5,1415415903,0.3340759,-0.427948,-0.7063751,-52.36973,-29.96234,-9.15802,129.3985,115.59,20,-0.1638334,0.2410779,-0.2712983,-0.7200641,0.4234948,0.5038496,-0.2591969,0.1646982,-0.3661578,-0.06424149,0.03527531,0.08826872,0.0.0.0,10.62.21.216,5,automotive,2,2014-11-07 19:04:43.410,0,2014-11-07 19:04:10.693,0
2014-11-07 19:05:04.354,99,49.5,37.56095,-122.3034,0.01831055,26.67,139.6547,6,5,1415415904,0.4776611,-0.4742126,-0.9365997,-50.69291,-30.87998,-12.49594,130.1941,116.3856,20,0.4299743,-0.09098663,0.2850022,-0.7306145,0.4545247,0.4650667,0.2272876,-0.1206302,0.1708614,0.1061901,-0.03145228,-0.1491647,0.0.0.0,10.62.21.216,5,automotive,2,2014-11-07 19:04:43.410,0,2014-11-07 19:04:10.693,0
2014-11-07 19:05:04.854,100,50,37.56095,-122.3034,0.01831055,26.67,139.6547,6,5,1415415904,0.3576355,-0.5167542,-0.878479,-52.43816,-29.01073,-9.686768,128.5622,114.7537,20,-0.10381,0.1477884,-0.1920602,-0.7093285,0.4178804,0.5057728,-0.142597,0.08302129,-0.1758868,-0.002598148,-0.03617672,-0.05534891,0.0.0.0,10.62.21.216,5,automotive,2,2014-11-07 19:04:43.410,0,2014-11-07 19:04:10.693,0
2014-11-07 19:05:05.354,101,50.5,37.56078,-122.3032,-1.00592,26.62,140.0424,6,5,1415415905,0.3115692,-0.4558105,-0.7070312,-52.43817,-29.55453,-10.28177,128.7028,114.8943,20,-0.127444,0.1144211,-0.1788142,-0.7138079,0.4163741,0.5214755,-0.06588475,0.02928474,-0.1590046,-0.05003084,0.0326449,0.0746493,0.0.0.0,10.62.21.216,5,automotive,2,2014-11-07 19:04:43.410,0,2014-11-07 19:04:10.693,0
2014-11-07 19:05:05.854,102,51,37.56078,-122.3032,-1.00592,26.62,140.0424,6,5,1415415905,0.3513641,-0.4480896,-0.7424622,-51.24044,-30.06432,-10.44705,129.7213,115.9128,20,0.02098305,-0.02249705,0.003502323,-0.7256861,0.4302984,0.5090197,-0.02370793,-0.08575516,0.01243183,-0.01135257,0.04928736,0.05976465,0.0.0.0,10.62.21.216,5,automotive,2,2014-11-07 19:04:43.410,0,2014-11-07 19:04:10.693,0
2014-11-07 19:05:06.354,103,51.5,37.56057,-122.303,-1.306427,27.2,140.0424,6,5,1415415906,0.2997589,-0.5231781,-0.8261566,-52.57505,-29.21465,-10.81061,128.5697,114.7612,20,0.1416466,-0.042744,0.09694359,-0.7156808,0.4082759,0.5257507,0.2350235,-0.2334029,0.1664195,-0.01322298,-0.0151816,-0.04952922,0.0.0.0,10.62.21.216,5,automotive,2,2014-11-07 19:04:43.410,0,2014-11-07 19:04:10.693,0
2014-11-07 19:05:06.854,104,52,37.56057,-122.303,-1.306427,27.2,140.0424,6,5,1415415906,0.2746735,-0.5337219,-0.7436676,-52.47239,-28.09308,-8.530212,128.0498,114.2413,20,-0.07952891,0.09942779,-0.1259827,-0.7130965,0.3860227,0.5431841,-0.08479022,0.08334443,-0.08323899,-0.06315987,-0.01546896,0.04707039,0.0.0.0,10.62.21.216,5,automotive,2,2014-11-07 19:04:43.410,0,2014-11-07 19:04:10.693,0
2014-11-07 19:05:07.354,105,52.5,37.56038,-122.3028,-1.122314,26.89,141.1397,6,5,1415415907,0.2898865,-0.5797272,-0.8608704,-52.23284,-28.19497,-9.620789,127.9277,114.1192,20,0.0990632,0.0142607,-0.009699233,-0.7249833,0.3933775,0.5361462,0.1341797,-0.1175291,0.07890269,-0.01295132,-0.04747709,-0.04838642,0.0.0.0,10.62.21.216,5,automotive,2,2014-11-07 19:04:43.410,0,2014-11-07 19:04:10.693,0
2014-11-07 19:05:07.854,106,53,37.56038,-122.3028,-1.122314,26.89,141.1397,6,5,1415415907,0.4298706,-0.4790497,-0.882782,-51.58265,-30.60799,-9.389526,130.1745,116.3661,20,0.2174157,0.02963646,0.2687643,-0.7500594,0.4049787,0.5177444,0.04340374,0.06380939,0.1901209,0.08218455,0.03378551,-0.04378766,0.0.0.0,10.62.21.216,5,automotive,2,2014-11-07 19:04:43.410,0,2014-11-07 19:04:10.693,0
2014-11-07 19:05:08.354,107,53.5,37.56038,-122.3028,-1.122314,26.89,141.1397,6,5,1415415907,0.4201202,-0.4739227,-0.8519897,-51.68531,-30.1662,-10.34799,129.5612,115.7527,20,-0.02920263,0.1977203,-0.03767654,-0.7611867,0.4138267,0.5143281,-0.0802844,0.1909522,-0.2089364,0.02498471,0.001547732,-0.08834972,0.0.0.0,10.62.21.216,5,automotive,2,2014-11-07 19:04:43.410,0,2014-11-07 19:04:10.693,0
2014-11-07 19:05:08.854,108,54,37.5602,-122.3026,-1.672363,26.96,141.962,6,5,1415415908,0.2928467,-0.4592438,-0.7348633,-51.82219,-30.3701,-9.620789,129.7846,115.9761,20,-0.1162736,0.1354846,-0.1798577,-0.7623681,0.4075782,0.5357292,-0.2527208,0.049241,-0.1646684,-0.04919542,0.05671763,0.1111732,0.0.0.0,10.62.21.216,5,automotive,2,2014-11-07 19:04:43.410,0,2014-11-07 19:04:10.693,0
2014-11-07 19:05:09.354,109,54.5,37.56001,-122.3024,-1.833344,27.3,141.962,6,5,1415415909,0.2797546,-0.5664215,-0.7615356,-51.61686,-30.70995,-9.158142,130.2926,116.4841,20,0.2004572,-0.1111518,0.1776312,-0.7539623,0.40056,0.5465984,0.05850006,-0.2666817,0.2624996,-0.03104145,-0.02187226,0.05486225,0.0.0.0,10.62.21.216,5,automotive,2,2014-11-07 19:04:43.410,0,2014-11-07 19:04:10.693,0
2014-11-07 19:05:09.854,110,55,37.56001,-122.3024,-1.833344,27.3,141.962,6,5,1415415909,0.3413544,-0.4793396,-0.7915802,-51.41154,-30.37008,-9.951447,129.8896,116.0811,20,-0.03161279,0.02718342,-0.08596791,-0.7716007,0.4123047,0.5303277,-0.1419541,-0.02456289,-0.1071268,-0.008658443,0.03869874,0.04030601,0.0.0.0,10.62.21.216,5,automotive,2,2014-11-07 19:04:43.410,0,2014-11-07 19:04:10.693,0
2014-11-07 19:05:10.354,111,55.5,37.55981,-122.3022,-1.442505,27.42,142.6029,6,5,1415415910,0.3494873,-0.4791718,-0.8287964,-51.06934,-29.89425,-9.55481,129.8453,116.0368,20,0.0434058,0.0892673,0.003258378,-0.772982,0.4084447,0.5204105,-0.04562383,0.1204715,-0.07365637,-0.0083436,0.01334958,-0.03410794,0.0.0.0,10.62.21.216,5,automotive,2,2014-11-07 19:04:43.410,0,2014-11-07 19:04:10.693,0
2014-11-07 19:05:10.854,112,56,37.55981,-122.3022,-1.442505,27.42,142.6029,6,5,1415415910,0.2596893,-0.5182648,-0.7819061,-52.02752,-28.39881,-8.893921,127.9291,114.1207,20,-0.1459439,0.09707036,-0.192517,-0.7637175,0.3864643,0.5449305,-0.04835079,-0.09096469,-0.0963262,-0.0496958,-0.01684336,0.01395569,0.0.0.0,10.62.21.216,5,automotive,2,2014-11-07 19:04:43.410,0,2014-11-07 19:04:10.693,0
2014-11-07 19:05:11.331,113,56.5,37.55961,-122.302,-2.323212,28.25,143.0746,6,5,1415415911,0.2911987,-0.5009155,-0.9029846,-51.3431,-28.87464,-9.753113,128.329,114.5206,20,0.0660203,0.2386003,-0.2244648,-0.7765764,0.3925112,0.5254234,-0.1994721,0.1854509,-0.2427697,-0.06344242,-0.01927942,-0.0423079,0.0.0.0,10.62.21.216,5,automotive,2,2014-11-07 19:04:43.410,0,2014-11-07 19:04:10.693,0
2014-11-07 19:05:11.854,114,57,37.55961,-122.302,-2.323212,28.25,143.0746,6,5,1415415911,0.3219452,-0.5524292,-0.8070374,-51.41154,-30.03019,-10.01752,129.1005,115.292,20,0.005440838,0.09793908,-0.05947718,-0.7815306,0.392562,0.5277076,-0.2817101,0.02537146,-0.02373008,-0.002832678,0.01418951,0.1162826,0.0.0.0,10.62.21.216,5,automotive,2,2014-11-07 19:04:43.410,0,2014-11-07 19:04:10.693,0
2014-11-07 19:05:12.354,115,57.5,37.55941,-122.3018,-2.416138,28.35,144.3555,6,5,1415415912,0.2396545,-0.513031,-0.7559814,-51.47999,-30.16612,-9.422577,129.4554,115.6469,20,0.1777271,-0.02195217,0.06881369,-0.7864113,0.3890486,0.5433393,0.1360861,-0.2474271,0.1501916,-0.04201392,0.02467238,0.05442486,0.0.0.0,10.62.21.216,5,automotive,2,2014-11-07 19:04:43.410,0,2014-11-07 19:04:10.693,0
2014-11-07 19:05:12.854,116,58,37.55941,-122.3018,-2.416138,28.35,144.3555,6,5,1415415912,0.3350677,-0.3921356,-0.6563721,-50.93246,-31.52561,-9.158203,130.8206,117.0121,20,0.08599827,-0.1684884,0.2682205,-0.8089514,0.3952115,0.5369007,0.04382573,-0.2401817,0.2341467,0.02016523,0.1513373,0.1716907,0.0.0.0,10.62.21.216,5,automotive,2,2014-11-07 19:04:43.410,0,2014-11-07 19:04:10.693,0
2014-11-07 19:05:13.354,117,58.5,37.5592,-122.3016,-2.544434,27.74,144.3555,6,5,1415415913,0.446701,-0.3654633,-0.7834015,-49.22141,-30.84589,-11.14099,130.6237,116.8152,20,-0.02672109,0.208901,-0.03634629,-0.8275847,0.4340068,0.4986447,-0.1340593,0.1808481,-0.1572676,0.06903453,0.09308866,0.01040154,0.0.0.0,10.62.21.216,5,automotive,2,2014-11-07 19:04:43.410,0,2014-11-07 19:04:10.693,0
2014-11-07 19:05:13.855,118,59,37.5592,-122.3016,-2.544434,27.74,144.3555,6,5,1415415913,0.3636169,-0.5183868,-0.8853302,-50.62447,-29.86029,-10.7774,129.4179,115.6094,20,0.3158003,0.1418269,0.1885036,-0.8078242,0.4093966,0.5138391,-0.2455458,0.1862379,0.0558829,0.01314973,0.004204243,0.02251429,0.0.0.0,10.62.21.216,5,automotive,2,2014-11-07 19:04:43.410,0,2014-11-07 19:04:10.693,0
2014-11-07 19:05:14.354,119,59.5,37.55901,-122.3014,-2.596222,27.55,144.3555,6,5,1415415914,0.3980713,-0.5049286,-0.8651123,-50.79557,-28.8067,-9.488464,129.1437,115.3353,20,0.04843811,0.1642198,-0.1980319,-0.8111735,0.4229524,0.5142774,-0.1111085,0.2412097,-0.2808673,0.01377796,-0.04680571,-0.07463299,0.0.0.0,10.62.21.216,5,automotive,2,2014-11-07 19:04:43.410,0,2014-11-07 19:04:10.693,0
2014-11-07 19:05:14.854,120,60,37.55901,-122.3014,-2.596222,27.55,144.3555,6,5,1415415914,0.4346466,-0.3873138,-0.7595062,-50.28226,-29.86027,-10.4469,129.9599,116.1514,20,-0.2200927,0.2368618,-0.1765327,-0.8311096,0.4354832,0.4937588,-0.3403888,0.1508194,-0.2556433,0.04748332,0.07869062,0.07522742,0.0.0.0,10.62.21.216,5,automotive,2,2014-11-07 19:04:43.410,0,2014-11-07 19:04:10.693,0
2014-11-07 19:05:15.354,121,60.5,37.55881,-122.3013,-3.709015,28.14,144.6599,6,5,1415415915,0.3267365,-0.4846497,-0.7692413,-50.11115,-30.30211,-11.00876,130.53,116.7215,20,0.03886244,0.05664943,-0.07091332,-0.8174362,0.4339177,0.4981963,-0.204,0.01335944,0.066089,-0.02906808,0.01817083,0.07457855,0.0.0.0,10.62.21.216,5,automotive,2,2014-11-07 19:04:43.410,0,2014-11-07 19:04:10.693,0
2014-11-07 19:05:15.854,122,61,37.55881,-122.3013,-3.709015,28.14,144.6599,6,5,1415415915,0.4555054,-0.4243469,-0.8687592,-48.8792,-30.70994,-11.86804,131.0369,117.2284,20,0.09643466,0.0003273025,0.2167555,-0.8209074,0.4365349,0.4791099,-0.07969637,-0.028047,0.161903,0.08952494,0.06398635,0.005816221,0.0.0.0,10.62.21.216,5,automotive,2,2014-11-07 19:04:43.410,0,2014-11-07 19:04:10.693,0
2014-11-07 19:05:16.354,123,61.5,37.5586,-122.3011,-2.929504,28.01,144.6599,6,5,1415415916,0.2491913,-0.3894501,-0.5947418,-51.30888,-29.58842,-10.31467,129.611,115.8025,20,-0.3406806,-0.002184591,-0.1355653,-0.8085704,0.402095,0.5043427,-0.08264658,-0.1157542,0.008668089,-0.07226615,0.07676847,0.1666887,0.0.0.0,10.62.21.216,5,automotive,2,2014-11-07 19:04:43.410,0,2014-11-07 19:04:10.693,0
2014-11-07 19:05:16.854,124,62,37.5586,-122.3011,-2.929504,28.01,144.6599,6,5,1415415916,0.2243195,-0.487442,-0.7831421,-50.86401,-28.94267,-9.752808,129.8503,116.0418,20,-0.07482631,0.1804702,-0.06739395,-0.8026144,0.3948401,0.5058056,-0.008657497,-0.112341,0.0495736,-0.09720674,0.02673343,0.03355106,0.0.0.0,10.62.21.216,5,automotive,2,2014-11-07 19:04:43.410,0,2014-11-07 19:04:10.693,0
2014-11-07 19:05:17.354,125,62.5,37.55841,-122.3009,-3.486908,28.04,145.1696,6,5,1415415917,0.4230042,-0.5007629,-0.9302063,-49.39251,-29.38447,-11.10791,130.0689,116.2605,20,0.200471,0.1306536,0.02459802,-0.8193871,0.4365566,0.4711138,-0.05113485,0.1300226,-0.03557187,0.03765267,-0.02877169,-0.1017171,0.0.0.0,10.62.21.216,5,automotive,2,2014-11-07 19:04:43.410,0,2014-11-07 19:04:10.693,0
2014-11-07 19:05:17.830,126,63,37.55841,-122.3009,-3.486908,28.04,145.1696,6,5,1415415917,0.6104584,-0.4243927,-0.9681244,-47.51037,-31.25373,-12.33075,132.4964,118.6879,20,0.006614227,0.473469,0.2381255,-0.8527586,0.4560574,0.4267399,-0.1537461,0.7881088,-0.1110034,0.1250395,-0.01602633,-0.1906684,0.0.0.0,10.62.21.216,5,automotive,2,2014-11-07 19:04:43.410,0,2014-11-07 19:04:10.693,0
2014-11-07 19:05:18.355,127,63.5,37.55821,-122.3007,-3.965881,27.96,145.1696,6,5,1415415918,0.3997955,-0.4212799,-0.7730865,-49.3583,-30.3701,-12.46292,130.832,117.0235,20,-0.04539358,0.07468382,-0.0473811,-0.8338206,0.4395337,0.4579341,-0.1166224,0.05820429,-0.06932068,-0.003425342,0.02116706,0.04951936,0.0.0.0,10.62.21.216,5,automotive,2,2014-11-07 19:04:43.410,0,2014-11-07 19:04:10.693,0
2014-11-07 19:05:18.855,128,64,37.55821,-122.3007,-3.965881,27.96,145.1696,6,5,1415415918,0.3324127,-0.3914185,-0.7107086,-48.63966,-29.99626,-11.90115,130.9286,117.1201,20,-0.09532838,-0.07777335,-0.008097075,-0.8267503,0.428651,0.4483189,0.03065476,-0.1957884,0.06515397,-0.01546871,0.0279641,0.08122654,0.0.0.0,10.62.21.216,5,automotive,2,2014-11-07 19:04:43.410,0,2014-11-07 19:04:10.693,0
2014-11-07 19:05:19.354,129,64.5,37.55801,-122.3006,-2.704071,27.95,145.1696,6,5,1415415919,0.431015,-0.3862915,-0.8249817,-49.32407,-31.15179,-12.23166,131.4827,117.6742,20,0.2006979,-0.08643236,0.1433692,-0.8291284,0.4414848,0.436244,0.1173518,-0.02959437,0.08762067,0.04996003,0.03234052,-0.01869167,0.0.0.0,10.62.21.216,5,automotive,2,2014-11-07 19:04:43.410,0,2014-11-07 19:04:10.693,0
2014-11-07 19:05:19.854,130,65,37.55801,-122.3006,-2.704071,27.95,145.1696,6,5,1415415919,0.3852234,-0.4138794,-0.7566681,-49.80317,-30.26814,-12.09946,130.5366,116.7281,20,-0.0812621,0.1433497,-0.03447382,-0.8215087,0.4332675,0.4481663,0.1127091,-0.1131267,0.01799611,0.02805644,-0.02219171,-0.08169098,0.0.0.0,10.62.21.216,5,automotive,2,2014-11-07 19:04:43.410,0,2014-11-07 19:04:10.693,0
2014-11-07 19:05:20.354,131,65.5,37.5578,-122.3004,-2.389221,27.98,145.1696,6,5,1415415920,0.3397064,-0.4532623,-0.8421783,-49.5294,-30.47207,-11.50458,130.9926,117.1841,20,0.06372198,0.1273545,-0.07397995,-0.8172753,0.4348684,0.4451563,-0.001679167,0.04392476,-0.06685998,-0.04170198,-0.03129986,-0.02871993,0.0.0.0,10.62.21.216,5,automotive,2,2014-11-07 19:04:43.410,0,2014-11-07 19:04:10.693,0
2014-11-07 19:05:20.855,132,66,37.5578,-122.3004,-2.389221,27.98,145.1696,6,5,1415415920,0.3305817,-0.4821014,-0.9223328,-50.41914,-30.26815,-11.57068,130.483,116.6745,20,0.0992443,0.2061638,-0.201344,-0.8191972,0.4356693,0.446196,0.03073513,0.2505054,-0.2756844,-0.07082424,-0.08231791,-0.110974,0.0.0.0,10.62.21.216,5,automotive,2,2014-11-07 19:04:43.410,0,2014-11-07 19:04:10.693,0
2014-11-07 19:05:21.354,133,66.5,37.5576,-122.3002,-2.472198,27.86,145.1696,6,5,1415415921,0.4210968,-0.4352722,-0.8638458,-47.98946,-31.11786,-12.19861,132.1019,118.2934,20,0.3370188,-0.2072845,0.2851873,-0.8280906,0.4581438,0.443363,0.2557575,-0.09541756,0.2765781,0.0460352,0.001413157,-0.07596377,0.0.0.0,10.62.21.216,5,automotive,2,2014-11-07 19:04:43.410,0,2014-11-07 19:04:10.693,0
2014-11-07 19:05:21.854,134,67,37.5576,-122.3002,-2.472198,27.86,145.1696,6,5,1415415921,0.4788055,-0.4142151,-0.8558655,-49.3583,-30.84597,-11.73593,131.6788,117.8703,20,0.152572,-0.02648381,0.1352628,-0.82902,0.457286,0.4344588,0.01329024,0.02332769,0.07796331,0.08081096,0.009954605,-0.03769569,0.0.0.0,10.62.21.216,5,automotive,2,2014-11-07 19:04:43.410,0,2014-11-07 19:04:10.693,0
2014-11-07 19:05:22.354,135,67.5,37.55738,-122.3,-2.065918,28.11,144.6936,6,5,1415415922,0.4389954,-0.390625,-0.79245,-49.42673,-30.84597,-12.33081,131.1218,117.3133,20,0.009798835,0.1431351,0.04805275,-0.8229436,0.4431316,0.4423136,-0.08976243,0.2073767,-0.03869686,0.03336047,0.01035268,-0.02500415,0.0.0.0,10.62.21.216,5,automotive,2,2014-11-07 19:04:43.410,0,2014-11-07 19:04:10.693,0
2014-11-07 19:05:22.854,136,68,37.55738,-122.3,-2.065918,28.11,144.6936,6,5,1415415922,0.4074402,-0.4743042,-0.8717346,-49.94005,-29.38453,-11.10797,130.2352,116.4267,20,-0.197541,0.3314786,-0.4059677,-0.8132072,0.4463958,0.4433934,-0.3769322,0.2696062,-0.4261522,-0.05554384,-0.05791605,0.04864188,0.0.0.0,10.62.21.216,5,automotive,2,2014-11-07 19:04:43.410,0,2014-11-07 19:04:10.693,0
2014-11-07 19:05:23.354,137,68.5,37.55738,-122.3,-2.065918,28.11,144.6936,6,5,1415415922,0.5425568,-0.3742981,-0.7823639,-49.11875,-31.01588,-13.42148,131.6774,117.869,20,0.1398389,-0.1484859,0.3718484,-0.8247839,0.4751151,0.4227074,0.07579523,-0.1192802,0.3191994,0.1342445,0.0585923,0.02750806,0.0.0.0,10.62.21.216,5,automotive,2,2014-11-07 19:04:43.410,0,2014-11-07 19:04:10.693,0
2014-11-07 19:05:23.854,138,69,37.55718,-122.2998,-0.8764343,27.88,143.9305,6,5,1415415923,0.4273529,-0.496582,-0.8942871,-50.59024,-30.23419,-11.33939,130.698,116.8895,20,0.1702591,0.04694567,-0.1128307,-0.8027625,0.4457983,0.4472769,-0.0002907651,0.04192655,-0.1634499,0.0270395,-0.08253327,-0.07557469,0.0.0.0,10.62.21.216,5,automotive,2,2014-11-07 19:04:43.410,0,2014-11-07 19:04:10.693,0
2014-11-07 19:05:24.354,139,69.5,37.55718,-122.2998,-0.8764343,27.88,143.9305,6,5,1415415923,0.4728851,-0.4084473,-0.9269867,-49.76894,-30.37012,-13.25623,130.5131,116.7046,20,0.01746767,-0.08894505,0.1605372,-0.8038601,0.4540796,0.423451,-0.1926957,-0.1199612,0.1071262,0.1235746,0.03383391,0.04457249,0.0.0.0,10.62.21.216,5,automotive,2,2014-11-07 19:04:43.410,0,2014-11-07 19:04:10.693,0
2014-11-07 19:05:24.854,140,70,37.55696,-122.2996,-0.8572083,28.5,144.1283,6,5,1415415924,0.4116974,-0.4638519,-0.9235077,-50.55602,-30.13224,-11.3725,130.2852,116.4767,20,-0.03006815,0.1850167,-0.1018212,-0.7982494,0.4381183,0.4449153,-0.1140631,0.1158432,-0.1593408,0.006712803,-0.03260072,-0.08417207,0.0.0.0,10.62.21.216,5,automotive,2,2014-11-07 19:04:43.410,0,2014-11-07 19:04:10.693,0
2014-11-07 19:05:25.354,141,70.5,37.55696,-122.2996,-0.8572083,28.5,144.1283,6,5,1415415924,0.3456726,-0.4403381,-0.8119965,-51.20622,-29.69039,-11.8681,129.6466,115.8381,20,-0.1252703,0.08350635,-0.1359861,-0.8028014,0.4331115,0.4493827,-0.1677727,0.029339,-0.09878373,-0.03829061,0.00676679,0.06542625,0.0.0.0,10.62.21.216,5,automotive,2,2014-11-07 19:04:43.410,0,2014-11-07 19:04:10.693,0
2014-11-07 19:05:25.854,142,71,37.55676,-122.2994,-0.5031433,27.98,144.1283,6,5,1415415925,0.3934174,-0.4718781,-0.8745575,-50.11116,-29.82635,-11.86813,130.2227,116.4142,20,0.1489245,-0.04019696,0.1215959,-0.8031709,0.4425111,0.4472278,0.0829965,-0.07566559,0.1377967,0.02686852,-0.0241669,-0.03810338,0.0.0.0,10.62.21.216,5,automotive,2,2014-11-07 19:04:43.410,0,2014-11-07 19:04:10.693,0
2014-11-07 19:05:26.333,143,71.5,37.55656,-122.2992,-0.7678528,28.24,143.8807,6,5,1415415926,0.3448334,-0.3966064,-0.7112732,-50.31647,-29.55447,-11.53748,130.2258,116.4173,20,-0.2258691,0.01719443,-0.08857088,-0.8002066,0.4335115,0.4535739,-0.02981219,-0.06453758,-0.03462303,-0.03205116,0.03847692,0.08258217,0.0.0.0,10.62.21.216,5,automotive,2,2014-11-07 19:04:43.410,0,2014-11-07 19:04:10.693,0
2014-11-07 19:05:26.854,144,72,37.55656,-122.2992,-0.7678528,28.24,143.8807,6,5,1415415926,0.4203796,-0.4639435,-0.9107971,-49.90583,-29.89435,-12.33072,130.2596,116.4511,20,0.1614675,0.08032786,0.1201949,-0.7914435,0.4445822,0.4338843,0.09812651,0.03837779,0.09920165,0.03300377,-0.04523888,-0.1389771,0.0.0.0,10.62.21.216,5,automotive,2,2014-11-07 19:04:43.410,0,2014-11-07 19:04:10.693,0
2014-11-07 19:05:27.355,145,72.5,37.55635,-122.2991,-0.6773071,27.89,143.8807,6,5,1415415927,0.4264374,-0.4501953,-0.8199615,-50.69291,-28.97673,-13.28918,128.7548,114.9463,20,0.3200118,-0.1650862,0.2424542,-0.7969099,0.4475093,0.4604943,0.0405593,-0.06796044,0.1720455,0.04942663,0.007302939,0.002259319,0.0.0.0,10.62.21.216,5,automotive,2,2014-11-07 19:04:43.410,0,2014-11-07 19:04:10.693,0
2014-11-07 19:05:27.854,146,73,37.55635,-122.2991,-0.6773071,27.89,143.8807,6,5,1415415927,0.3323669,-0.6025696,-1.034225,-51.24044,-30.54014,-12.23166,129.8817,116.0732,20,0.0375298,0.2773829,-0.2105865,-0.7838026,0.431399,0.4492381,-0.06461295,0.1934284,-0.1804252,-0.04988624,-0.1709453,-0.2148153,0.0.0.0,10.62.21.216,5,automotive,2,2014-11-07 19:04:43.410,0,2014-11-07 19:04:10.693,0
2014-11-07 19:05:28.355,147,73.5,37.55616,-122.2989,-0.6788025,27.8,143.8807,6,5,1415415928,0.4411621,-0.4073334,-0.8244781,-50.21381,-30.13232,-11.50458,130.4736,116.6651,20,0.01963389,-0.07468143,0.01043213,-0.7993961,0.4451604,0.4465619,-0.02286343,-0.06601059,0.008042698,0.06531305,0.01170111,-0.004201398,0.0.0.0,10.62.21.216,5,automotive,2,2014-11-07 19:04:43.410,0,2014-11-07 19:04:10.693,0
2014-11-07 19:05:28.854,148,74,37.55616,-122.2989,-0.6788025,27.8,143.8807,6,5,1415415928,0.3937073,-0.4571228,-1.008987,-50.45336,-28.6709,-11.93417,128.7842,114.9758,20,-0.1068471,0.3683557,-0.6629822,-0.7785388,0.4280128,0.4423519,-0.2959035,0.2252195,-0.608901,-0.02152082,-0.1002236,-0.155576,0.0.0.0,10.62.21.216,5,automotive,2,2014-11-07 19:04:43.410,0,2014-11-07 19:04:10.693,0
2014-11-07 19:05:29.354,149,74.5,37.55595,-122.2987,-0.593811,27.8,143.7831,6,5,1415415929,0.4664917,-0.3908844,-0.8808899,-50.82979,-29.18071,-12.23163,129.4776,115.6691,20,-0.1068647,0.1843107,-0.0883027,-0.791451,0.4495173,0.4273183,-0.2776167,0.1361359,-0.1750646,0.06782933,0.02260131,-0.04303119,0.0.0.0,10.62.21.216,5,automotive,2,2014-11-07 19:04:43.410,0,2014-11-07 19:04:10.693,0
2014-11-07 19:05:29.854,150,75,37.55595,-122.2987,-0.593811,27.8,143.7831,6,5,1415415929,0.3824921,-0.48526,-0.8655853,-51.30888,-29.2487,-11.90115,129.306,115.4975,20,-0.1147354,0.1037791,-0.03236753,-0.7765436,0.4347697,0.4451362,-0.147632,0.01045577,-0.00989797,0.01291012,-0.04592065,-0.01987023,0.0.0.0,10.62.21.216,5,automotive,2,2014-11-07 19:04:43.410,0,2014-11-07 19:04:10.693,0
2014-11-07 19:05:30.354,151,75.5,37.55574,-122.2985,-1.12323,28.1,143.7831,6,5,1415415930,0.429306,-0.4271698,-0.8118744,-50.96667,-29.45264,-12.03333,129.3662,115.5577,20,-0.05794506,0.09853536,-0.01269582,-0.7815051,0.4361857,0.4411327,-0.1163395,0.0871035,-0.04991895,0.03222055,0.00301384,-0.004037237,0.0.0.0,10.62.21.216,5,automotive,2,2014-11-07 19:04:43.410,0,2014-11-07 19:04:10.693,0
2014-11-07 19:05:30.854,152,76,37.55574,-122.2985,-1.12323,28.1,143.7831,6,5,1415415930,0.3451233,-0.4799347,-0.8873291,-51.95908,-28.33106,-10.81064,128.5878,114.7793,20,0.1316555,0.0697639,-0.0670789,-0.7723346,0.4163006,0.4557437,-0.1400326,-0.0172424,-0.03740621,-0.009422873,-0.01561932,0.02700724,0.0.0.0,10.62.21.216,5,automotive,2,2014-11-07 19:04:43.410,0,2014-11-07 19:04:10.693,0
