time,timestamp,recordtime,lat,long,alt,speed,course,verticalAccuracy,horizontalAccuracy,locTimeStamp,accelerationX,accelerationY,accelerationZ,HeadingX,HeadingY,HeadingZ,TrueHeading,MagneticHeading,HeadingAccuracy,RotationX,RotationY,RotationZ,motionYaw,motionRoll,motionPitch,motionRotationRateX,motionRotationRateY,motionRotationRateZ,motionUserAccelerationX,motionUserAccelerationY,motionUserAccelerationZ,en0,pdp_ip0,DeviceOrientation,State
2014-11-19 13:37:52.490,1,1,37.44551,-122.1722,22.07663,10.44,228.2987,3,10,1416433072,0.1278839,-0.7057037,-0.8780212,13.0648,-24.39978,5.52417,225.7173,212.0337,25,-0.3144309,-0.1612235,-0.188795,0.06011933,0.07419372,0.769617,-0.5409079,-0.09702926,-0.2245419,0.04934947,-0.02646033,-0.1037906,0.0.0.0,10.181.213.137,1,0
2014-11-19 13:37:53.485,2,2,37.44543,-122.1723,21.93845,11.01,228.2987,3,10,1416433073,0.2073822,-0.6633911,-0.5461121,23.77335,-16.83704,6.025238,250.0968,236.4132,25,-0.347151,-0.7435011,-0.7916071,-0.4218328,0.367386,0.6824632,-0.2204197,-0.3253196,-0.693668,-0.0527617,-0.0349277,0.2808778,0.0.0.0,10.181.213.137,1,0
2014-11-19 13:37:54.484,3,3,37.44535,-122.1724,21.70297,10.6,228.2987,3,10,1416433074,0.1924286,-0.6495056,-0.6021881,20.58463,-14.86945,6.943848,249.0661,235.3825,25,-0.1258386,-0.08541397,-0.1540918,-0.2704079,0.2807459,0.8040352,-0.1227335,-0.03588269,-0.07961023,-0.0387312,0.0450823,0.08529852,0.0.0.0,10.181.213.137,1,0
2014-11-19 13:37:55.484,4,4,37.44529,-122.1725,21.96759,10.4,228.2987,3,10,1416433075,0.2171783,-0.4568787,-0.95755,15.96358,-22.79163,4.856323,230.4405,216.7568,25,-0.5516847,0.0223093,0.3452642,0.06976115,0.2759965,0.5582843,-0.6857441,0.1343185,0.3054245,-0.006383258,0.0663529,-0.1679584,0.0.0.0,10.181.213.137,1,0
2014-11-19 13:37:56.484,5,5,37.44522,-122.1726,22.41769,10.2,228.2987,3,10,1416433076,0.1182709,-0.309494,-0.8882141,3.993202,-27.61682,-8.136505,198.9823,185.2987,25,-0.2688333,-0.201147,-0.2807337,0.3840992,0.1366338,0.3802433,-0.03878033,-0.05299843,-0.1898032,0.0108031,0.06821366,0.09280224,0.0.0.0,10.181.213.137,5,0
2014-11-19 13:37:57.485,6,6,37.44516,-122.1727,22.64282,10.4,225.335,3,10,1416433077,-0.4245605,-0.2734222,-1.254349,-5.862747,-23.85254,-5.598083,182.8424,169.1588,25,-0.2443368,1.025539,0.7119365,0.7775726,-0.1573141,0.264386,-0.5814243,0.9044294,0.8258817,-0.09230787,0.05956496,-0.2896624,0.0.0.0,10.181.213.137,5,0
2014-11-19 13:37:58.485,7,7,37.44508,-122.1728,22.73956,10.64,223.1525,3,10,1416433078,-0.2020874,-0.4784241,-0.9019623,1.537758,-24.74243,3.152893,198.0103,184.3266,25,-0.3934107,-0.2093285,0.08904306,0.5967727,-0.1369687,0.5301538,-0.3937116,-0.1812871,0.1166696,-0.06948857,0.04422496,-0.08469693,0.0.0.0,10.181.213.137,1,0
2014-11-19 13:37:59.485,8,8,37.44503,-122.1729,22.08945,10.06,223.1525,3,10,1416433079,-0.08081055,-0.1996918,-0.7832794,-1.991989,-25.17017,-2.408325,191.3164,177.6327,25,0.4937154,0.5761746,-0.1325527,0.6176261,-0.1483519,0.3129301,0.4441294,0.6086149,-0.1433096,0.03593957,0.07788256,0.0221008,0.0.0.0,10.181.213.137,5,0
2014-11-19 13:38:00.484,9,9,37.44499,-122.1729,21.84769,8.26,220.675,3,10,1416433080,-0.02929688,-0.2836456,-0.9082184,3.004173,-24.70831,2.084015,201.6436,187.96,25,0.3923971,0.7677289,-0.8638405,0.5001702,-0.1013874,0.4612874,0.3807817,0.7491528,-0.9300545,-0.05160749,0.06624082,-0.1134823,0.0.0.0,10.181.213.137,5,0
2014-11-19 13:38:01.485,10,10,37.44494,-122.173,21.85132,7.08,218.6596,3,10,1416433081,-0.0415802,-0.6381683,-0.5948029,4.742645,-25.56665,11.73688,204.0043,190.3206,25,-0.05850858,0.2173616,0.2703559,0.3348584,-0.001201461,0.7639039,0.100644,0.2457072,0.2234005,0.004850168,0.07954798,0.08679505,0.0.0.0,10.181.213.137,5,0
2014-11-19 13:38:02.484,11,11,37.4449,-122.173,21.92447,5.83,218.6596,3,10,1416433082,0.377594,-0.9027557,-0.9051361,4.333405,-24.36926,12.50507,203.4064,189.7227,25,0.08067594,-0.5419812,-0.8367005,0.1911729,0.2992138,0.8189784,0.02624498,0.5654861,-1.170501,0.01731019,-0.1664021,-0.06621905,0.0.0.0,10.181.213.137,1,0
2014-11-19 13:38:03.484,12,12,37.44486,-122.173,22.06732,5.28,216.6965,3,10,1416433083,0.2752838,-0.75737,-0.6855621,21.60667,-10.35968,7.378265,257.6141,243.9305,25,0.04217488,-0.3209051,0.7481911,-0.6592789,0.3375987,0.8238587,-0.1155599,-0.1706434,0.6342779,0.2816373,0.05352076,-0.01828736,0.0.0.0,10.181.213.137,1,0
2014-11-19 13:38:04.485,13,13,37.44484,-122.173,22.1691,3.8,216.6965,3,10,1416433084,0.1597748,-0.6461182,-0.5747833,22.37399,-11.81342,3.954895,258.1862,244.5025,25,-0.1619042,0.0022541,-0.1608235,-0.5887067,0.1731435,0.7213491,-0.04791963,-0.06108258,-0.2354979,0.007473357,0.01583657,0.1527738,0.0.0.0,10.181.213.137,1,0
2014-11-19 13:38:05.485,14,14,37.44479,-122.1731,22.51126,4.27,216.6965,3,10,1416433085,-0.05975342,-0.6069183,-0.6805267,20.14022,-16.85974,0.4980164,249.7111,236.0274,25,0.08256545,0.2332325,0.2504591,-0.281907,-0.09748301,0.6827945,-0.01374872,-0.1539299,0.2847071,0.01613687,0.04081451,0.03140658,0.0.0.0,10.181.213.137,1,0
2014-11-19 13:38:06.485,15,15,37.44474,-122.1731,22.79211,5.29,213.559,3,10,1416433086,-0.03346252,-0.6258545,-0.8229065,16.42299,-21.23889,2.268127,235.7119,222.0282,25,0.3323974,0.5545953,0.08030895,-0.06262241,-0.07873301,0.6298964,0.2009365,0.6260346,0.1420304,0.0004166652,-0.02011559,0.0192998,0.0.0.0,10.181.213.137,1,0
2014-11-19 13:38:07.484,16,16,37.44471,-122.1732,22.72006,5.22,213.559,3,10,1416433087,-0.0004730225,-0.6313629,-0.7691956,13.52419,-22.29926,4.773132,228.101,214.4174,25,0.1318262,-0.08632664,0.05515353,0.03707954,-0.02752756,0.7012558,0.09150092,0.03447698,0.04161214,0.01994592,0.007955395,-0.03033954,0.0.0.0,10.181.213.137,1,0
2014-11-19 13:38:08.485,17,17,37.44466,-122.1732,22.37723,6.41,213.559,3,10,1416433088,-0.05526733,-0.680481,-0.7688446,13.21727,-21.85468,7.979492,226.4127,212.729,25,-0.0114492,0.06951543,-0.05385764,0.05924225,-0.03945134,0.8309005,-0.09790453,0.1396091,-0.03856001,-0.03122392,0.03840449,-0.08536206,0.0.0.0,10.181.213.137,1,0
2014-11-19 13:38:09.485,18,18,37.44461,-122.1732,22.25665,6.95,210.7129,3,10,1416433089,0.05583191,-0.4548645,-0.7336121,13.3537,-21.92291,7.478485,225.9158,212.2322,25,0.7684077,0.1525155,0.1787599,0.05445983,0.006814003,0.7725713,0.4391585,-0.08320405,0.1562118,0.1578554,0.05613323,-0.3350763,0.0.0.0,10.181.213.137,1,0
2014-11-19 13:38:10.484,19,19,37.44455,-122.1733,22.44263,7.36,210.7129,3,10,1416433090,0.03317261,-0.7738953,-0.5883484,11.32455,-22.79547,8.1297,221.4684,207.7848,25,-0.3826661,0.2780734,-0.128163,0.1152381,-0.008814205,0.796418,-0.1683799,0.308953,-0.1009639,-0.04931751,0.06525873,0.2464096,0.0.0.0,10.181.213.137,1,0
2014-11-19 13:38:11.485,20,20,37.44447,-122.1733,22.56967,7.49,207.7585,3,10,1416433091,0.06704712,-0.615921,-0.687973,10.33556,-22.41888,7.261383,220.0471,206.3635,25,-0.2555258,0.1984811,-0.1907771,0.1537941,-0.02163107,0.7738788,-0.1782019,0.2268977,-0.1937329,0.008328328,0.08474839,0.06905693,0.0.0.0,10.181.213.137,1,0
2014-11-19 13:38:12.484,21,21,37.4444,-122.1734,22.8371,7.91,205.3462,3,10,1416433092,-0.1231079,-0.5510101,-0.3882599,9.806961,-22.98334,7.845886,217.7125,204.0289,25,0.2356008,0.09847784,0.02899596,0.1882807,-0.03391238,0.7545067,0.4096019,0.01499265,0.09330524,-0.1019743,0.1642689,0.2321274,0.0.0.0,10.181.213.137,1,0
2014-11-19 13:38:13.484,22,22,37.44434,-122.1734,22.927,7.95,205.3462,3,10,1416433093,0.01950073,-0.7557678,-0.8867798,9.517075,-22.58978,7.461823,217.6714,203.9878,25,-0.2082643,-0.1412567,0.2155088,0.1903844,-0.01898527,0.7485496,-0.3161674,0.04475585,0.1889548,0.06235589,-0.08451418,-0.0683891,0.0.0.0,10.181.213.137,1,0
2014-11-19 13:38:14.485,23,23,37.44428,-122.1734,23.08313,8.1,202.8498,3,10,1416433094,-0.01733398,-0.5452881,-0.5236511,9.005501,-22.48718,7.027557,216.6176,202.934,25,-0.6397014,-0.137907,-0.169646,0.171795,0.02791877,0.6821306,-0.500692,-0.1446798,-0.1983758,-0.03900259,0.08516025,0.2522776,0.0.0.0,10.181.213.137,1,0
2014-11-19 13:38:15.484,24,24,37.44422,-122.1735,22.87256,8.76,202.8498,3,10,1416433095,-0.0009307861,-0.5125122,-0.618103,8.937309,-21.35822,7.361572,217.2776,203.5939,25,0.1520537,0.1285731,-0.2480295,0.2003606,-0.01414672,0.7335067,0.08973886,-0.02405844,-0.1444801,-0.03940322,0.08933944,0.1069843,0.0.0.0,10.181.213.137,1,0
2014-11-19 13:38:16.485,25,25,37.44414,-122.1735,22.71127,8.68,200.0452,3,10,1416433096,0.05331421,-0.6047363,-0.6479187,9.500015,-21.71759,8.179871,216.9024,203.2187,25,-0.2951763,0.05152178,-0.0875658,0.2541959,-0.01662907,0.7423992,-0.2076114,0.1675526,-0.1455756,0.06556675,0.07132135,0.08882813,0.0.0.0,10.181.213.137,1,0
2014-11-19 13:38:17.485,26,26,37.44407,-122.1735,22.97916,8.73,198.6216,3,10,1416433097,-0.1504059,-0.5239563,-0.318573,7.095741,-22.5899,6.860504,211.7641,198.0804,25,1.469687,0.5481856,-0.09903391,0.308111,-0.0489636,0.6960267,1.403692,0.04653818,0.1318657,-0.07765966,0.2241967,-0.1611972,0.0.0.0,10.181.213.137,1,0
2014-11-19 13:38:18.489,27,27,37.444,-122.1736,22.67062,8.73,198.6216,3,10,1416433098,0.0003356934,-0.6166534,-0.5328217,4.827858,-22.50452,7.344849,207.0633,193.3796,25,0.3305888,0.2880403,0.03445358,0.3503539,-0.0379014,0.6940589,0.4540123,0.112256,0.01105876,0.002820014,0.08793505,0.04576819,0.0.0.0,10.181.213.137,1,0
2014-11-19 13:38:19.485,28,28,37.44391,-122.1736,22.68335,8.83,195.1409,3,10,1416433099,-0.0844574,-0.5693512,-0.603302,4.82785,-22.74426,7.24472,205.469,191.7853,25,-0.3505266,-0.3348483,0.132524,0.3741914,-0.01237037,0.7220601,0.06423022,0.009503465,0.1020201,-0.01949502,0.04610972,0.2564307,0.0.0.0,10.181.213.137,1,0
2014-11-19 13:38:20.484,29,29,37.44383,-122.1736,22.81345,9.31,192.1444,3,10,1416433100,-0.04862976,-0.5523224,-1.059204,4.401558,-22.45331,7.094452,204.703,191.0194,25,0.5826072,0.5766071,0.09703627,0.3830233,-0.05513507,0.6752383,-0.1047122,-0.787956,0.1660201,0.1049192,-0.07587494,-0.4187329,0.0.0.0,10.181.213.137,1,0
2014-11-19 13:38:21.485,30,30,37.44375,-122.1737,22.53851,9.44,190.7344,3,10,1416433101,-0.01391602,-0.6846161,-0.8581848,4.69146,-23.12042,7.044434,204.8465,191.1629,25,-0.4449391,-0.1511946,-0.0397064,0.4208679,-0.1020232,0.724454,0.05355321,0.1418936,-0.1115052,-0.06348646,-0.003288994,0.09355447,0.0.0.0,10.181.213.137,1,0
2014-11-19 13:38:22.485,31,31,37.44366,-122.1737,22.30621,9.48,190.7344,3,10,1416433102,0.0300293,-0.7315369,-0.9221954,4.981361,-23.13739,6.860748,205.8001,192.1165,25,-0.6002006,-1.184426,0.1964076,0.3935107,-0.08918856,0.6888042,-0.4458917,-0.1409138,0.2845236,0.1371833,-0.09326735,-0.02067366,0.0.0.0,10.181.213.137,1,0
2014-11-19 13:38:23.484,32,32,37.44359,-122.1737,22.1716,9.44,190.7344,3,10,1416433103,0.1506653,-0.5513458,-0.6452026,6.737663,-22.5387,7.912781,210.1096,196.426,25,0.5085388,-0.07555335,0.3822669,0.2878526,0.2214297,0.6653466,0.5441011,0.1322644,0.3252228,0.04542138,0.06603181,0.04277888,0.0.0.0,10.181.213.137,1,0
2014-11-19 13:38:24.484,33,33,37.44351,-122.1737,22.45139,9.34,190.7344,3,10,1416433104,0.2222748,-0.6225433,-0.740448,5.49292,-22.79529,8.797974,207.2445,193.5609,25,0.2240909,0.09461945,0.08865903,0.3210051,0.2360876,0.6850908,0.08519087,0.1411434,0.1254554,0.02685369,-0.009377072,0.05311318,0.0.0.0,10.181.213.137,1,0
2014-11-19 13:38:25.484,34,34,37.44343,-122.1737,22.48135,9.11,190.7344,3,10,1416433105,0.1229858,-0.3662872,-0.7367859,3.53199,-23.18872,6.844086,202.6194,188.9358,25,0.2761959,-0.4975991,0.07434987,0.392483,0.175197,0.6119999,0.09786593,-0.5941451,-0.02220711,0.1311678,-0.05218821,-0.2100962,0.0.0.0,10.181.213.137,1,0
2014-11-19 13:38:26.485,35,35,37.44335,-122.1738,22.4184,9.32,189.7406,3,10,1416433106,0.2100372,-0.5717316,-0.7550659,3.719566,-22.89764,7.896088,203.5089,189.8253,25,-0.5680072,-0.1187261,-0.01647858,0.3658856,0.16486,0.6635212,-0.1586476,0.2464263,-0.04479851,0.04697566,0.1645855,0.3105328,0.0.0.0,10.181.213.137,5,0
2014-11-19 13:38:27.485,36,36,37.44326,-122.1738,22.42358,9.05,189.7406,3,10,1416433107,0.125946,-0.6150513,-0.6814423,3.736618,-21.71747,10.25067,204.465,190.7813,25,0.03341255,0.01534087,0.0256782,0.3240332,0.130657,0.7303101,0.02506489,0.1567771,-0.01878565,0.04161337,0.07087881,0.06659021,0.0.0.0,10.181.213.137,1,0
2014-11-19 13:38:28.484,37,37,37.44319,-122.1738,22.3873,8.35,189.7406,3,10,1416433108,-0.1118317,-0.645874,-0.6876526,8.002342,-21.40735,9.068176,213.2846,199.6009,25,-0.3227527,0.3866697,0.1060804,0.3648483,-0.2212041,0.777194,-0.2194649,0.4913848,-0.01722224,0.04320503,0.09408885,0.04358221,0.0.0.0,10.181.213.137,1,0
2014-11-19 13:38:29.484,38,38,37.44313,-122.1738,22.53574,7.9,189.7406,3,10,1416433109,-0.07237244,-0.6953888,-0.835022,5.240112,-22.05725,9.469025,206.9467,193.2631,25,-0.7459725,-0.3335713,0.07697601,0.4087991,-0.09299657,0.7829654,-0.895784,-0.6001763,-0.01393736,0.04908442,-0.1555469,-0.05053986,0.0.0.0,10.181.213.137,1,0
2014-11-19 13:38:30.485,39,39,37.44305,-122.1739,22.7803,8.12,189.7406,3,10,1416433110,-0.1047668,-0.5354462,-0.5842896,5.18895,-20.74023,10.25397,207.3807,193.697,25,0.4673201,0.483123,0.0743741,0.4045568,-0.074341,0.8146044,0.2169711,0.2712967,0.1398834,-0.04693783,0.1551428,-0.02347212,0.0.0.0,10.181.213.137,1,0
2014-11-19 13:38:31.484,40,40,37.44297,-122.1738,23.00339,8.84,189.31,3,10,1416433111,0.0410614,-0.5131226,-0.7949829,7.098625,-21.39032,8.416962,211.0989,197.4153,25,-0.0006460829,-0.3107427,0.2774692,0.2942953,0.165627,0.7412426,-0.1327964,-0.3350592,0.3086263,-0.02113454,0.1121557,-0.07789938,0.0.0.0,10.181.213.137,1,0
2014-11-19 13:38:32.485,41,41,37.44288,-122.1738,23.1116,9.22,189.31,3,10,1416433112,-0.07948303,-0.4884033,-0.5479889,6.160843,-21.16827,8.333527,209.5795,195.8958,25,0.2778878,0.02006399,0.3362638,0.3212233,0.07659203,0.7454067,0.09460857,-0.4132985,0.315349,-0.01180741,0.04069745,-0.02925926,0.0.0.0,10.181.213.137,1,0
2014-11-19 13:38:33.485,42,42,37.4428,-122.1739,23.06543,9.55,189.31,3,10,1416433113,0.009109497,-0.5930176,-0.7255249,5.939186,-21.76709,7.949402,209.3,195.6163,25,0.07793927,-0.1105539,0.1366191,0.3225603,0.06299711,0.7400997,2.655474e-05,-0.0956741,0.143829,-0.02855731,0.05410703,0.005018248,0.0.0.0,10.181.213.137,1,0
2014-11-19 13:38:34.485,43,43,37.4427,-122.1739,23.16357,10.29,189.2646,3,10,1416433114,0.04058838,-0.6745605,-0.7535248,5.512939,-21.30499,8.834473,208.1219,194.4383,25,0.01036715,-0.2027986,0.2588902,0.3315363,0.03265671,0.7426579,-0.002504317,-0.1448727,0.2486738,0.01897401,0.001687766,-0.01716818,0.0.0.0,10.181.213.137,1,0
2014-11-19 13:38:35.485,44,44,37.44258,-122.1739,23.46472,11.72,189.2856,3,10,1416433115,-0.09603882,-0.7298279,-0.6702576,5.615242,-20.92883,9.736298,208.3582,194.6745,25,0.7416291,0.3057011,-0.7550623,0.3274093,0.01625395,0.7968267,0.2930187,0.1447013,-0.3394253,-0.08586935,-0.006156592,-0.01522408,0.0.0.0,10.181.213.137,1,0
2014-11-19 13:38:36.485,45,45,37.44247,-122.174,23.56998,11.85,189.2856,3,10,1416433116,0.1393738,-0.8969116,-0.9274292,5.56411,-20.9801,11.05554,207.6641,193.9805,25,-0.737367,-0.966655,0.2902092,0.303649,0.08043839,0.8091891,-0.4729154,0.1103055,0.1138309,0.1066751,-0.1700252,0.09660663,0.0.0.0,10.181.213.137,1,0
2014-11-19 13:38:37.484,46,46,37.44238,-122.174,23.59494,11.2,189.2856,3,10,1416433117,0.100296,-0.7990723,-0.6645508,4.524002,-21.44202,8.634125,205.5824,191.8987,25,0.3274996,0.0154719,0.2079066,0.3381816,-0.06756145,0.7648482,0.3275649,-0.191182,-0.2865173,0.2709977,-0.0736553,0.003624449,0.0.0.0,10.181.213.137,1,0
2014-11-19 13:38:38.485,47,47,37.44228,-122.174,23.59665,11.44,188.9511,3,10,1416433118,0.2249146,-0.6243744,-0.6791382,6.894066,-20.32996,7.481873,212.2659,198.5822,25,0.1457165,0.004187022,-0.110518,0.1705585,0.07894421,0.7380078,-0.01789024,-0.1438346,-0.3903863,0.3124149,0.08942614,-0.02711166,0.0.0.0,10.181.213.137,1,0
2014-11-19 13:38:39.485,48,48,37.44223,-122.174,23.67416,10.07,188.9511,3,10,1416433119,-0.4167633,-0.8197479,-0.5574341,4.77977,-21.5274,7.48175,206.9269,193.2433,25,0.3431592,0.06048065,-0.7497494,0.3406322,-0.07504646,0.7721888,0.7410541,0.08418895,-0.222475,-0.1485283,0.03786916,0.09466363,0.0.0.0,10.181.213.137,1,0
2014-11-19 13:38:40.489,49,49,37.44211,-122.174,23.53061,11.24,188.9511,3,10,1416433120,0.05480957,-0.7311096,-0.67453,8.837875,-19.81683,10.38742,217.2168,203.5331,25,0.2656277,0.10789,0.03491884,0.2004548,0.02507425,0.8621246,-0.1396056,-0.08719552,0.1613149,0.09435474,0.06853797,-0.0420362,0.0.0.0,10.181.213.137,1,0
2014-11-19 13:38:41.485,50,50,37.44197,-122.174,23.39703,12.63,188.9511,3,10,1416433121,-0.0252533,-0.6888123,-0.5825195,7.576088,-20.87726,10.48764,213.5647,199.881,25,0.4326686,0.3645958,-0.1578978,0.2604783,-0.05484837,0.843473,0.3603038,0.3368825,-0.08718311,-0.1275983,0.1309441,-0.04852948,0.0.0.0,10.181.213.137,1,0
2014-11-19 13:38:42.484,51,51,37.44186,-122.1741,23.48352,12.77,188.9511,3,10,1416433122,0.2087555,-0.8671265,-0.5897827,7.746597,-20.60352,10.28723,213.0703,199.3867,25,-0.3268029,-0.3691056,0.3769681,0.2436442,-0.003168617,0.8482807,0.3953496,0.09519587,-0.1918318,0.1619464,-0.07239569,0.04452552,0.0.0.0,10.181.213.137,1,0
2014-11-19 13:38:43.485,52,52,37.44175,-122.1741,23.46979,12.68,187.9812,3,10,1416433123,-0.2308502,-0.5819244,-0.6955261,6.587112,-20.87695,9.986664,210.717,197.0334,25,0.4728304,0.3506217,0.122743,0.2870456,-0.05709187,0.8301076,-0.04988916,-0.4185816,0.5379233,-0.09012714,0.06252794,-0.1358887,0.0.0.0,10.181.213.137,1,0
2014-11-19 13:38:44.484,53,53,37.44162,-122.1741,23.33636,12.8,187.9812,3,10,1416433124,-0.08404541,-0.5143433,-0.8229523,5.461761,-21.25323,9.151581,208.1078,194.4241,25,0.01358665,-0.2079407,0.08124479,0.2880847,-0.03189711,0.7805142,-0.3524661,-0.5761437,0.138313,0.02490375,-0.02279556,-0.2511286,0.0.0.0,10.181.213.137,1,0
2014-11-19 13:38:45.485,54,54,37.44151,-122.1742,23.16772,12.62,187.9812,3,10,1416433125,-0.1508331,-0.6669159,-0.8712616,5.325363,-21.45844,9.452271,207.5485,193.8649,25,0.4118946,0.2409066,-0.1274735,0.3267619,-0.07892417,0.752726,0.123677,0.03389863,0.05919255,-0.1479488,-0.05935014,-0.2345258,0.0.0.0,10.181.213.137,1,0
2014-11-19 13:38:46.485,55,55,37.44139,-122.1742,22.8266,12.22,187.9812,3,10,1416433126,-0.04269409,-0.6116028,-0.7026062,5.188988,-22.38184,10.35403,205.5988,191.9151,25,0.5101799,0.3229834,0.0146844,0.330752,-0.07871727,0.7158048,0.3609406,0.2528843,0.02606769,-0.02602166,0.1665551,0.02211099,0.0.0.0,10.181.213.137,1,0
2014-11-19 13:38:47.484,56,56,37.4413,-122.1742,22.81595,11.38,187.9812,3,10,1416433127,0.02088928,-0.5779724,-0.9981842,5.819878,-21.0647,8.734253,208.1834,194.4997,25,0.4945096,-0.1856937,0.1360002,0.2781503,0.04814667,0.6209168,0.1999917,-0.07762776,0.2021442,0.06945205,0.06820073,-0.3166865,0.0.0.0,10.181.213.137,5,0
2014-11-19 13:38:48.484,57,57,37.44121,-122.1742,22.86755,10.77,192.7575,3,10,1416433128,0.01289368,-0.4599762,-0.8278503,6.536018,-21.37244,8.433685,209.871,196.1874,25,-0.1799463,-0.1272935,0.05349465,0.2337268,0.08410375,0.5849664,-0.09718581,-0.03431641,0.06779586,-0.01570069,0.109224,0.04550537,0.0.0.0,10.181.213.137,5,0
2014-11-19 13:38:49.489,58,58,37.44114,-122.1742,22.97827,9.3,193.639,3,10,1416433129,0.07415771,-0.5726318,-0.9849701,7.013443,-21.81708,7.632019,211.9752,198.2915,25,0.02854882,-1.171416,0.3796256,0.2018313,0.1233339,0.4959979,-0.01117052,-1.256748,0.3728237,0.01558264,-0.1314665,-0.1082502,0.0.0.0,10.181.213.137,5,0
2014-11-19 13:38:50.484,59,59,37.44106,-122.1743,22.94354,7.72,193.639,3,10,1416433130,0.1256104,-0.5642242,-1.083405,6.825867,-21.49225,8.416901,211.3572,197.6736,25,-0.5320386,-0.5211665,0.1132863,0.1943349,0.05761812,0.5151318,-0.6297247,-0.4623515,0.01349486,0.07120948,-0.06579166,-0.08887315,0.0.0.0,10.181.213.137,1,0
2014-11-19 13:38:51.485,60,60,37.44101,-122.1743,23.10071,6.78,195.3169,3,10,1416433131,0.03239441,-0.4622345,-0.947464,6.570107,-21.95404,8.567108,209.6452,195.9616,25,0.05427123,-0.1665991,-0.004212322,0.1920451,0.01111126,0.5346082,-0.1590064,-0.1638029,-0.09595269,-0.01447402,0.009320832,-0.08613326,0.0.0.0,10.181.213.137,1,0
2014-11-19 13:38:52.484,61,61,37.44094,-122.1743,23.55661,6.59,195.3169,3,10,1416433132,-0.03132629,-0.4445801,-0.9393158,7.951225,-22.6554,7.381439,212.0923,198.4087,25,0.664093,-0.1819658,-0.3806645,0.1613039,0.01233157,0.5219411,0.6059449,-0.05340041,-0.363942,-0.04128326,0.06530562,-0.07359675,0.0.0.0,10.181.213.137,5,0
2014-11-19 13:38:53.485,62,62,37.4409,-122.1743,23.77856,4.75,195.3169,3,10,1416433133,0.03712463,-0.5288239,-0.8572235,8.121719,-21.62891,9.351959,213.0415,199.3579,25,-0.1972023,-0.226798,0.09153737,0.152435,0.07227661,0.5383334,-0.2659815,-0.1742261,0.0816958,-0.005924059,-0.02742482,-0.002258734,0.0.0.0,10.181.213.137,1,0
2014-11-19 13:38:54.485,63,63,37.44092,-122.1743,23.4256,1.74,195.3169,3,10,1416433134,-0.04945374,-0.4586945,-0.829895,8.803749,-23.06567,7.28125,214.0408,200.3572,25,0.06177602,-0.07070613,-0.03155899,0.1377763,-0.02496365,0.494139,0.08655842,-0.0007245921,-0.02111961,-0.0406927,-0.006362746,0.02315421,0.0.0.0,10.181.213.137,5,0
2014-11-19 13:38:55.484,64,64,37.44092,-122.1743,23.4509,0.75,195.3169,3,10,1416433135,0.315506,-0.5424194,-0.7439423,12.07751,-21.56024,5.611176,222.5211,208.8375,25,0.06614174,-0.2465275,0.8621835,-0.01026434,0.1275988,0.4610248,0.2376962,0.3043663,0.5408669,0.2736976,-0.04594804,0.1563673,0.0.0.0,10.181.213.137,1,0
2014-11-19 13:38:56.484,65,65,37.44091,-122.1743,23.48004,0.32,195.3169,3,10,1416433136,0.2997894,-0.4550934,-0.7796783,17.10749,-17.50641,6.162323,237.6117,223.9281,25,0.136727,-0.6751872,0.1692705,-0.2725453,0.1613541,0.4866445,0.06979088,-0.3767638,0.06795133,0.09942064,-0.05910134,0.08948197,0.0.0.0,10.181.213.137,5,0
2014-11-19 13:38:57.485,66,66,37.44092,-122.1743,23.67868,0,195.3169,3,10,1416433137,0.03527832,-0.6536407,-0.2601776,13.4586,-18.94348,8.533783,228.0457,214.362,25,0.1646182,0.3036124,0.3380963,-0.1069264,0.1612307,0.6519843,1.274732,0.9709511,0.3589317,-0.05807041,0.02380281,0.5183368,0.0.0.0,10.181.213.137,1,0
2014-11-19 13:38:58.484,67,67,37.44093,-122.1743,23.80316,0.64,195.3169,3,10,1416433138,0.1484222,-0.5740509,-0.7786102,12.8789,-20.58533,7.69873,225.7296,212.046,25,-0.003900466,-0.04255678,0.02657089,-0.08216295,0.1511934,0.606383,-0.03762033,0.003237319,-0.02249272,-0.0008402342,-0.00244284,0.04258047,0.0.0.0,10.181.213.137,1,0
2014-11-19 13:38:59.487,68,68,37.44092,-122.1743,23.95218,0,195.3169,3,10,1416433139,0.1032257,-0.5639038,-0.7853699,12.2139,-20.8418,7.18103,225.4745,211.7908,25,-0.003927097,-0.04499517,0.02900608,-0.06534208,0.139262,0.6183447,-0.03684724,-0.02841058,0.01293839,-0.009883958,0.0157833,0.02158059,0.0.0.0,10.181.213.137,1,0
2014-11-19 13:39:00.484,69,69,37.4409,-122.1743,23.97211,0.27,195.3169,3,10,1416433140,0.1244965,-0.5486145,-0.7632751,12.17978,-20.49976,6.746857,224.6983,211.0146,25,-0.02674267,-0.1430216,0.02643374,-0.06393918,0.1451858,0.6115963,-0.01171489,-0.03924156,0.002773521,-0.001919807,0.0276053,0.04772852,0.0.0.0,10.181.213.137,1,0
2014-11-19 13:39:01.484,70,70,37.4409,-122.1743,23.90631,0.35,195.3169,3,10,1416433141,0.07479858,-0.5420532,-0.7722931,11.99224,-20.38013,6.29599,224.4687,210.7851,25,-0.04177807,-0.0625462,-0.02992008,-0.04646094,0.1053577,0.5943431,-0.02201302,0.009678192,-0.03424839,-0.0227676,0.02512882,0.05016446,0.0.0.0,10.181.213.137,1,0
2014-11-19 13:39:02.485,71,71,37.44089,-122.1743,23.91226,0.64,195.3169,3,10,1416433142,0.05854797,-0.5350494,-0.7938385,11.9752,-20.8421,5.978729,224.2102,210.5265,25,-0.03792555,-0.07944716,-0.05073854,-0.05563411,0.1032441,0.5796367,0.02865683,0.05171983,0.007790868,-0.06841999,0.002843927,0.06479623,0.0.0.0,10.181.213.137,1,0
2014-11-19 13:39:03.485,72,72,37.44089,-122.1743,23.68091,0.6,195.3169,3,10,1416433143,0.09715271,-0.4896545,-0.7674713,13.01528,-20.38013,4.960052,227.1908,213.5071,25,-0.3378899,-0.1612203,0.07518929,-0.09392158,0.1165504,0.5454336,-0.1430687,0.05220149,0.05139375,-0.02560706,0.0247245,0.1018796,0.0.0.0,10.181.213.137,1,0
2014-11-19 13:39:04.484,73,73,37.44091,-122.1743,23.76291,0.55,195.3169,3,10,1416433144,0.07154846,-0.5102997,-0.8065796,11.58301,-20.96185,5.628021,223.2106,209.5269,25,-0.02764521,-0.09192726,-0.001462874,-0.02418347,0.08017328,0.5622587,-0.05384848,-0.04864224,-0.02713286,-0.007608062,0.0245689,0.01972709,0.0.0.0,10.181.213.137,1,0
2014-11-19 13:39:05.485,74,74,37.44091,-122.1743,23.61804,0.47,195.3169,3,10,1416433145,0.1812286,-0.4872742,-0.7661438,12.06044,-20.17505,5.962006,225.211,211.5274,25,-0.04037965,-0.0399879,0.05851125,-0.08888008,0.1435064,0.5725157,-0.01947943,0.05384018,0.03718189,0.05998164,0.04193136,0.07826896,0.0.0.0,10.181.213.137,1,0
2014-11-19 13:39:06.484,75,75,37.44091,-122.1743,23.50226,0.39,195.3169,3,10,1416433146,0.1337128,-0.5164337,-0.8026886,11.95815,-20.44849,5.895264,225.2566,211.573,25,0.01912469,-0.0244891,0.0127142,-0.06061995,0.1167171,0.5754561,-0.008411603,0.02144215,-0.02484404,0.01433307,0.02985903,0.04109142,0.0.0.0,10.181.213.137,1,0
2014-11-19 13:39:07.485,76,76,37.44091,-122.1743,23.52765,0.4,195.3169,3,10,1416433147,0.05825806,-0.5294495,-0.8026276,10.66228,-20.92743,6.128998,221.6091,207.9254,25,0.03097576,-0.01740163,0.02907107,-0.03750884,0.07987143,0.594815,-0.002799524,0.0160001,0.002848236,-0.007825314,0.03090604,0.02298415,0.0.0.0,10.181.213.137,1,0
2014-11-19 13:39:08.485,77,77,37.44091,-122.1743,23.47092,0.35,195.3169,3,10,1416433148,0.04222107,-0.5360718,-0.7894897,10.6964,-21.03003,6.262604,222.0196,208.336,25,0.01837661,-0.01698964,-0.02770779,-0.02223777,0.05736594,0.5974514,0.01515452,0.02062785,-0.03453315,-0.009148759,0.02687741,0.0234863,0.0.0.0,10.181.213.137,1,0
2014-11-19 13:39:09.484,78,78,37.44091,-122.1743,23.27795,0,195.3169,3,10,1416433149,0.1051025,-0.5349579,-0.8000793,10.7646,-20.96173,6.02887,221.6254,207.9417,25,-0.2343209,0.4310467,0.05648831,-0.02432722,0.1612891,0.5637156,-0.2078162,0.5679275,0.1060297,-0.02262996,-0.01350571,0.02772525,0.0.0.0,10.181.213.137,1,0
2014-11-19 13:39:10.485,79,79,37.44091,-122.1743,23.08774,0,195.3169,3,10,1416433150,0.1935577,-0.3505249,-1.013901,10.4577,-21.85114,3.390289,219.9041,206.2205,25,-0.3672142,-0.5376056,0.6540583,0.006958618,0.170253,0.3850156,-0.6412313,-0.6166998,0.5343902,0.07916276,0.04221486,-0.08367738,0.0.0.0,10.181.213.137,1,0
2014-11-19 13:39:11.484,80,80,37.44091,-122.1743,23.29462,0,195.3169,3,10,1416433151,0.7410889,-0.2268372,-0.7295227,12.93005,-20.4314,4.876587,225.8356,212.152,25,-0.6859001,1.202302,-1.014515,-0.176127,0.4426823,0.3765942,-0.8097011,1.678299,-1.774244,0.03439326,0.01594887,0.009091481,0.0.0.0,10.181.213.137,5,0
2014-11-19 13:39:12.487,81,81,37.44092,-122.1743,23.06851,0.19,195.3169,3,10,1416433152,0.5177612,-0.5431824,-0.6181641,16.44252,-16.49719,7.348022,239.4512,225.7675,25,0.1957,0.1237989,0.5745075,-0.3851061,0.2679719,0.7060722,0.2289192,0.4587809,0.2932328,0.349385,0.123612,0.1538031,0.0.0.0,10.181.213.137,1,0
2014-11-19 13:39:13.484,82,82,37.44093,-122.1743,22.53229,0.19,195.3169,3,10,1416433153,0.01538086,-0.6156311,-0.7567139,14.20887,-18.80646,6.730103,231.769,218.0854,25,0.04230085,-0.2688437,0.3109736,-0.1985885,0.123262,0.6796849,-0.1889917,-0.2248268,0.4226438,-0.04653947,0.02709739,-0.01154123,0.0.0.0,10.181.213.137,1,0
2014-11-19 13:39:14.485,83,83,37.44093,-122.1743,22.80933,0.27,195.3169,3,10,1416433154,0.09918213,-0.5831451,-0.7999573,13.85081,-20.02087,6.546448,228.929,215.2454,25,0.2739708,-0.1991033,0.05041604,-0.1532584,0.1715202,0.6230083,0.2892344,-0.08891011,0.06382468,-0.02626369,0.008529718,0.01004894,0.0.0.0,10.181.213.137,1,0
2014-11-19 13:39:15.489,84,84,37.44093,-122.1743,22.78613,0.37,195.3169,3,10,1416433155,0.1100159,-0.6347198,-0.7311859,12.69132,-19.78137,7.281281,229.0206,215.337,25,-0.03950267,-0.05834373,0.08783904,-0.1478601,0.1333349,0.7003954,0.001607042,-0.01790487,0.04138099,0.008813982,0.0227244,0.02913276,0.0.0.0,10.181.213.137,1,0
2014-11-19 13:39:16.484,85,85,37.44093,-122.1743,23.16367,0.42,195.3169,3,10,1416433156,0.04032898,-0.5563354,-0.7980652,12.58901,-20.80762,6.346039,225.6315,211.9478,25,0.02304753,-0.04378343,-0.01424525,-0.08430225,0.06624287,0.6140077,0.007729506,0.008094106,0.01573608,-0.01983249,0.01821014,0.003312305,0.0.0.0,10.181.213.137,1,0
2014-11-19 13:39:17.484,86,86,37.44092,-122.1743,23.2348,0.9,272.1094,3,10,1416433157,0.03271484,-0.5353088,-0.8000793,12.09453,-20.68787,5.494415,225.9156,212.2319,25,-0.03442855,-0.04977501,0.06476861,-0.06513545,0.04499714,0.5951677,-0.04692926,-0.03552753,0.05284173,-0.01030049,0.01671757,0.02127761,0.0.0.0,10.181.213.137,1,0
2014-11-19 13:39:18.485,87,87,37.44091,-122.1743,23.24612,0.82,273.8672,3,10,1416433158,0.09527588,-0.5096588,-0.7789154,11.99223,-21.40656,5.594574,224.0584,210.3747,25,0.1719638,-0.05558657,-0.08799218,-0.0747622,0.03789221,0.5867432,0.1348983,0.06749013,-0.1652353,0.09368176,0.03070267,0.0302553,0.0.0.0,10.181.213.137,1,0
2014-11-19 13:39:19.485,88,88,37.44092,-122.1743,22.9938,0.56,273.8672,3,10,1416433159,-0.02728271,-0.4879303,-0.8254547,12.23094,-21.61176,3.891235,224.9455,211.2619,25,0.4446885,-0.2510602,-0.03391589,-0.06552289,0.001677554,0.5388049,0.549639,-0.1301049,-0.06668747,0.01217096,0.02739283,0.03974829,0.0.0.0,10.181.213.137,1,0
2014-11-19 13:39:20.485,89,89,37.44091,-122.1743,22.9877,0.5,273.8672,3,10,1416433160,0.1817932,-0.3891602,-0.8545685,12.40147,-20.96185,4.02478,225.1222,211.4385,25,0.08185998,-0.01097835,0.1067294,-0.07983842,0.1805306,0.450367,-0.01810622,0.1216852,0.09161918,0.0005376159,0.02275932,-0.001565838,0.0.0.0,10.181.213.137,5,0
2014-11-19 13:39:21.485,90,90,37.44091,-122.1743,23.08615,0.42,273.8672,3,10,1416433161,0.1726685,-0.4243317,-0.8502655,12.09454,-21.40637,4.592438,223.6396,209.9559,25,-0.01972017,-0.09587114,0.04288834,-0.0685128,0.1786757,0.4508533,0.0212352,-0.01858937,0.01816812,0.01752298,0.008701243,0.03932607,0.0.0.0,10.181.213.137,5,0
2014-11-19 13:39:22.485,91,91,37.44091,-122.1743,23.12506,0,273.8672,3,10,1416433162,0.1502075,-0.4194946,-0.8726044,12.04337,-21.4577,4.175018,223.4974,209.8138,25,0.03194036,-0.04784715,0.05097237,-0.0655245,0.1703933,0.4486281,0.004797137,0.003500995,0.005066094,0.001857997,0.01684445,0.02405683,0.0.0.0,10.181.213.137,5,0
2014-11-19 13:39:23.484,92,92,37.4409,-122.1743,22.87555,0.25,273.8672,3,10,1416433163,0.1197815,-0.423233,-0.8617249,10.79865,-22.09045,4.191711,220.5819,206.8983,25,-0.01616539,-0.09471559,0.04791187,-0.0375583,0.1345868,0.4501183,-0.0142971,-0.02073929,0.01847392,0.008563388,0.02319156,0.02573712,0.0.0.0,10.181.213.137,5,0
2014-11-19 13:39:24.487,93,93,37.44091,-122.1743,22.86996,0.3,273.8672,3,10,1416433164,0.1206665,-0.4160156,-0.8726349,10.918,-22.10779,3.907745,220.2783,206.5946,25,-0.005004346,-0.04977794,0.01791109,-0.0271435,0.1111535,0.4493524,-0.038633,-0.005425502,-0.04554943,0.01771687,0.02607233,0.02259619,0.0.0.0,10.181.213.137,5,0
2014-11-19 13:39:25.484,94,94,37.44091,-122.1743,22.93716,0.33,273.8672,3,10,1416433165,0.021698,-0.5409698,-0.7019501,10.45762,-21.13251,6.128815,220.3221,206.6385,25,0.3550436,-0.05704358,0.1164108,-0.05498167,0.0563691,0.6127064,0.4705876,-0.1372673,0.06481646,0.04019761,0.03383913,0.1321791,0.0.0.0,10.181.213.137,5,0
2014-11-19 13:39:26.485,95,95,37.44091,-122.1743,23.31735,0.35,273.8672,3,10,1416433166,0.1080322,-0.7274017,-0.656311,12.50372,-20.03778,10.23688,224.7063,211.0226,25,-0.1454057,-0.5323308,-0.009225456,-0.160383,0.1114523,0.7868771,-0.05706805,-0.4519033,-0.1025121,0.02950299,-0.01924996,0.04536854,0.0.0.0,10.181.213.137,1,0
2014-11-19 13:39:27.485,96,96,37.44092,-122.1743,23.01282,0.45,273.8672,3,10,1416433167,-0.01644897,-0.6673431,-0.6876678,10.93503,-20.99579,9.335114,221.3407,207.6571,25,-0.4006004,0.08307518,0.07839334,-0.08157027,0.03834963,0.7687339,-0.5191082,0.1526445,0.07758375,-0.02060062,0.0235491,0.0818494,0.0.0.0,10.181.213.137,1,0
2014-11-19 13:39:28.488,97,97,37.44092,-122.1743,22.71674,0.42,273.8672,3,10,1416433168,0.0118866,-0.6209412,-0.6697235,9.622108,-22.00482,9.285034,217.5607,203.8771,25,0.0246883,-0.09938811,-0.05131059,-0.041355,0.02824568,0.7603611,0.1111287,-0.04234519,-0.07286441,-0.02690295,0.08127295,0.03545542,0.0.0.0,10.181.213.137,1,0
2014-11-19 13:39:29.485,98,98,37.44093,-122.1743,22.74615,0.39,273.8672,3,10,1416433169,-0.06988525,-0.6416473,-0.67099,9.912003,-22.32983,8.199646,218.6305,204.9469,25,0.1180696,-0.1356143,-0.00442644,-0.07384285,0.00431058,0.7057701,0.2509047,0.01550423,0.01652285,-0.0681612,-0.0007481266,0.08485093,0.0.0.0,10.181.213.137,1,0
2014-11-19 13:39:30.484,99,99,37.44092,-122.1743,22.53284,0.39,273.8672,3,10,1416433170,-0.04678345,-0.6506805,-0.6849365,9.860855,-21.97064,8.416809,218.0427,204.3591,25,-0.07314638,-0.03683551,-0.02463451,-0.03656787,-0.01646962,0.7116997,0.09341117,0.09864349,-0.01496809,-0.03577719,0.01972951,0.08791491,0.0.0.0,10.181.213.137,1,0
2014-11-19 13:39:31.486,100,100,37.44092,-122.1743,22.32806,0.38,273.8672,3,10,1416433171,-0.03300476,-0.6674652,-0.7138519,9.775589,-22.15887,9.168243,216.8905,203.2069,25,0.03569222,-0.05509095,0.03879054,-0.02092649,-0.03594232,0.7459517,0.000113455,-0.009607105,0.02150034,-0.01378451,0.007375902,0.02884411,0.0.0.0,10.181.213.137,1,0
2014-11-19 13:39:32.485,101,101,37.44091,-122.1743,22.33868,0.36,273.8672,3,10,1416433172,0.08140564,-0.6306152,-0.7593231,10.98622,-20.90997,9.318512,220.4323,206.7487,25,0.1405928,-0.1075848,-0.2927773,-0.1160002,-0.007610676,0.7600882,0.05514238,-0.2151731,-0.3926538,-0.01647194,0.02750163,-0.02877055,0.0.0.0,10.181.213.137,1,0
2014-11-19 13:39:33.485,102,102,37.44091,-122.1743,22.27148,0.34,273.8672,3,10,1416433173,-0.07881165,-0.6711884,-0.7598877,10.73048,-21.74817,9.134827,219.4783,205.7946,25,0.1813788,-0.1090634,0.1448421,-0.06163441,-0.1161947,0.7797701,0.02023306,0.05768269,0.1177541,0.03606594,0.0227876,-0.008059807,0.0.0.0,10.181.213.137,1,0
2014-11-19 13:39:34.485,103,103,37.44091,-122.1743,22.55554,0.32,273.8672,3,10,1416433174,0.06323242,-0.5515137,-0.6537018,10.90099,-21.67957,8.199615,219.9756,206.292,25,-0.4038324,-0.3400444,0.05602146,-0.1097173,0.09399751,0.6708851,0.004381056,-0.0294044,0.1067655,0.0002742919,0.03067614,0.1122114,0.0.0.0,10.181.213.137,1,0
2014-11-19 13:39:35.484,104,104,37.44091,-122.1743,22.4538,0.33,273.8672,3,10,1416433175,-0.07289124,-0.5748291,-0.767395,9.366409,-22.29547,6.863739,216.7859,203.1022,25,-0.1194071,-0.157331,0.1300075,-0.03769783,-0.05276962,0.6547964,-0.1489908,-0.1057296,0.1270283,0.03442018,0.01842157,0.03230224,0.0.0.0,10.181.213.137,1,0
2014-11-19 13:39:36.484,105,105,37.4409,-122.1743,22.57407,0.3,273.8672,3,10,1416433176,-0.2821045,-0.5856934,-0.7476044,9.843842,-22.19257,6.529999,218.0081,204.3244,25,-0.05042562,0.009402823,-0.5432827,-0.08783755,0.010555,0.6367025,-0.0755333,-0.1918035,0.007479898,-0.2015562,-0.04151533,0.003524522,0.0.0.0,10.181.213.137,1,0
2014-11-19 13:39:37.485,106,106,37.4409,-122.1743,22.78391,0.31,273.8672,3,10,1416433177,0.1986084,-0.5215759,-0.8937531,11.78763,-22.22687,3.724396,222.3815,208.6978,25,-0.01111097,0.4198346,-1.15471,-0.1902759,0.104838,0.4960771,0.1271929,0.5074213,-1.338444,-0.2305968,-0.02049605,0.1045626,0.0.0.0,10.181.213.137,1,0
2014-11-19 13:39:38.488,107,107,37.4409,-122.1743,22.71899,0.3,273.8672,3,10,1416433178,0.1322021,-0.4866486,-0.7527924,11.12267,-21.25177,5.878662,221.6726,207.989,25,-0.001599495,-0.0571826,0.03635774,-0.2133212,0.2205441,0.5402163,0.2599726,0.06847071,0.01979977,-0.02299669,0.02153896,0.09193688,0.0.0.0,10.181.213.137,5,0
2014-11-19 13:39:39.484,108,108,37.4409,-122.1743,22.28931,0.29,273.8672,3,10,1416433179,0.3011169,-0.41745,-0.8897247,11.58306,-21.33728,3.958191,222.1086,208.425,25,0.2270893,0.03130732,0.3567696,-0.1921229,0.2723349,0.4466475,0.1205531,0.4591679,0.201664,0.1083428,0.0652451,-0.00383639,0.0.0.0,10.181.213.137,1,0
2014-11-19 13:39:40.485,109,109,37.4409,-122.1743,22.31888,0.28,273.8672,3,10,1416433180,0.05622864,-0.5499115,-0.851532,7.678398,-23.06488,3.540741,212.9361,199.2525,25,0.1784281,-0.1616062,-0.2306242,-0.1100846,0.1166493,0.5402855,0.1937203,-0.08849148,-0.2651106,-0.03749041,-0.03202118,0.008182416,0.0.0.0,10.181.213.137,1,0
2014-11-19 13:39:41.485,110,110,37.44089,-122.1743,22.69583,0.36,273.8672,3,10,1416433181,0.1549072,-0.6443024,-0.9995117,13.39228,-20.75037,5.529053,229.086,215.4024,25,0.2681691,0.05585048,0.2369018,-0.3501391,0.1342404,0.7135664,-0.4736175,-0.05189655,0.08638684,0.06450965,-0.06604685,-0.2237766,0.0.0.0,10.181.213.137,1,0
2014-11-19 13:39:42.484,111,111,37.44088,-122.1743,23.14291,0.47,273.8672,3,10,1416433182,0.06225586,-0.7176514,-0.7103424,12.33521,-21.81104,6.029999,225.964,212.2803,25,-0.253714,-0.0989162,0.08195212,-0.2853586,0.07197738,0.7930307,-0.2456259,-0.04647839,0.05217018,0.01667652,-0.02659159,0.0327734,0.0.0.0,10.181.213.137,1,0
2014-11-19 13:39:43.485,112,112,37.44087,-122.1743,23.17032,0.65,273.8672,3,10,1416433183,0.04840088,-0.974411,-0.3460083,11.73848,-20.83594,9.820679,223.9101,210.2265,25,-0.6441106,0.6847166,-0.2271253,-0.3008841,0.1213869,0.8838694,0.2982055,1.16394,-0.1641514,-0.04108473,-0.1243845,0.3989374,0.0.0.0,10.181.213.137,1,0
2014-11-19 13:39:44.484,113,113,37.44083,-122.1743,23.21848,2.95,201.8014,3,10,1416433184,-0.02572632,-0.8377075,-0.6600037,10.27222,-21.48608,9.72049,221.4434,207.7598,25,-0.3740495,-0.4732307,0.1934083,-0.2967409,0.1390445,0.8926221,-0.2878358,-0.1463111,0.1692846,-0.06330072,-0.1412482,0.05851234,0.0.0.0,10.181.213.137,1,0
2014-11-19 13:39:45.485,114,114,37.44079,-122.1744,22.99579,4.02,204.2743,3,10,1416433185,-0.2191162,-0.7590485,-0.5543823,8.482002,-23.96631,8.401245,216.8961,203.2125,25,0.3320128,-0.6355839,-0.06690314,-0.2631931,0.07905006,0.9216087,0.103574,-0.8605737,-0.03337107,-0.1908666,0.007741531,0.009084753,0.0.0.0,10.181.213.137,1,0
2014-11-19 13:39:46.485,115,115,37.44075,-122.1744,23.2229,4.78,204.2743,3,10,1416433186,-0.1270142,-0.9494171,-1.01384,11.20991,-21.87946,9.336365,222.5749,208.8912,25,-0.7159477,-0.3500462,0.6146581,-0.3605902,0.08779926,0.9297435,-0.8610437,-0.00627103,0.5014089,0.02118366,-0.2525495,0.04773185,0.0.0.0,10.181.213.137,1,0
2014-11-19 13:39:47.485,116,116,37.44074,-122.1744,23.50259,5.97,204.2743,3,10,1416433187,0.05354309,-0.4694672,-0.7924957,11.19287,-23.16229,5.746124,221.4396,207.756,25,0.2974032,-0.6095161,0.3304813,-0.341036,0.06692804,0.7471281,0.06573869,-0.5949383,0.2113283,0.05211636,0.2114408,-0.05738202,0.0.0.0,10.181.213.137,1,0
2014-11-19 13:39:48.485,117,117,37.44064,-122.1744,23.58435,8.68,204.5377,3,10,1416433188,-0.08457947,-0.4265594,-0.8423004,12.35224,-24.25702,3.54187,223.6765,209.9929,25,1.373085,-0.07489608,-0.906376,-0.4223864,0.07767922,0.7104837,0.9359546,-0.04502284,-0.8480263,-0.175082,0.2067049,-0.1185223,0.0.0.0,10.181.213.137,5,0
2014-11-19 13:39:49.485,118,118,37.44032,-122.1746,23.20505,14.63,211.6075,3,10,1416433189,-0.005279541,-0.6610565,-0.774826,13.05126,-22.5296,10.20483,223.4331,209.7495,25,-0.07330804,-0.06416354,0.09652548,-0.5513441,0.2126362,0.9319477,-0.1543426,-0.007886022,0.07099099,-0.1483576,0.1487606,-0.1030861,0.0.0.0,10.181.213.137,1,0
2014-11-19 13:39:50.484,119,119,37.44019,-122.1747,23.00842,14.35,215.2971,3,10,1416433190,0.04951477,-0.631897,-0.7265015,13.63099,-22.39288,9.40332,224.4359,210.7523,25,-0.5631318,-0.06051714,-0.02331038,-0.5517019,0.1891312,0.9116263,-0.4566687,0.1811592,-0.1285315,-0.09347862,0.2395822,0.01378626,0.0.0.0,10.181.213.137,1,0
2014-11-19 13:39:51.485,120,120,37.44009,-122.1749,23.02911,14.53,215.2971,3,10,1416433191,-0.04536438,-0.7499237,-0.5716705,14.61983,-23.45325,8.56842,225.8425,212.1589,25,-0.004562261,-0.2066144,0.08925132,-0.5897725,0.183399,0.9231921,0.2492895,0.2400326,-0.06249208,-0.135595,0.1347659,0.09703587,0.0.0.0,10.181.213.137,1,0
2014-11-19 13:39:52.484,121,121,37.44002,-122.1749,22.94336,12.65,218.6598,3,10,1416433192,0.04870605,-0.6602936,-0.9565735,14.77331,-22.47845,9.987823,225.888,212.2044,25,0.1780675,-0.3036137,0.01727379,-0.6244929,0.2042947,0.9031255,-0.06742551,-0.0157477,-0.04587398,-0.07953124,0.1394834,-0.332743,0.0.0.0,10.181.213.137,1,0
2014-11-19 13:39:53.485,122,122,37.43992,-122.175,23.68301,12.7,221.3861,3,10,1416433193,-0.02566528,-0.5975647,-0.7929688,14.90971,-22.40991,8.351288,226.9052,213.2215,25,0.6151695,-0.3133984,0.00914423,-0.6471164,0.1904875,0.9093061,0.5271781,-0.2055054,-0.02878685,-0.1397769,0.1601409,-0.2869394,0.0.0.0,10.181.213.137,1,0
2014-11-19 13:39:54.485,123,123,37.43984,-122.1751,23.55011,11.38,221.3861,3,10,1416433194,-0.1091003,-0.6315308,-0.7359161,15.19952,-22.427,7.165649,228.601,214.9174,25,0.3515002,-0.3002203,0.01059086,-0.6914744,0.200392,0.9008434,0.05176771,-0.0392632,0.05813863,-0.1708128,0.1135323,-0.2610448,0.0.0.0,10.181.213.137,1,0
2014-11-19 13:39:55.485,124,124,37.43977,-122.1752,23.47433,10.71,225.7776,3,10,1416433195,0.117981,-0.6665649,-0.9967651,16.08607,-22.29034,7.733337,230.0305,216.3469,25,-0.2183318,0.1543571,-0.3908665,-0.7480539,0.2287345,0.8950797,-0.477098,0.4277622,-0.4556822,-0.06634932,0.09300303,-0.3531752,0.0.0.0,10.181.213.137,1,0
2014-11-19 13:39:56.488,125,125,37.43971,-122.1753,23.62845,10.38,225.7776,3,10,1416433196,-0.09103394,-0.6624756,-0.553299,17.04085,-22.2561,7.432739,231.9914,218.3078,25,0.2954548,-0.3570617,0.07094688,-0.7756654,0.2311944,0.9211296,0.4962189,-0.1068598,0.02890296,-0.215394,0.09245853,-0.09958934,0.0.0.0,10.181.213.137,1,0
2014-11-19 13:39:57.484,126,126,37.43964,-122.1754,23.30817,9.8,227.2766,3,10,1416433197,-0.1006317,-0.7195129,-0.7494202,16.61462,-22.40979,7.082001,231.6651,217.9815,25,-0.1179551,0.01073094,-0.002483664,-0.7730364,0.2355323,0.8969594,-0.1951447,-0.005550434,0.02838238,-0.2657316,0.04992686,-0.07448316,0.0.0.0,10.181.213.137,1,0
2014-11-19 13:39:58.485,127,127,37.43958,-122.1755,22.69202,9.41,227.2766,3,10,1416433198,0.0536499,-0.7675171,-0.6152954,16.61462,-21.96509,7.582977,231.6168,217.9332,25,-0.02629552,-0.1627903,0.09373368,-0.7868181,0.2836089,0.8910632,0.2295236,0.2946341,-0.05035696,-0.19994,0.1614228,0.03366567,0.0.0.0,10.181.213.137,1,0
2014-11-19 13:39:59.484,128,128,37.43953,-122.1755,22.5571,9.56,227.2766,3,10,1416433199,-0.08782959,-0.6446686,-0.6368256,15.96673,-23.7099,8.417877,229.1079,215.4243,25,0.01910419,-0.006303969,0.01405323,-0.5740716,0.00394551,0.8238162,0.1023232,-0.08477654,0.03492888,-0.08730592,0.02059396,0.03568297,0.0.0.0,10.181.213.137,1,0
2014-11-19 13:40:00.485,129,129,37.43946,-122.1756,22.44327,10.23,227.0235,3,10,1416433200,0.07730103,-0.7529144,-0.7852478,15.52342,-22.92303,7.516235,229.5245,215.8408,25,0.0350717,-0.05359771,-0.01269609,-0.5751232,0.01721272,0.7975706,0.05737069,0.1007412,-0.1438055,0.0481896,-0.1062991,-0.07205705,0.0.0.0,10.181.213.137,1,0
2014-11-19 13:40:01.484,130,130,37.43939,-122.1757,22.63019,10.72,227.0235,3,10,1416433201,0.007873535,-0.6695557,-0.7213287,14.96077,-22.97437,6.931732,229.0807,215.3971,25,0.2505252,-0.1185469,-0.007432616,-0.568561,0.01981546,0.7875647,0.2729992,0.01441854,-0.04763343,0.02009253,-0.1448175,-0.185816,0.0.0.0,10.181.213.137,1,0
2014-11-19 13:40:02.487,131,131,37.43933,-122.1758,22.81689,11.02,227.0235,3,10,1416433202,0.06581116,-0.7216949,-0.6681366,14.87552,-22.95715,7.583069,228.569,214.8854,25,-0.02935123,0.1534386,-0.06983661,-0.5418422,-0.02616578,0.8176191,-0.02243607,0.1266868,-0.2179028,0.07796816,-0.04001182,-0.006200186,0.0.0.0,10.181.213.137,1,0
2014-11-19 13:40:03.485,132,132,37.43925,-122.1759,22.53235,11.68,227.0235,3,10,1416433203,0.1566467,-0.6396027,-0.5315399,16.61458,-22.61499,7.917023,231.5383,217.8547,25,-0.635222,0.5088997,-0.4755221,-0.6247885,0.08053789,0.7998053,-0.2823148,0.516444,-0.3672109,-0.0393535,0.1628076,0.2780379,0.0.0.0,10.181.213.137,1,0
2014-11-19 13:40:04.485,133,133,37.43919,-122.176,22.86792,12.23,227.0235,3,10,1416433204,0.06832886,-0.4709625,-0.7224426,16.47819,-22.85455,4.00946,231.1999,217.5162,25,0.3694374,-0.05533436,0.2271887,-0.6019502,0.0882698,0.5807988,0.4347573,-0.0956113,0.204649,0.0604706,0.04455679,-0.05378113,0.0.0.0,10.181.213.137,5,0
2014-11-19 13:40:05.485,134,134,37.4391,-122.1761,22.89951,12.45,227.2058,3,10,1416433205,-0.2031097,-0.6941833,-0.4848175,15.50636,-23.28229,5.295227,229.4811,215.7975,25,-0.5628551,-0.02327763,0.2698573,-0.5331152,-0.005291034,0.6827694,-0.1900533,0.05834842,0.2959435,-0.1656339,-0.01663902,0.3645779,0.0.0.0,10.181.213.137,1,0
2014-11-19 13:40:06.484,135,135,37.43902,-122.1762,23.3176,12.78,227.2058,3,10,1416433206,-0.05499268,-0.6753693,-0.6995697,14.55158,-23.58997,5.295227,228.321,214.6373,25,0.3740332,-0.02466274,-0.07274957,-0.5159828,-0.05669213,0.7348554,0.2523081,0.09759516,-0.06956607,-0.004027348,-0.01245779,-0.003465862,0.0.0.0,10.181.213.137,1,0
2014-11-19 13:40:07.485,136,136,37.43894,-122.1763,22.99368,13.16,227.2058,3,10,1416433207,-0.06632996,-0.6284332,-0.8404541,17.31362,-21.46906,6.631104,234.5512,220.8676,25,0.1058114,-0.07924795,-0.09270997,-0.6153836,-0.01311056,0.7864221,-0.1141248,-0.1165563,-0.03360748,-0.02880988,0.06133081,-0.08631139,0.0.0.0,10.181.213.137,1,0
2014-11-19 13:40:08.485,137,137,37.43885,-122.1765,23.17023,13.8,227.2058,3,10,1416433208,0.1381683,-0.5814056,-0.8222198,17.87625,-20.39142,7.449402,235.9248,222.2411,25,0.2573937,-0.1054308,0.02350985,-0.6774336,0.1082085,0.7484108,-0.01931935,-0.1041422,-0.02315488,0.04044568,0.003000154,-0.1175993,0.0.0.0,10.181.213.137,1,0
2014-11-19 13:40:09.485,138,138,37.43877,-122.1766,23.79797,13.44,227.2058,3,10,1416433209,0.05467224,-0.5266571,-0.7537231,16.9556,-20.9729,6.614441,233.8508,220.1671,25,0.6928219,0.1666311,0.1555933,-0.6486174,0.07481162,0.7126157,0.5522679,0.1849409,0.0901197,0.03913412,0.1381749,-0.1446931,0.0.0.0,10.181.213.137,1,0
2014-11-19 13:40:10.485,139,139,37.43869,-122.1767,23.87317,13.5,227.2058,3,10,1416433210,0.003219604,-0.4973602,-0.4680634,16.23949,-22.58093,5.846344,230.8129,217.1293,25,-0.4893678,0.08220965,0.1564378,-0.5823499,0.05416259,0.6821528,-0.1405955,0.2437242,0.1357609,-0.05123769,0.1514006,0.3151943,0.0.0.0,10.181.213.137,1,0
2014-11-19 13:40:11.484,140,140,37.4386,-122.1768,23.89941,13.19,227.2058,3,10,1416433211,0.05329895,-0.6112976,-0.8581848,14.347,-24.10345,5.228455,226.0499,212.3663,25,-0.0034946,-0.2012679,-0.005053614,-0.5132378,-0.02288401,0.616381,0.09556093,0.1021002,-0.09780141,0.08913626,-0.025216,-0.05313428,0.0.0.0,10.181.213.137,1,0
2014-11-19 13:40:12.484,141,141,37.43853,-122.1769,23.88739,12.63,227.2058,3,10,1416433212,-0.07402039,-0.5439453,-0.7119598,13.1365,-23.16278,5.178406,225.1589,211.4752,25,0.4722314,-0.1961378,0.08374523,-0.50202,-0.04845789,0.6445729,0.4667454,-0.1374621,0.08413123,0.008156614,0.01797135,0.007722947,0.0.0.0,10.181.213.137,1,0
2014-11-19 13:40:13.485,142,142,37.43845,-122.177,24.41727,12.38,227.2058,3,10,1416433213,0.005584717,-0.5447998,-0.7687073,13.18763,-23.79559,4.927948,224.7446,211.061,25,0.2634846,0.04673954,-0.09299891,-0.4769129,-0.06108234,0.6411938,0.1535482,-0.03212719,-0.1153002,0.03323383,0.03488963,-0.04390807,0.0.0.0,10.181.213.137,1,0
2014-11-19 13:40:14.485,143,143,37.43837,-122.1771,24.72812,11.83,227.2058,3,10,1416433214,0.004425049,-0.7159729,-0.7934418,13.59677,-23.65863,6.464264,224.9681,211.2845,25,-0.1994319,-0.1903827,-0.1374974,-0.4834164,-0.05807043,0.6908729,-0.07690272,0.02348667,-0.2109409,0.005300447,0.03375558,0.1986055,0.0.0.0,10.181.213.137,1,0
2014-11-19 13:40:15.484,144,144,37.4383,-122.1772,25.06946,11.6,227.2058,3,10,1416433215,-0.162384,-0.65065,-0.3923187,19.00144,-20.04987,5.779572,238.6378,224.9541,25,0.2244134,-0.05143256,-0.04216423,-0.6670731,-0.05530468,0.7768175,0.4526531,-0.07813253,0.006182367,-0.1390617,0.09266072,0.2713382,0.0.0.0,10.181.213.137,1,0
2014-11-19 13:40:16.484,145,145,37.43823,-122.1773,25.07672,11.36,227.2058,3,10,1416433216,0.09895325,-0.6016846,-0.6087799,17.85913,-19.58789,7.733398,236.1798,222.4962,25,0.1635269,-0.3865826,0.1339474,-0.6904087,0.1246743,0.6851476,0.2442418,-0.3002186,0.1193517,0.02070053,-0.006449102,0.1053821,0.0.0.0,10.181.213.137,1,0
2014-11-19 13:40:17.485,146,146,37.43816,-122.1774,25.43805,11.04,227.2058,3,10,1416433217,0.001098633,-0.4962463,-0.9020844,14.79022,-23.31659,3.157837,228.2747,214.591,25,0.1125082,0.1085337,0.1611631,-0.5318371,-0.05053538,0.5323079,0.06579386,0.1317509,0.1211553,0.0446233,0.01127694,-0.04154631,0.0.0.0,10.181.213.137,1,0
2014-11-19 13:40:18.484,147,147,37.43809,-122.1775,25.31439,11.44,226.9306,3,10,1416433218,0.02973938,-0.3653564,-0.8240509,14.60265,-23.60748,1.20401,227.9575,214.2738,25,-0.6501125,0.4943399,-0.2236113,-0.5388872,-0.06238392,0.43229,-0.6764294,0.2855344,-0.4753135,0.04052565,0.06981485,0.1050492,0.0.0.0,10.181.213.137,5,0
2014-11-19 13:40:19.484,148,148,37.43803,-122.1776,24.87445,10.45,226.9306,3,10,1416433219,-0.01139832,-0.4714355,-0.6750183,17.72272,-21.77728,0.9201355,235.8009,222.1172,25,1.88792,0.3858367,-0.3501753,-0.7281292,0.06180254,0.5226656,1.916434,0.4333808,-0.5679516,-0.07611556,-0.01994292,0.1314389,0.0.0.0,10.181.213.137,5,0
2014-11-19 13:40:20.484,149,149,37.43797,-122.1777,24.99277,10.91,226.9306,3,10,1416433220,0.07336426,-0.8125458,-0.477417,19.34241,-18.71576,9.820831,239.6095,225.9258,25,-0.2524062,0.4371776,-0.1536343,-0.7679183,0.1549636,0.8268013,-0.09102308,0.1551453,0.0179974,-0.06148182,0.1309562,0.1859938,0.0.0.0,10.181.213.137,1,0
2014-11-19 13:40:21.485,150,150,37.4379,-122.1777,25.18723,10.88,226.9306,3,10,1416433221,-0.04376221,-0.8869324,-0.7828522,17.60336,-20.39178,8.251068,236.3138,222.6301,25,-0.6157843,-0.2534211,-0.1524473,-0.705228,0.0958655,0.7887759,-0.4310775,0.04909339,-0.03528419,-0.1359968,-0.0455137,0.2192245,0.0.0.0,10.181.213.137,1,0
2014-11-19 13:40:22.485,151,151,37.43787,-122.1778,25.72049,10.26,226.9306,3,10,1416433222,0.2283478,-0.8751984,-0.9322968,18.14893,-19.29712,9.219666,237.9045,224.2209,25,0.009105082,-0.2793097,0.05368933,-0.753141,0.1464387,0.8015819,-0.4824649,-0.03602409,-0.1859479,0.1041021,-0.1413755,-0.1721794,0.0.0.0,10.181.213.137,1,0
2014-11-19 13:40:23.485,152,152,37.4378,-122.1779,25.82565,10.82,226.9306,3,10,1416433223,0.04078674,-0.4945221,-0.6964722,19.32536,-19.31403,7.73349,239.5621,225.8784,25,0.8686742,0.4368628,0.1408591,-0.7457684,0.1355742,0.6990064,0.5968311,0.02625943,0.2521577,-0.02638984,0.142725,-0.04606192,0.0.0.0,10.181.213.137,1,0
2014-11-19 13:40:24.484,153,153,37.43771,-122.178,25.75555,11.48,226.9306,3,10,1416433224,0.2312469,-0.6197205,-0.9304962,18.25123,-19.63904,8.318024,237.3745,223.6909,25,-0.2929536,-0.07829507,0.1445585,-0.7646381,0.2159455,0.6787274,-0.3055272,-0.02105767,0.09550486,0.08803916,-0.0861252,-0.138525,0.0.0.0,10.181.213.137,1,0
2014-11-19 13:40:25.485,154,154,37.43761,-122.1781,25.54016,12.31,226.9306,3,10,1416433225,0.1285858,-0.6768036,-0.5787506,17.34762,-20.81915,9.169708,234.415,220.7313,25,-0.1086271,-0.09437524,0.1331993,-0.7130088,0.1880391,0.7663101,-0.04042775,-0.06130791,0.08047316,-0.007788334,0.05000308,0.1295884,0.0.0.0,10.181.213.137,1,0
2014-11-19 13:40:26.485,155,155,37.43756,-122.1781,26.15552,11.64,226.9306,3,10,1416433226,0.08807373,-0.6830139,-0.6500702,15.88139,-20.85303,8.568573,232.263,218.5794,25,-0.1911766,-0.2359827,-0.01495684,-0.683871,0.1783333,0.7745227,-0.3234426,-0.1544619,-0.0002349722,-0.02002433,-0.01160824,0.1276595,0.0.0.0,10.181.213.137,1,0
2014-11-19 13:40:27.485,156,156,37.43752,-122.1782,26.18179,12.15,226.9306,3,10,1416433227,0.02938843,-0.6890717,-0.639267,14.75613,-22.28992,8.101013,228.6897,215.006,25,-0.3305843,-0.178794,0.1745888,-0.6105393,0.08447102,0.7672065,-0.219805,0.0003345021,0.102146,-0.02498304,0.06476305,0.08158941,0.0.0.0,10.181.213.137,1,0
2014-11-19 13:40:28.485,157,157,37.43734,-122.1784,25.67755,14.84,226.8917,3,10,1416433228,0.08544922,-0.641449,-0.8142853,16.10303,-21.828,7.349548,231.8583,218.1747,25,0.229258,0.02624652,0.1656095,-0.6652862,0.1050182,0.7445304,-0.2071706,-0.3144701,0.1704824,0.02041448,0.04812523,-0.1203911,0.0.0.0,10.181.213.137,1,0
2014-11-19 13:40:29.485,158,158,37.43726,-122.1786,25.68933,14.43,226.8917,3,10,1416433229,-0.02191162,-0.8301849,-0.9593201,14.80727,-23.12805,6.648254,228.8273,215.1436,25,-0.6530161,-0.07960375,-0.1648033,-0.6014334,0.04301909,0.7553547,-0.7296504,0.274406,-0.1537368,-0.04633937,-0.2017516,-0.1091472,0.0.0.0,10.181.213.137,1,0
2014-11-19 13:40:30.484,159,159,37.43716,-122.1787,25.64581,14.58,226.8917,3,10,1416433230,0.1516724,-0.6040497,-0.8027344,16.10306,-20.93878,7.850464,232.7471,219.0635,25,0.216617,-0.6738898,0.02476074,-0.7109352,0.1293038,0.7574337,-0.04452521,-0.7435001,-0.03407574,0.05958378,0.04251253,-0.08383121,0.0.0.0,10.181.213.137,1,0
2014-11-19 13:40:31.485,160,160,37.43709,-122.1788,25.42639,14.85,226.8917,3,10,1416433231,-0.05690002,-0.5089264,-0.6431885,15.67682,-22.4267,6.965424,230.8061,217.1225,25,1.021756,0.1632829,0.02515542,-0.6355019,0.03541955,0.7429854,0.8998201,-0.002828335,0.1098788,-0.07023828,0.1146304,-0.2607596,0.0.0.0,10.181.213.137,1,0
2014-11-19 13:40:32.487,161,161,37.43699,-122.179,25.61496,14.85,226.8917,3,10,1416433232,-0.0493927,-0.490921,-0.6679688,15.42108,-21.99933,7.249237,230.5975,216.9138,25,1.349382,-0.2425772,0.5515329,-0.6571564,0.04120188,0.7445919,1.081513,-0.3009814,0.5462295,0.108382,0.04579004,-0.1886909,0.0.0.0,10.181.213.137,1,0
2014-11-19 13:40:33.488,162,162,37.43691,-122.1791,25.55182,14.72,227.121,3,10,1416433233,-0.07223511,-0.4864655,-0.7010956,14.96075,-22.18738,6.330688,230.1774,216.4937,25,0.0304386,0.02173193,-0.03075552,-0.634638,-0.001394056,0.7383307,-0.04677913,-0.2114101,0.02506287,-0.04305161,0.09901855,-0.00772201,0.0.0.0,10.181.213.137,1,0
2014-11-19 13:40:34.485,163,163,37.43683,-122.1792,24.69083,14.64,226.9275,3,10,1416433234,0.178009,-0.5967865,-0.4731445,16.71688,-21.93079,6.414124,232.155,218.4714,25,0.9034468,0.5692789,0.04352857,-0.7240885,0.1166023,0.6574968,1.35201,0.8632186,-0.1134953,0.0857871,0.2009201,0.2488879,0.0.0.0,10.181.213.137,1,0
2014-11-19 13:40:35.485,164,164,37.43674,-122.1793,23.94202,14.36,226.9275,3,10,1416433235,0.007949829,-0.5711975,-0.698349,15.6939,-22.64923,4.877808,230.3528,216.6692,25,0.1056742,-0.1495866,0.1335844,-0.6576815,0.0627762,0.6217924,0.2057073,-0.2293624,0.1480803,-0.0430434,0.01129548,0.1128856,0.0.0.0,10.181.213.137,1,0
2014-11-19 13:40:36.484,165,165,37.43667,-122.1794,24.02921,13.96,226.9275,3,10,1416433236,0.01316833,-0.5577087,-0.4676514,14.84144,-22.95709,4.677429,228.7452,215.0615,25,-0.1562274,0.1567358,-0.02852938,-0.64226,0.03758054,0.6411213,0.2010365,0.1904846,-0.08355599,-0.01694258,0.04038575,0.3332084,0.0.0.0,10.181.213.137,1,0
2014-11-19 13:40:37.484,166,166,37.43658,-122.1795,24.01218,14.51,226.9275,3,10,1416433237,-0.03904724,-0.5020142,-0.560379,14.63685,-23.16235,4.343384,228.1477,214.464,25,0.3328405,-0.1948153,0.06090676,-0.6233756,0.03642617,0.623836,0.4482307,-0.09749237,0.1038994,0.04629291,0.01341319,0.07668442,0.0.0.0,10.181.213.137,1,0
2014-11-19 13:40:38.489,167,167,37.43648,-122.1797,24.48181,14.95,226.9275,3,10,1416433238,-0.0002288818,-0.5885773,-0.6208191,13.85259,-23.7439,4.877716,226.125,212.4413,25,0.3519908,0.02750886,-0.04126116,-0.5887464,0.04986065,0.6624144,0.3730623,-0.082242,-0.04692576,-0.03920776,0.01353623,0.04537268,0.0.0.0,10.181.213.137,1,0
2014-11-19 13:40:39.485,168,168,37.43638,-122.1798,24.48532,15.5,226.9275,3,10,1416433239,-0.102356,-0.5579834,-0.6124268,14.0572,-23.9834,4.74408,226.2117,212.528,25,0.313098,0.02459882,-0.1148366,-0.5740139,0.02405748,0.6722163,0.5548728,-0.01224426,-0.0469116,-0.1143876,0.05718513,0.09367945,0.0.0.0,10.181.213.137,1,0
2014-11-19 13:40:40.485,169,169,37.43631,-122.1799,24.36917,14.92,226.9275,3,10,1416433240,-0.0131073,-0.6482544,-1.019089,11.19285,-24.70184,5.746002,220.0609,206.3773,25,-0.08274309,-0.0452274,-0.02744601,-0.5125611,0.0045272,0.6805983,-0.310197,0.0949411,0.1182511,-0.06237166,-0.1055899,-0.1993588,0.0.0.0,10.181.213.137,1,0
2014-11-19 13:40:41.484,170,170,37.43619,-122.18,24.25836,16.38,227.2494,3,10,1416433241,-0.1031952,-0.6147308,-0.9694977,12.77844,-24.51361,5.729309,223.5649,209.8813,25,0.3570569,-0.2180045,0.04927966,-0.5169925,-0.09327241,0.7226922,-0.2329728,-0.4394093,0.1148851,-0.03176802,0.01862978,-0.2528356,0.0.0.0,10.181.213.137,1,0
2014-11-19 13:40:42.485,171,171,37.43608,-122.1802,24.47562,16.41,227.2494,3,10,1416433242,-0.1925354,-0.4419403,-0.7070312,13.15354,-24.44501,6.397308,224.0594,210.3758,25,0.4644438,-0.01147423,-0.1898839,-0.5428529,-0.1139842,0.7322628,0.04610948,-0.2413205,0.03060152,-0.08286749,0.04741455,-0.06957287,0.0.0.0,10.181.213.137,1,0
2014-11-19 13:40:43.488,172,172,37.43598,-122.1803,24.72296,16.17,227.2494,3,10,1416433243,-0.01205444,-0.6186523,-0.7634735,14.92667,-23.79517,5.695923,227.6352,213.9516,25,-0.2949954,-0.4592094,-0.5148364,-0.6519075,-0.08713408,0.7073365,-0.4829835,-0.3021085,-0.6534244,0.07093769,0.04960711,0.05352212,0.0.0.0,10.181.213.137,1,0
2014-11-19 13:40:44.485,173,173,37.43587,-122.1805,24.84778,15.77,227.2494,3,10,1416433244,-0.1651306,-0.6104279,-0.7123566,16.54639,-22.27295,4.710602,232.6485,218.9649,25,0.75928,0.1152294,0.1353363,-0.6688723,-0.1417164,0.7190223,0.6485266,0.3706506,0.09052955,0.01853988,-0.06168763,-0.1088988,0.0.0.0,10.181.213.137,1,0
2014-11-19 13:40:45.485,174,174,37.43577,-122.1806,24.9939,16.01,227.2494,3,10,1416433245,0.06793213,-0.5720062,-0.760025,17.68869,-20.95587,7.13205,234.1278,220.4442,25,1.390741,-0.1700314,0.299608,-0.7600531,0.1122404,0.6918803,0.7801629,-0.2548651,0.2893808,0.0749447,0.03996375,-0.3015243,0.0.0.0,10.181.213.137,1,0
2014-11-19 13:40:46.484,175,175,37.43566,-122.1807,25.34274,16.18,227.2494,3,10,1416433246,-0.0677948,-0.4716949,-0.8657379,16.73394,-23.0083,5.161591,231.5055,217.8219,25,0.9317809,-0.6314245,0.2305403,-0.696878,0.0326863,0.6450427,0.4019449,-0.1704051,0.3096969,0.1345609,-0.05193515,-0.3218819,0.0.0.0,10.181.213.137,1,0
2014-11-19 13:40:47.485,176,176,37.43557,-122.1809,25.53519,16.37,227.3021,3,10,1416433247,0.2604828,-0.4211426,-0.8114319,16.23947,-22.27277,7.415894,230.4371,216.7534,25,0.830866,0.4181184,0.0782498,-0.7457304,0.2496095,0.6152915,0.08856013,-0.2918148,-0.06508188,0.07411072,0.1793694,-0.22184,0.0.0.0,10.181.213.137,1,0
2014-11-19 13:40:48.485,177,177,37.43546,-122.181,26.10428,16.75,227.3021,3,10,1416433248,0.3094177,-0.5552216,-0.6701813,13.69912,-22.90576,6.263702,225.0436,211.3599,25,0.3392619,0.1747843,0.3342981,-0.658429,0.2784219,0.5747989,0.5786183,0.1467698,0.3504694,0.05369025,0.07799828,0.03682359,0.0.0.0,10.181.213.137,1,0
2014-11-19 13:40:49.485,178,178,37.43535,-122.1811,26.39169,16.37,227.2196,3,10,1416433249,0.2028351,-0.6935577,-0.8125153,15.71096,-21.36633,7.332489,231.0353,217.3517,25,-0.2398227,-0.6444123,0.4638164,-0.7390779,0.2097492,0.6825784,-0.2514743,-0.5493372,0.3244064,0.06812666,-0.03998057,-0.02682407,0.0.0.0,10.181.213.137,5,0
2014-11-19 13:40:50.485,179,179,37.43523,-122.1813,26.88943,16.09,227.2196,3,10,1416433250,0.1464844,-0.5572968,-0.9018097,17.75688,-20.47693,6.130188,235.9214,222.2378,25,0.1046987,0.2635073,-0.003572098,-0.8086963,0.1752947,0.6274418,-0.02841371,0.2207032,-0.03741488,-0.04756833,0.05269764,-0.09206455,0.0.0.0,10.181.213.137,1,0
2014-11-19 13:40:51.485,180,180,37.43512,-122.1814,27.18643,15.38,227.2906,3,10,1416433251,0.1367035,-0.5289459,-0.8109283,16.83617,-21.40051,7.90033,232.0962,218.4126,25,-0.3190922,0.08940604,-0.1028012,-0.7916339,0.1816353,0.6589846,-0.1777299,0.1921132,-0.1305809,-0.03557643,0.09379019,0.07889327,0.0.0.0,10.181.213.137,1,0
2014-11-19 13:40:52.484,181,181,37.43503,-122.1815,27.40671,14.7,227.3479,3,10,1416433252,0.1220093,-0.4625702,-0.9415894,16.17122,-22.99139,6.013336,229.6002,215.9166,25,-0.5485928,-0.1370156,-0.0294535,-0.7492031,0.09398412,0.5336068,-0.4283431,0.09882955,-0.2175678,0.04121008,0.04607179,-0.08441095,0.0.0.0,10.181.213.137,1,0
