time,timestamp,recordtime,lat,long,alt,speed,course,verticalAccuracy,horizontalAccuracy,locTimeStamp,accelerationX,accelerationY,accelerationZ,HeadingX,HeadingY,HeadingZ,TrueHeading,MagneticHeading,HeadingAccuracy,RotationX,RotationY,RotationZ,motionYaw,motionRoll,motionPitch,motionRotationRateX,motionRotationRateY,motionRotationRateZ,motionUserAccelerationX,motionUserAccelerationY,motionUserAccelerationZ,en0,pdp_ip0,DeviceOrientation,Activity,Activity Confidence,Activity Start,Steps,Last Step Date,State
2014-11-08 18:44:17.438,1,0.5,37.44816,-122.1654,19.45059,-1,-1,17.18589,65,1415501056,0.04013062,-0.5509949,-0.7781219,-37.71162,-40.5506,-6.027344,142.4213,128.7267,25,0.5218661,-0.1906235,-0.1997885,-0.1779137,0.05188562,0.6340857,0.4668493,-0.1839658,-0.3310961,-0.08883912,-0.018948,-0.003240214,0.0.0.0,10.147.103.29,1,unknown,0,2014-11-08 18:44:12.909,0,2014-11-08 18:09:32.682,0
2014-11-08 18:44:17.938,2,1,37.44816,-122.1654,19.45059,-1,-1,17.18589,65,1415501056,-0.3564758,0.4645233,-1.05098,-69.29745,17.53223,24.67514,89.75291,76.0583,25,0.7664855,0.7832554,1.096875,0.7392685,-0.4561319,-0.433167,-2.189545,-1.365051,1.634225,0.1594401,-0.08507634,-0.133594,0.0.0.0,10.147.103.29,1,unknown,0,2014-11-08 18:44:12.909,0,2014-11-08 18:09:32.682,0
2014-11-08 18:44:18.437,3,1.5,37.44816,-122.1654,19.45059,-1,-1,17.18589,65,1415501056,-0.6510315,0.6442413,-0.9585571,-66.14915,36.90449,32.80518,74.44262,60.74802,25,-0.1142262,0.2741511,-0.8953148,0.9716148,-0.416227,-0.481198,0.403797,0.3932434,-0.7357274,-0.3644096,0.200809,0.1815919,0.0.0.0,10.147.103.29,5,unknown,0,2014-11-08 18:44:12.909,0,2014-11-08 18:09:32.682,0
2014-11-08 18:44:18.938,4,2,37.44816,-122.1654,19.45059,-1,-1,17.18589,65,1415501056,-0.3232269,0.6734619,-0.4619141,-44.41891,17.02242,52.6676,72.98539,59.29079,25,-0.6258817,-0.0003331614,0.1709928,0.7947606,-0.6477463,-0.7223056,-0.6754826,0.05687375,-0.1405079,-0.0267781,0.01252873,0.1796702,0.0.0.0,10.147.103.29,5,unknown,0,2014-11-08 18:44:12.909,0,2014-11-08 18:09:32.682,0
2014-11-08 18:44:19.511,5,2.5,37.4485,-122.1655,15.52927,1.81,208.4766,12,10,1415501059,-0.4037018,0.8104858,-0.6435242,-51.09198,16.37668,50.71777,70.37103,56.67642,25,-0.01813986,0.4603074,0.03235927,0.8929481,-0.4069505,-0.8635188,-0.4264986,0.4563894,-0.008236447,-0.1283439,-0.1251849,-0.0470056,0.0.0.0,10.147.103.29,5,unknown,0,2014-11-08 18:44:12.909,0,2014-11-08 18:09:32.682,0
2014-11-08 18:44:20.005,6,3,37.44849,-122.1655,15.1395,1.81,208.4766,12,10,1415501059,-0.103302,0.04391479,-0.8974762,-53.419,16.0368,0.3512573,89.05786,75.36326,25,2.674033,-0.6951367,-0.1851664,0.6605737,-0.2064917,0.06750491,2.746687,-0.594585,-0.7021412,-0.1197041,0.3172858,0.1764019,0.0.0.0,10.147.103.29,5,unknown,0,2014-11-08 18:44:12.909,0,2014-11-08 18:09:32.682,0
2014-11-08 18:44:20.512,7,3.5,37.44849,-122.1655,15.1395,1.81,208.4766,12,10,1415501059,-0.2527008,-0.7254028,-0.6460876,-54.47984,1.048767,-7.679688,94.54797,80.85337,25,1.219535,-3.739487,0.4748302,0.7714626,-0.5029024,0.7955591,1.213272,-4.192414,1.833327,0.1715833,-0.1527036,0.06072535,0.0.0.0,10.147.103.29,1,unknown,0,2014-11-08 18:44:12.909,0,2014-11-08 18:09:32.682,0
2014-11-08 18:44:20.756,8,4,37.44822,-122.1654,20.1232,2.29,215.5078,3,10,1415501060,0.5548706,-0.1324921,-0.5518951,-29.9435,-37.6618,-44.99188,136.4499,122.7552,25,-0.3233014,-3.91448,0.6243392,-0.1474104,0.6211082,0.07442435,-0.575117,-2.741531,-0.2170138,0.09443308,0.03597981,0.1368801,0.0.0.0,10.147.103.29,1,unknown,0,2014-11-08 18:44:12.909,0,2014-11-08 18:09:32.682,0
2014-11-08 18:44:21.311,9,4.5,37.44822,-122.1654,20.1232,2.29,215.5078,3,10,1415501060,-0.1854706,-0.4161987,-0.7377319,-43.9056,-29.23315,-4.341675,135.0958,121.4012,25,0.7930414,0.8995349,0.4157067,-0.05108479,-0.245822,0.4457731,0.3401212,0.2509845,0.147144,0.05616623,-0.04703964,0.199799,0.0.0.0,10.147.103.29,5,unknown,0,2014-11-08 18:44:12.909,0,2014-11-08 18:09:32.682,0
2014-11-08 18:44:21.811,10,5,37.44831,-122.1654,20.18387,2.95,225,3,5,1415501061,-0.1373596,-0.7658691,-0.4564362,-40.24397,-31.98608,5.539948,133.8379,120.1433,25,-1.14208,0.237408,0.0584207,-0.07566826,-0.2717228,0.7833561,-1.028509,0.547294,-0.3258043,-0.02913079,-0.07079738,0.2566034,0.0.0.0,10.147.103.29,5,unknown,0,2014-11-08 18:44:12.909,0,2014-11-08 18:09:32.682,0
2014-11-08 18:44:22.309,11,5.5,37.44831,-122.1654,20.18387,2.95,225,3,5,1415501061,-0.1786957,-0.4615936,-0.9992981,-43.0843,-35.21478,-2.623108,137.2785,123.5839,25,0.4692847,0.5323598,-0.1429667,-0.1527863,-0.1843812,0.4468616,0.2895258,0.5534286,-0.1665422,-0.03194503,-0.06027896,-0.1388839,0.0.0.0,10.147.103.29,1,unknown,0,2014-11-08 18:44:12.909,0,2014-11-08 18:09:32.682,0
2014-11-08 18:44:22.809,12,6,37.44829,-122.1654,20.17468,3.76,216.5625,3,10,1415501062,-0.03118896,-0.4970245,-0.9424744,-40.2782,-37.93369,-6.324585,139.3882,125.6936,25,0.1509996,0.04258315,0.0016461,-0.1853969,-0.04527981,0.5281567,-0.01003008,0.08940383,-0.04606027,-0.02627215,0.0008445395,-0.02844423,0.0.0.0,10.147.103.29,5,unknown,0,2014-11-08 18:44:12.909,0,2014-11-08 18:09:32.682,0
2014-11-08 18:44:23.311,13,6.5,37.44829,-122.1654,20.17468,3.76,216.5625,3,10,1415501062,-0.04498291,-0.6398468,-0.8443146,-39.01203,-39.80289,-2.72229,141.0144,127.3198,25,0.1396887,0.0618149,-0.1693528,-0.2228692,0.002636086,0.6484291,0.06114615,0.02370956,-0.1881712,-0.06943808,-0.05806747,-0.05193777,0.0.0.0,10.147.103.29,1,unknown,2,2014-11-08 18:44:22.990,0,2014-11-08 18:09:32.682,0
2014-11-08 18:44:23.809,14,7,37.44823,-122.1654,20.40643,4.65,214.1016,4,10,1415501063,-0.06253052,-0.5344238,-0.3475952,-36.82189,-39.7349,0.3843384,143.2961,129.6014,25,-1.435405,-0.398659,0.3396726,-0.2254535,-0.05019995,0.6804497,-0.5536445,1.696553,0.1835744,0.07229821,0.08699782,0.1039932,0.0.0.0,10.147.103.29,1,unknown,2,2014-11-08 18:44:22.990,0,2014-11-08 18:09:32.682,0
2014-11-08 18:44:24.309,15,7.5,37.44823,-122.1654,20.40643,4.65,214.1016,4,10,1415501063,-0.7824097,-0.2288361,-1.109665,-45.206,-14.1431,16.28088,120.9989,107.3043,25,0.9751638,-0.091066,0.7703207,0.264679,-0.7101051,0.3404297,1.251839,-0.5685291,0.8697683,0.09199429,-0.2468116,0.2930077,0.0.0.0,10.147.103.29,1,unknown,2,2014-11-08 18:44:22.990,0,2014-11-08 18:09:32.682,0
2014-11-08 18:44:24.814,16,8,37.44815,-122.1654,20.00156,4.44,216.9141,3,5,1415501064,-0.9305267,-0.03694153,-0.5534515,-41.92079,-7.073929,32.27661,111.5827,97.88814,25,0.1621093,0.542989,0.7288755,0.4172328,-0.9622931,0.08117989,0.3295931,0.2406476,0.9271305,-0.01213841,0.01117498,-0.02564051,0.0.0.0,10.147.103.29,3,unknown,2,2014-11-08 18:44:22.990,0,2014-11-08 18:09:32.682,0
2014-11-08 18:44:25.311,17,8.5,37.44814,-122.1655,19.46155,4.64,221.1328,3,5,1415501065,-1.057861,-0.07615662,-0.5248871,-47.25027,8.59906,54.60846,93.26761,79.57301,25,0.4786361,0.4557548,-0.8861716,0.5899549,-1.079664,-0.1059216,0.6090985,0.2504184,-1.041488,-0.06633422,-0.08573464,-0.07813752,0.0.0.0,10.147.103.29,3,unknown,2,2014-11-08 18:44:22.990,0,2014-11-08 18:09:32.682,0
2014-11-08 18:44:25.810,18,9,37.44814,-122.1655,19.46155,4.64,221.1328,3,5,1415501065,-1.120453,0.0269928,-0.7128601,-60.26947,0.7854767,51.88205,98.9753,85.28069,25,0.02662895,-0.4490375,-0.001472994,0.5319901,-0.9294816,-0.173219,0.4766649,-0.330522,-0.1427727,0.2954371,-0.3749297,-0.1187569,0.0.0.0,10.147.103.29,1,unknown,2,2014-11-08 18:44:25.511,0,2014-11-08 18:09:32.682,0
2014-11-08 18:44:26.359,19,9.5,37.44814,-122.1655,19.46155,4.64,221.1328,3,5,1415501065,-0.7235107,0.1387024,-0.9875336,-57.12278,-8.783394,41.05121,108.9909,95.29633,25,1.74782,2.955571,-1.509132,0.3740964,-0.7345862,-0.09946603,0.5708606,2.03269,-0.419812,-0.1138861,-0.1112192,-0.0799802,0.0.0.0,10.147.103.29,1,unknown,2,2014-11-08 18:44:25.511,0,2014-11-08 18:09:32.682,0
2014-11-08 18:44:26.818,20,10,37.44814,-122.1655,19.46155,4.64,221.1328,3,5,1415501065,-0.7235107,0.1387024,-0.9875336,-57.02013,-8.953506,36.00439,110.4475,96.75288,25,1.74782,2.955571,-1.509132,0.3762572,-0.7088494,-0.0853254,1.341364,2.504652,-0.871078,-0.111112,-0.05151524,-0.0845927,0.0.0.0,10.147.103.29,1,unknown,2,2014-11-08 18:44:25.511,0,2014-11-08 18:09:32.682,0
2014-11-08 18:44:27.292,21,10.5,37.44814,-122.1655,19.46155,4.64,221.1328,3,5,1415501065,-0.7484436,0.1276398,-1.045303,-59.21006,-5.959747,3.480225,112.8284,99.13377,25,1.511347,2.554648,-1.98188,0.3759826,-0.6782528,-0.06223746,1.6838,2.916152,-1.547105,-0.1160909,0.0292639,-0.1173992,0.0.0.0,10.147.103.29,1,unknown,2,2014-11-08 18:44:25.511,0,2014-11-08 18:09:32.682,0
2014-11-08 18:44:27.812,22,11,37.44814,-122.1655,19.46155,4.64,221.1328,3,5,1415501065,-0.7341614,0.2404175,-0.6308136,-58.25196,-16.77808,1.303162,122.2003,108.5057,25,1.340727,1.955002,-1.727366,0.3699251,-0.6499181,-0.03645802,1.447326,2.515229,-2.019853,-0.1187917,0.1022525,-0.1919292,0.0.0.0,10.147.103.29,1,unknown,2,2014-11-08 18:44:25.511,0,2014-11-08 18:09:32.682,0
2014-11-08 18:44:28.311,23,11.5,37.44801,-122.1657,19.38303,7.41,217.6172,3,5,1415501068,-0.1769714,-0.2670288,-0.9650421,-54.04317,-23.75211,2.655487,126.0555,112.3609,25,0.287819,-0.09816971,-0.147321,-0.01564838,-0.1446742,0.3225118,0.1365191,0.2019437,-0.3544451,-0.112729,0.01989175,-0.07992928,0.0.0.0,10.147.103.29,1,automotive,0,2014-11-08 18:44:28.032,0,2014-11-08 18:09:32.682,0
2014-11-08 18:44:28.767,24,12,37.44801,-122.1657,19.38303,7.41,217.6172,3,5,1415501068,-0.04521179,-0.5478973,-0.8312531,-45.52294,-32.83543,8.296143,137.3594,123.6648,25,0.1304081,-0.07620449,0.106498,-0.1959829,-0.07039426,0.6235604,0.07959976,0.01983438,0.009680937,0.03512653,0.07506388,0.006678156,0.0.0.0,10.147.103.29,1,automotive,0,2014-11-08 18:44:28.032,0,2014-11-08 18:09:32.682,0
2014-11-08 18:44:29.312,25,12.5,37.44793,-122.1657,18.87137,7.22,218.1403,3,5,1415501069,-0.1215363,-0.4972229,-0.9803467,-48.19193,-32.01893,4.205872,134.7574,121.0628,25,0.4503453,0.2046876,0.2555876,-0.1420956,-0.04731935,0.5762904,0.3796261,0.2388154,0.1891428,-0.06171741,0.04911342,-0.09036621,0.0.0.0,10.147.103.29,1,automotive,0,2014-11-08 18:44:28.032,0,2014-11-08 18:09:32.682,0
2014-11-08 18:44:29.830,26,13,37.44793,-122.1657,18.87137,7.22,218.1403,3,5,1415501069,-0.07011414,-0.6037903,-0.7360535,-48.49989,-30.69218,7.405457,133.7143,120.0197,25,-0.1879276,-0.09102631,-0.04394908,-0.1160272,-0.1151843,0.6331662,-0.3126206,-0.1742529,-0.009226728,0.03364582,-0.01669827,0.1199538,0.0.0.0,10.147.103.29,1,automotive,0,2014-11-08 18:44:28.032,0,2014-11-08 18:09:32.682,0
2014-11-08 18:44:30.308,27,13.5,37.44793,-122.1657,18.87137,7.22,218.1403,3,5,1415501069,-0.1558533,-0.6679688,-0.8002167,-47.26804,-33.54983,6.481842,135.4786,121.784,25,-0.01412541,-0.1871089,-0.1604975,-0.1424623,-0.1026426,0.6891968,-0.05326558,-0.1787743,-0.100197,-0.02871196,-0.06526959,0.01563521,0.0.0.0,10.147.103.29,1,automotive,0,2014-11-08 18:44:28.032,0,2014-11-08 18:09:32.682,0
2014-11-08 18:44:30.815,28,14,37.44788,-122.1657,18.56354,7.27,218.1403,3,5,1415501070,-0.09172058,-0.422699,-0.9863434,-51.85324,-30.28392,5.492371,132.6296,118.935,25,-0.1219153,-0.2103492,0.06215286,-0.1435248,-0.161801,0.4848775,-0.2644564,-0.2913447,0.008346607,0.04220019,0.0528157,-0.1098864,0.0.0.0,10.147.103.29,1,automotive,0,2014-11-08 18:44:28.032,0,2014-11-08 18:09:32.682,0
2014-11-08 18:44:31.239,29,14.5,37.44788,-122.1657,18.56354,7.27,218.1403,3,5,1415501070,-0.24646,-0.5460358,-0.7801819,-48.70519,-31.9849,10.77014,136.5303,122.8357,25,0.4041603,0.1558482,0.1073781,-0.1790378,-0.1674211,0.5929794,0.4266405,0.06621896,0.008051838,-0.08606728,-0.02351741,-0.1305427,0.0.0.0,10.147.103.29,5,automotive,0,2014-11-08 18:44:28.032,0,2014-11-08 18:09:32.682,0
2014-11-08 18:44:31.807,30,15,37.44784,-122.1658,18.2287,7.27,218.1403,3,5,1415501071,-0.1748505,-0.6147919,-0.83992,-49.86861,-33.89006,14.66257,139.3122,125.6176,25,0.1179104,0.04629826,-0.05004905,-0.2516088,-0.138681,0.6295248,0.09601396,-0.08706853,0.02260349,-0.00320652,-0.01997339,-0.02448051,0.0.0.0,10.147.103.29,1,automotive,0,2014-11-08 18:44:28.032,0,2014-11-08 18:09:32.682,0
2014-11-08 18:44:32.308,31,15.5,37.44779,-122.1658,18.34421,7.29,218.1403,3,5,1415501072,-0.2348633,-0.3904724,-0.8327179,-51.13466,-29.5015,9.549683,132.884,119.1894,25,-0.7312758,0.3622845,0.4918499,-0.1911985,-0.1079129,0.545292,-1.11318,0.6024205,-0.1475774,-0.1072874,-0.02408737,0.1329615,0.0.0.0,10.147.103.29,1,automotive,0,2014-11-08 18:44:28.032,0,2014-11-08 18:09:32.682,0
2014-11-08 18:44:32.811,32,16,37.44779,-122.1658,18.34421,7.29,218.1403,3,5,1415501072,-0.1730347,-0.4169769,-0.8441467,-50.65561,-29.77365,10.67123,134.3012,120.6066,25,-0.1551478,-0.6362774,0.1433705,-0.2069608,-0.1614913,0.4536504,-0.1580727,-0.4360242,0.04677742,-0.06915716,-0.0142803,0.04197364,0.0.0.0,10.147.103.29,5,automotive,0,2014-11-08 18:44:28.032,0,2014-11-08 18:09:32.682,0
2014-11-08 18:44:33.311,33,16.5,37.44774,-122.1659,17.79556,7.24,218.1403,3,5,1415501073,-0.2574921,-0.3652954,-0.9386139,-46.37838,-33.61794,23.63467,141.1909,127.4963,25,0.1462139,0.05369838,-0.02288561,-0.2470759,-0.2665223,0.3308023,-0.03145534,-0.1493722,0.09393054,-0.02971031,-0.005093113,0.05911756,0.0.0.0,10.147.103.29,5,automotive,0,2014-11-08 18:44:28.032,0,2014-11-08 18:09:32.682,0
2014-11-08 18:44:33.810,34,17,37.44774,-122.1659,17.79556,7.24,218.1403,3,5,1415501073,-0.2329712,-0.2553253,-0.8225555,-43.98314,-28.44685,29.63803,139.1394,125.4448,25,0.4531369,-0.5115511,0.249299,-0.2101448,-0.3579151,0.3795373,0.4162189,-0.6497936,0.02438175,0.1019575,0.09499326,-0.006382919,0.0.0.0,10.147.103.29,5,automotive,0,2014-11-08 18:44:28.032,0,2014-11-08 18:09:32.682,0
2014-11-08 18:44:34.314,35,17.5,37.44774,-122.1659,17.79556,7.24,218.1403,3,5,1415501073,-0.3060608,-0.2665558,-0.9559631,-46.34417,-24.05828,29.34125,131.6599,117.9653,25,-0.4408821,0.07162678,0.6937886,-0.02025117,-0.2968928,0.2687399,-0.3455977,-0.1268747,0.5251697,-0.005242889,0.05253461,0.1405699,0.0.0.0,10.147.103.29,5,automotive,0,2014-11-08 18:44:28.032,0,2014-11-08 18:09:32.682,0
2014-11-08 18:44:34.810,36,18,37.44769,-122.1659,18.02185,7.26,218.1403,3,5,1415501074,-0.3065186,-0.210083,-1.06955,-53.66678,-20.92845,10.47327,125.5655,111.8709,25,-0.1027085,1.216596,0.2704808,-0.01090216,-0.2710977,0.2273001,-0.2032944,0.6387458,0.0800075,-0.1872647,-0.1384674,-0.1433207,0.0.0.0,10.147.103.29,5,automotive,0,2014-11-08 18:44:28.032,0,2014-11-08 18:09:32.682,0
2014-11-08 18:44:35.312,37,18.5,37.44769,-122.1659,18.02185,7.26,218.1403,3,5,1415501074,0.04241943,-0.1987,-0.9225769,-57.12278,-16.60796,13.21097,122.1696,108.475,25,0.07097963,0.1199594,-0.04818351,0.1241929,-0.008781295,0.2539966,-0.0539734,-0.00896971,0.02525177,-0.00326508,0.05626702,0.07874895,0.0.0.0,10.147.103.29,5,automotive,0,2014-11-08 18:44:28.032,0,2014-11-08 18:09:32.682,0
2014-11-08 18:44:35.812,38,19,37.44766,-122.1659,18.16843,7.52,218.1403,3,5,1415501075,0.02409363,-0.2457581,-0.9691162,-56.7806,-14.63479,14.79428,121.5592,107.8646,25,0.09657954,0.01303804,-0.008479238,0.1015031,0.004101237,0.2802824,0.05589923,-0.08039942,0.04558761,0.03094041,0.01728867,-0.00283688,0.0.0.0,10.147.103.29,5,automotive,2,2014-11-08 18:44:35.595,0,2014-11-08 18:09:32.682,0
2014-11-08 18:44:36.307,39,19.5,37.44766,-122.1659,18.16843,7.52,218.1403,3,5,1415501075,-0.03396606,-0.2301636,-0.8132935,-57.157,-12.96781,12.58429,119.7319,106.0373,25,-0.1149452,-0.1731028,0.3493982,0.1114546,-0.006859338,0.3046425,-0.2124708,-0.1673584,0.2469253,-0.05029555,0.02994788,0.1094952,0.0.0.0,10.147.103.29,5,automotive,2,2014-11-08 18:44:35.595,0,2014-11-08 18:09:32.682,0
2014-11-08 18:44:36.808,40,20,37.44766,-122.1659,18.2092,7.29,218.1403,3,5,1415501076,-0.1540527,-0.2649078,-0.9926605,-56.7806,-11.9132,14.99225,119.159,105.4644,25,-0.001381648,0.1606605,0.05928623,0.1411606,-0.02977553,0.294205,-0.01373977,0.1361066,-0.01262879,-0.132061,0.01957809,-0.03122998,0.0.0.0,10.147.103.29,5,automotive,2,2014-11-08 18:44:35.595,0,2014-11-08 18:09:32.682,0
2014-11-08 18:44:37.308,41,20.5,37.44766,-122.1659,18.2092,7.29,218.1403,3,5,1415501076,-0.03288269,-0.4615173,-0.9410706,-58.76524,-9.940063,12.08948,116.9923,103.2977,25,0.301643,-0.2340655,-0.2125434,0.1694698,-0.007369736,0.3304867,0.2143971,-0.2745548,-0.344753,-0.01742795,-0.1066794,-0.1040221,0.0.0.0,10.147.103.29,5,automotive,2,2014-11-08 18:44:35.595,0,2014-11-08 18:09:32.682,0
2014-11-08 18:44:37.813,42,21,37.44753,-122.1661,18.11731,7.38,218.3036,3,5,1415501077,0.1167297,-0.4998932,-0.9264526,-54.48801,-23.24184,10.80295,129.3985,115.7039,25,-0.01368865,-0.02276896,-0.4004089,-0.1623739,0.07278889,0.5448864,-0.1509672,0.04199351,-0.4196478,0.05845814,-0.01125064,-0.03730655,0.0.0.0,10.147.103.29,5,automotive,2,2014-11-08 18:44:35.595,0,2014-11-08 18:09:32.682,0
2014-11-08 18:44:38.293,43,21.5,37.44753,-122.1661,18.11731,7.38,218.3036,3,5,1415501077,0.04353333,-0.457077,-0.8333893,-51.92168,-20.35017,9.648468,128.3087,114.6141,25,-0.09135389,-0.1219126,0.1429787,-0.1775549,0.05690176,0.5336477,-0.09255482,-0.1283433,-0.06395966,-0.04328728,0.02401235,0.03384974,0.0.0.0,10.147.103.29,5,automotive,2,2014-11-08 18:44:35.595,0,2014-11-08 18:09:32.682,0
2014-11-08 18:44:38.816,44,22,37.44748,-122.1661,18.77591,7.52,218.3036,3,5,1415501078,-0.07829285,-0.4783173,-0.8365936,-45.52294,-39.23123,1.303101,142.652,128.9574,25,0.2563282,0.513736,-0.736723,-0.2809099,0.1430196,0.520771,0.1717242,0.4385176,-0.8753334,-0.1739156,-0.00586887,0.01017546,0.0.0.0,10.147.103.29,5,automotive,2,2014-11-08 18:44:35.595,0,2014-11-08 18:09:32.682,0
2014-11-08 18:44:39.278,45,22.5,37.44748,-122.1661,18.77591,7.52,218.3036,3,5,1415501078,0.1192169,-0.5142365,-0.8778229,-46.00199,-36.4416,9.747528,142.3741,128.6795,25,0.05267999,-0.2791102,0.2290667,-0.3846716,0.05427509,0.6067345,0.01716184,-0.2820527,0.2107509,0.02777604,0.04700977,-0.07958246,0.0.0.0,10.147.103.29,1,automotive,2,2014-11-08 18:44:35.595,0,2014-11-08 18:09:32.682,0
2014-11-08 18:44:39.812,46,23,37.44743,-122.1662,18.69635,7.12,218.3036,3,5,1415501079,-0.2140503,-0.1879883,-0.7726135,-64.30852,-6.878319,1.402161,109.0799,95.38534,25,-1.640175,-1.9551,2.138572,0.3401558,-0.07443572,0.2195142,-0.9703698,-1.726918,1.957482,-0.1913794,-0.1142147,0.2360876,0.0.0.0,10.147.103.29,5,automotive,2,2014-11-08 18:44:35.595,0,2014-11-08 18:09:32.682,0
2014-11-08 18:44:40.311,47,23.5,37.44743,-122.1662,18.69635,7.12,218.3036,3,5,1415501079,-0.05107117,0.03921509,-1.265869,-76.52428,5.062668,4.074036,95.77229,82.07768,25,-0.5446836,-0.1269502,0.627984,0.5850804,-0.06590657,0.1945695,-0.226693,-0.7463799,1.179587,-0.02646353,0.2064057,-0.2039215,0.0.0.0,10.147.103.29,5,automotive,2,2014-11-08 18:44:35.595,0,2014-11-08 18:09:32.682,0
2014-11-08 18:44:40.812,48,24,37.44738,-122.1662,18.14249,7,218.3036,3,5,1415501080,0.2522736,-0.1374969,-0.9251251,-73.58156,48.67617,-39.66528,63.97428,50.27968,25,0.7758071,0.5259794,1.135254,1.163596,0.1198596,0.0792282,0.3388026,0.4117571,1.83763,0.09010705,0.001249223,0.05907748,0.0.0.0,10.147.103.29,5,automotive,2,2014-11-08 18:44:35.595,0,2014-11-08 18:09:32.682,0
2014-11-08 18:44:41.319,49,24.5,37.44733,-122.1663,17.55597,7.02,218.3036,3,5,1415501081,0.2706757,0.03404236,-0.9795532,-89.35599,2.98745,-18.98306,97.49659,83.80199,25,0.6649002,-1.470399,2.253046,0.6266913,0.03322515,-0.08465011,-0.7034076,-3.107019,3.811235,0.03014759,0.02540578,-0.002391109,0.0.0.0,10.147.103.29,5,automotive,2,2014-11-08 18:44:35.595,0,2014-11-08 18:09:32.682,0
2014-11-08 18:44:41.810,50,25,37.44733,-122.1663,17.55597,7.02,218.3036,3,5,1415501081,0.3140411,0.1708679,-0.8948212,-86.54484,-5.472305,-25.98077,111.2704,97.57581,25,0.2581668,0.9119787,1.089248,0.3009383,0.1409846,-0.1004618,-0.03321733,0.5871404,1.025181,0.2502967,0.03926398,0.08803715,0.0.0.0,10.147.103.29,5,automotive,2,2014-11-08 18:44:35.595,0,2014-11-08 18:09:32.682,0
2014-11-08 18:44:42.312,51,25.5,37.44733,-122.1663,17.55597,7.02,218.3036,3,5,1415501081,0.2060699,0.2467041,-0.9803467,-89.56789,-2.760483,-43.44302,107.4387,93.74413,25,-0.4230879,0.1302744,-0.3917872,0.2747459,0.2709836,-0.04905484,-0.2210865,-0.1401647,-0.9747558,-0.1532825,0.07657518,-0.09320822,0.0.0.0,10.147.103.29,5,automotive,2,2014-11-08 18:44:35.595,0,2014-11-08 18:09:32.682,0
2014-11-08 18:44:42.811,52,26,37.44728,-122.1663,17.75821,7.02,218.3036,3,5,1415501082,0.067276,0.09716797,-0.8626556,-72.47071,1.553711,-7.710266,103.4876,89.793,25,2.690343,0.13252,1.185266,0.3166379,0.02913157,0.06301328,2.529994,-0.3074782,2.577113,0.15222,0.3494401,0.01877107,0.0.0.0,10.147.103.29,5,automotive,2,2014-11-08 18:44:35.595,0,2014-11-08 18:09:32.682,0
2014-11-08 18:44:43.311,53,26.5,37.44728,-122.1663,17.75821,7.02,218.3036,3,5,1415501082,0.2634888,-0.03379822,-1.307587,-29.07837,88.33772,-16.78284,27.45634,13.76173,25,-0.3942565,0.4425859,-0.588524,1.711505,-0.1888351,0.1246415,-0.8976127,0.09189957,-0.333762,0.3812964,0.1099605,-0.05135142,0.0.0.0,10.147.103.29,5,automotive,2,2014-11-08 18:44:43.158,0,2014-11-08 18:09:32.682,0
2014-11-08 18:44:43.797,54,27,37.44723,-122.1664,17.85504,6.49,218.3036,3,5,1415501083,0.2043762,0.02258301,-0.9435425,-22.00576,102.1783,-16.35556,27.3017,13.60709,25,0.06177841,0.1004861,0.03660968,1.664674,0.05306966,-0.01670643,0.00603648,0.06034312,0.001149199,0.1478599,0.05201993,-0.01344907,0.0.0.0,10.147.103.29,5,automotive,2,2014-11-08 18:44:43.158,0,2014-11-08 18:09:32.682,0
2014-11-08 18:44:44.267,55,27.5,37.44723,-122.1664,17.85504,6.49,218.3036,3,5,1415501083,0.2533112,-0.008377075,-0.9543915,-23.68338,95.88223,-15.60983,27.39234,13.69774,25,0.04576749,0.0420388,0.01146411,1.657997,0.1235788,-0.0111519,-0.007621889,0.005738113,-0.02022513,0.06724912,-0.03344476,0.08223218,0.0.0.0,10.147.103.29,5,automotive,2,2014-11-08 18:44:43.158,0,2014-11-08 18:09:32.682,0
2014-11-08 18:44:44.809,56,28,37.4472,-122.1664,17.57349,5.02,218.3036,3,5,1415501084,0.2158356,-0.03443909,-0.9518433,-24.29866,96.56137,-15.80704,28.08767,14.39306,25,0.04071973,0.0408955,0.02746092,1.653155,0.1673173,0.009839991,0.003325356,-0.00161878,-0.007960961,0.0644884,-0.009981334,0.01322429,0.0.0.0,10.147.103.29,5,automotive,2,2014-11-08 18:44:43.158,0,2014-11-08 18:09:32.682,0
2014-11-08 18:44:45.298,57,28.5,37.4472,-122.1664,17.57349,5.02,218.3036,3,5,1415501084,0.1247711,-0.03611755,-0.9571686,-24.05939,96.73116,-15.77423,28.41158,14.71697,25,0.1124461,0.04047419,0.03363359,1.650154,0.1742609,0.02022398,0.05666127,-0.006833145,-0.0005522126,-0.03131597,-0.022914,0.01646814,0.0.0.0,10.147.103.29,5,automotive,2,2014-11-08 18:44:43.158,0,2014-11-08 18:09:32.682,0
2014-11-08 18:44:45.811,58,29,37.44716,-122.1664,17.24716,3.99,218.3036,3,5,1415501085,0.2086945,-0.02513123,-1.031448,-24.29866,97.17259,-14.9523,28.59076,14.89615,25,0.03933702,0.03229509,0.04955024,1.652599,0.1668223,0.02863017,-0.02754474,-5.349145e-05,0.01549644,0.005252545,-0.03150862,-0.03011009,0.0.0.0,10.147.103.29,5,automotive,2,2014-11-08 18:44:43.158,0,2014-11-08 18:09:32.682,0
2014-11-08 18:44:46.308,59,29.5,37.44716,-122.1664,17.24716,3.99,218.3036,3,5,1415501085,0.3191986,-0.0229187,-0.9529114,-23.30738,96.86698,-15.64285,28.63066,14.93605,25,0.06904831,0.009696037,0.04197142,1.658643,0.1817935,0.01306589,0.01105703,-0.02515091,0.00403285,0.1261369,0.04262179,0.007149231,0.0.0.0,10.147.103.29,5,automotive,2,2014-11-08 18:44:43.158,0,2014-11-08 18:09:32.682,0
2014-11-08 18:44:46.813,60,30,37.44714,-122.1665,16.8877,3.05,218.3036,3,5,1415501086,0.2747498,-0.002578735,-0.9687347,-23.37574,96.25577,-16.49768,28.82067,15.12606,25,0.07404813,0.04323243,0.04103585,1.660974,0.2209682,0.0159474,0.01097288,0.008522755,0.01128121,0.07475305,0.03640876,-0.01519153,0.0.0.0,10.147.103.29,5,automotive,2,2014-11-08 18:44:43.158,0,2014-11-08 18:09:32.682,0
2014-11-08 18:44:47.311,61,30.5,37.44714,-122.1665,16.8877,3.05,218.3036,3,5,1415501086,0.2277374,-0.004211426,-1.003052,-23.71756,96.4595,-16.16891,28.99443,15.29983,25,0.07036711,0.03825524,0.03483415,1.659762,0.2400057,0.01031006,0.01215845,-0.001496475,-0.004195426,-0.02442339,0.01113385,-0.00127969,0.0.0.0,10.147.103.29,5,automotive,2,2014-11-08 18:44:43.158,0,2014-11-08 18:09:32.682,0
2014-11-08 18:44:47.809,62,31,37.44713,-122.1665,16.72,1.71,218.3036,3,5,1415501087,0.09620667,-0.008728027,-1.015961,-24.91394,96.15389,-16.20178,29.09653,15.40193,25,0.07281934,0.03825578,0.03852902,1.659046,0.2202088,0.01095193,0.004568584,-0.001535405,0.002595844,-0.1217406,0.0003773751,-0.002951163,0.0.0.0,10.147.103.29,5,automotive,2,2014-11-08 18:44:43.158,0,2014-11-08 18:09:32.682,0
2014-11-08 18:44:48.312,63,31.5,37.44713,-122.1665,16.8237,0.34,218.3036,3,5,1415501088,0.02044678,-0.02038574,-0.9824677,-23.6492,96.11993,-17.54965,29.01272,15.31812,25,0.06787332,0.04077353,0.03854979,1.659195,0.1060054,0.01205102,0.003143468,0.0004234885,-0.001524399,-0.06005345,-0.005817317,-0.02279062,0.0.0.0,10.147.103.29,5,unknown,0,2014-11-08 18:44:48.198,0,2014-11-08 18:09:32.682,0
2014-11-08 18:44:48.813,64,32,37.44713,-122.1665,16.8237,0.34,218.3036,3,5,1415501088,0.03569031,-0.01690674,-1.001266,-23.99102,96.52742,-17.35239,28.85658,15.16198,25,0.06289694,0.03709011,0.0422103,1.66104,0.06649563,0.01292168,0.00292141,0.002847338,0.009292061,-0.01848272,0.006344778,-0.004688949,0.0.0.0,10.147.103.29,5,stationary,1,2014-11-08 18:44:48.828,0,2014-11-08 18:09:32.682,0
2014-11-08 18:44:49.323,65,32.5,37.44713,-122.1665,16.8237,0.34,218.3036,3,5,1415501088,-0.01005554,-0.004730225,-0.9903564,-24.05938,95.30497,-17.15509,28.7524,15.0578,25,0.08384962,0.04323988,0.05704677,1.666844,0.0290663,0.0171011,0.01868731,0.007759103,0.01751313,-0.03918979,0.02163213,-0.01408784,0.0.0.0,10.147.103.29,5,unknown,1,2014-11-08 18:44:49.458,0,2014-11-08 18:09:32.682,0
2014-11-08 18:44:49.746,66,33,37.44712,-122.1665,16.12738,0.33,218.3036,3,5,1415501089,0.02845764,-0.01553345,-1.068283,-24.2303,95.6785,-17.1879,28.65219,14.95759,25,0.04665805,0.01614275,0.0629558,1.674786,0.01268835,0.01916437,-0.006261025,-0.02062526,0.02322886,0.01008043,0.018385,-0.02951521,0.0.0.0,10.147.103.29,5,unknown,1,2014-11-08 18:44:49.458,0,2014-11-08 18:09:32.682,0
2014-11-08 18:44:50.297,67,33.5,37.44712,-122.1665,15.69641,0.96,218.3036,3,5,1415501090,-0.009414673,-0.002258301,-1.003342,-25.1874,96.56137,-17.05624,28.54117,14.84657,25,0.06274568,0.02973073,0.06554226,1.691026,0.008511445,0.01228639,0.003287761,-0.01428023,0.02785905,-0.004314533,-0.008984672,-0.005971071,0.0.0.0,10.147.103.29,5,unknown,1,2014-11-08 18:44:50.404,0,2014-11-08 18:09:32.682,0
2014-11-08 18:44:50.809,68,34,37.44712,-122.1665,15.69641,0.96,218.3036,3,5,1415501090,0.07125854,-0.01947021,-1.021088,-25.11903,97.10468,-16.92471,28.46057,14.76596,25,0.03936845,0.03351722,0.04463538,1.697612,0.02525861,0.01398958,-0.01513685,0.000775823,0.008288515,0.04754623,-0.01732191,-0.02730279,0.0.0.0,10.147.103.29,5,unknown,0,2014-11-08 18:44:50.719,0,2014-11-08 18:09:32.682,0
2014-11-08 18:44:51.311,69,34.5,37.44711,-122.1665,15.39713,1.84,218.3036,3,5,1415501091,-0.1382294,-0.04933167,-0.9899139,-25.22158,97.20655,-16.62878,28.4048,14.71019,25,0.02326591,0.01993989,0.04451181,1.699292,0.002621465,0.009344725,-0.04121799,0.03578642,0.01087503,-0.1107909,-0.03304433,-0.02610911,0.0.0.0,10.147.103.29,5,unknown,0,2014-11-08 18:44:50.719,0,2014-11-08 18:09:32.682,0
2014-11-08 18:44:51.810,70,35,37.44711,-122.1665,15.39713,1.84,218.3036,3,5,1415501091,-0.03251648,-0.02030945,-1.048721,-25.66595,98.12337,-17.25345,28.26888,14.57427,25,0.02703748,0.0372981,0.03850824,1.701936,-0.0111578,-0.003393359,-0.03501596,0.01949748,0.002120447,-0.03080416,-0.04237956,-0.03940516,0.0.0.0,10.147.103.29,5,unknown,0,2014-11-08 18:44:50.719,0,2014-11-08 18:09:32.682,0
2014-11-08 18:44:52.309,71,35.5,37.44711,-122.1665,15.39713,1.84,218.3036,3,5,1415501091,-0.05899048,0.03033447,-0.9876556,-25.1874,98.80251,-17.25345,28.15519,14.46059,25,0.04559598,0.0595853,0.04363456,1.702444,-0.0214902,-0.01954842,-0.0254514,0.01597964,0.002608052,-0.0316314,0.01191645,0.02551802,0.0.0.0,10.147.103.29,5,unknown,0,2014-11-08 18:44:50.719,0,2014-11-08 18:09:32.682,0
2014-11-08 18:44:52.817,72,36,37.4471,-122.1665,15.79913,2.37,218.3036,3,5,1415501092,-0.07946777,0.006835938,-1.063751,-25.1874,98.93834,-17.84521,28.03015,14.33554,25,0.03082449,0.06086814,0.03132783,1.702934,-0.03504712,-0.02516824,-0.03899539,0.02100759,-0.008754913,-0.02754745,0.003673524,-0.06758099,0.0.0.0,10.147.103.29,5,unknown,0,2014-11-08 18:44:50.719,0,2014-11-08 18:09:32.682,0
2014-11-08 18:44:53.311,73,36.5,37.4471,-122.1665,15.79913,2.37,218.3036,3,5,1415501092,-0.08088684,0.02235413,-1.021927,-25.15321,99.5156,-17.61508,27.84891,14.1543,25,0.09264019,0.1264796,0.05408587,1.70548,-0.04130569,-0.01955916,0.0377883,0.06912774,0.01263406,-0.05801815,0.007862133,-0.03658179,0.0.0.0,10.147.103.29,5,unknown,0,2014-11-08 18:44:50.719,0,2014-11-08 18:09:32.682,0
2014-11-08 18:44:53.811,74,37,37.44707,-122.1665,16.95483,4.14,218.3036,3,5,1415501093,-0.1351318,0.03924561,-0.9445343,-23.51247,99.10812,-17.61514,27.5903,13.8957,25,0.1222929,0.06409616,0.04738909,1.710587,-0.04510904,0.005659276,0.06021767,0.02795131,0.007381582,-0.07133154,0.01144233,-0.03098624,0.0.0.0,10.147.103.29,5,unknown,0,2014-11-08 18:44:53.554,0,2014-11-08 18:09:32.682,0
2014-11-08 18:44:54.311,75,37.5,37.44707,-122.1665,17.33807,4.14,218.3036,3,5,1415501094,-0.1007385,-0.009552002,-1.042282,-24.12775,98.15733,-17.81238,27.30983,13.61522,25,0.1309018,-0.005616607,0.04062226,1.71314,-0.06477981,0.03519197,0.08005295,-0.03555015,0.001823943,-0.03502176,0.03019508,-0.0292809,0.0.0.0,10.147.103.29,5,unknown,0,2014-11-08 18:44:53.554,0,2014-11-08 18:09:32.682,0
2014-11-08 18:44:54.810,76,38,37.44707,-122.1665,17.33807,4.14,218.3036,3,5,1415501094,-0.02922058,-0.008804321,-1.100586,-25.93941,97.98755,-16.72739,27.34682,13.65222,25,0.05182405,0.03960387,0.03237818,1.709826,-0.1004094,0.02328478,-0.03724307,0.0475305,-0.001299766,0.07116091,0.1069161,-0.09518077,0.0.0.0,10.147.103.29,5,unknown,0,2014-11-08 18:44:53.554,0,2014-11-08 18:09:32.682,0
2014-11-08 18:44:55.286,77,38.5,37.44707,-122.1665,16.43201,7.92,218.3036,4,5,1415501095,0.1121368,0.009887695,-1.077911,-23.99102,98.9723,-16.49734,26.89723,13.20263,25,0.05298412,0.008537029,0.0382627,1.707914,-0.04555849,0.009748461,-0.0001749165,-0.02214621,-0.005628004,0.1236808,-0.08354393,0.04199049,0.0.0.0,10.147.103.29,5,unknown,0,2014-11-08 18:44:53.554,0,2014-11-08 18:09:32.682,0
2014-11-08 18:44:55.813,78,39,37.44707,-122.1665,16.43201,7.92,218.3036,4,5,1415501095,0.05944824,0.02680969,-1.031311,-23.23902,99.04021,-16.69449,26.98242,13.28781,25,0.05178357,0.03714364,0.03851357,1.705731,0.00255867,0.0002336357,-0.02485225,-0.001489812,-0.001837026,0.07712273,-0.009196296,-0.0111117,0.0.0.0,10.147.103.29,5,unknown,0,2014-11-08 18:44:53.554,0,2014-11-08 18:09:32.682,0
2014-11-08 18:44:56.303,79,39.5,37.44693,-122.1667,17.11414,9.03,217.7693,4,5,1415501096,0.07545471,-0.00769043,-0.9511566,-23.75175,98.66669,-17.31912,27.0624,13.3678,25,0.08522701,0.04188753,0.03363865,1.701307,0.02158483,-0.00321757,0.02712032,0.006989459,-0.005444294,0.03795676,-0.002302038,-0.01639718,0.0.0.0,10.147.103.29,5,unknown,0,2014-11-08 18:44:53.554,0,2014-11-08 18:09:32.682,0
2014-11-08 18:44:56.810,80,40,37.44693,-122.1667,17.11414,9.03,217.7693,4,5,1415501096,0.1620483,-0.174057,-1.048141,-23.78593,99.78726,-16.29996,27.18527,13.49067,25,0.02344434,0.03101358,0.01751827,1.695568,0.05537263,-0.01432106,-0.02830628,0.02129076,-0.02381279,0.05698128,-0.1070787,0.05061103,0.0.0.0,10.147.103.29,5,unknown,0,2014-11-08 18:44:53.554,0,2014-11-08 18:09:32.682,0
2014-11-08 18:44:57.311,81,40.5,37.44686,-122.1667,17.66638,9.15,217.7693,4,5,1415501097,0.1295776,0.05198669,-0.9542847,-24.2303,99.54956,-17.64786,27.42563,13.73103,25,0.1013631,0.06415289,0.03014432,1.688711,0.05566807,-0.006952317,0.02753577,0.05968053,-0.01106992,0.01243148,0.06622889,0.1023849,0.0.0.0,10.147.103.29,5,unknown,0,2014-11-08 18:44:53.554,0,2014-11-08 18:09:32.682,0
2014-11-08 18:44:57.813,82,41,37.44686,-122.1667,17.66638,9.15,217.7693,4,5,1415501097,0.1216278,-0.07814026,-0.9802094,-23.6492,98.42899,-17.35181,27.57562,13.88102,25,0.08155132,0.04686311,0.02875575,1.682379,0.07707098,0.002165673,0.01778241,0.01384809,-0.0125241,0.03143443,0.01322829,-0.06917872,0.0.0.0,10.147.103.29,5,unknown,0,2014-11-08 18:44:53.554,0,2014-11-08 18:09:32.682,0
2014-11-08 18:44:58.310,83,41.5,37.44678,-122.1668,17.82068,9.15,217.7693,4,5,1415501098,0.1102905,0.06956482,-1.010178,-23.47829,98.59877,-16.99014,27.6907,13.99609,25,0.06543174,0.02583053,0.02979811,1.677619,0.08490085,-0.001473451,0.009143195,-0.01582632,-0.0077796,0.01363565,0.04396722,0.0003490323,0.0.0.0,10.147.103.29,5,automotive,2,2014-11-08 18:44:58.280,0,2014-11-08 18:09:32.682,0
2014-11-08 18:44:58.742,84,42,37.44678,-122.1668,17.82068,9.15,217.7693,4,5,1415501098,0.2043915,0.02905273,-1.03656,-25.1874,99.20999,-15.93811,27.87457,14.17996,25,0.07405026,0.03327433,0.03848561,1.673832,0.09250272,-0.009715033,0.02270867,0.005277884,-0.007468367,0.09498091,0.009618006,-0.03061321,0.0.0.0,10.147.103.29,5,automotive,2,2014-11-08 18:44:58.595,0,2014-11-08 18:09:32.682,0
2014-11-08 18:44:59.311,85,42.5,37.44678,-122.1668,17.82068,9.15,217.7693,4,5,1415501098,0.2166748,-0.09635925,-0.999176,-25.32413,98.93834,-16.13541,28.21505,14.52044,25,0.0529756,0.0483694,0.04846367,1.674347,0.1249417,-0.01037741,-0.02320238,-0.002942633,0.003673567,0.1163109,-0.09719973,-0.008107887,0.0.0.0,10.147.103.29,5,automotive,2,2014-11-08 18:44:58.595,0,2014-11-08 18:09:32.682,0
2014-11-08 18:44:59.808,86,43,37.44671,-122.1669,16.96729,9.54,217.7693,4,5,1415501099,0.1875153,-0.02978516,-1.01152,-26.00777,99.54956,-16.13541,28.49158,14.79698,25,0.07274531,0.06195551,0.05597671,1.678879,0.1225865,-0.01176978,0.00145171,0.01308344,0.01258117,0.1090672,-0.00728342,-0.05008405,0.0.0.0,10.147.103.29,5,automotive,2,2014-11-08 18:44:58.595,0,2014-11-08 18:09:32.682,0
2014-11-08 18:45:00.311,87,43.5,37.44671,-122.1669,16.96729,9.54,217.7693,4,5,1415501099,0.1977997,-0.03092957,-0.9897156,-25.35831,100.738,-15.57654,28.64135,14.94674,25,0.05294364,0.04092479,0.0520925,1.685726,0.135107,0.008446679,0.01007477,0.0005611948,0.01393481,0.09426663,0.003792647,-0.002358258,0.0.0.0,10.147.103.29,5,automotive,2,2014-11-08 18:44:58.595,0,2014-11-08 18:09:32.682,0
2014-11-08 18:45:00.812,88,44,37.44664,-122.167,17.73764,7.95,217.7693,4,5,1415501100,0.1702881,0.00112915,-0.815155,-20.47025,93.57318,-14.36005,27.99877,14.30416,25,0.07159003,0.09675264,0.05012495,1.696689,0.1356872,0.004696782,0.005241028,0.03295568,0.004418378,0.05900516,0.009121813,0.1742999,0.0.0.0,10.147.103.29,5,automotive,2,2014-11-08 18:45:00.801,0,2014-11-08 18:09:32.682,0
2014-11-08 18:45:01.311,89,44.5,37.4466,-122.167,17.92545,6.62,217.7693,4,5,1415501101,0.14888,0.2111206,-0.6794586,-24.57212,101.0437,-17.77917,28.92245,15.22784,25,0.1125212,-0.02305259,0.007216367,1.700601,0.1667892,-0.01409251,-0.01330759,-0.1486713,-0.04012004,-0.0788118,0.08473913,-0.08259381,0.0.0.0,10.147.103.29,5,automotive,2,2014-11-08 18:45:00.801,0,2014-11-08 18:09:32.682,0
2014-11-08 18:45:01.768,90,45,37.4466,-122.167,17.92545,6.62,217.7693,4,5,1415501101,0.2287903,-0.0221405,-1.275238,-20.84626,99.37978,-16.62845,28.02921,14.33461,25,0.06794683,-0.05884467,0.004427239,1.680968,0.1461133,-0.001624026,-0.02184306,-0.07282982,-0.04191453,0.04048719,0.02935132,-0.1703096,0.0.0.0,10.147.103.29,5,automotive,2,2014-11-08 18:45:00.801,0,2014-11-08 18:09:32.682,0
2014-11-08 18:45:02.309,91,45.5,37.44655,-122.167,17.59256,6.62,217.7693,4,5,1415501102,0.12117,-0.004776001,-1.026962,-26.11032,94.9654,-19.98181,30.50327,16.80867,25,-0.04318955,0.08481822,-0.0004982774,1.666238,0.1491803,0.005037241,-0.05002598,0.1175645,-0.03761822,-0.03792321,-0.08942994,0.03856331,0.0.0.0,10.147.103.29,5,automotive,2,2014-11-08 18:45:00.801,0,2014-11-08 18:09:32.682,0
2014-11-08 18:45:02.802,92,46,37.44655,-122.167,17.59256,6.62,217.7693,4,5,1415501102,0.181076,0.0509491,-1.075851,-22.48701,99.17603,-16.43118,29.11053,15.41592,25,0.03837562,0.1192257,0.0232225,1.656014,0.1806997,0.01756412,-0.0278289,0.1361551,-0.02020558,-0.04988366,0.003311512,-0.03895552,0.0.0.0,10.147.103.29,5,automotive,2,2014-11-08 18:45:00.801,0,2014-11-08 18:09:32.682,0
2014-11-08 18:45:03.311,93,46.5,37.44655,-122.167,17.59256,6.62,217.7693,4,5,1415501102,-0.07704163,-0.107605,-1.099838,-23.85429,98.76855,-16.82571,28.15405,14.45945,25,0.03824566,0.08198142,0.03644083,1.649181,0.07219997,0.01496901,-0.02545086,0.1035437,-0.01183045,-0.1508035,-0.01341289,-0.06007482,0.0.0.0,10.147.103.29,5,automotive,2,2014-11-08 18:45:03.321,0,2014-11-08 18:09:32.682,0
2014-11-08 18:45:03.811,94,47,37.44651,-122.1671,16.91907,6.67,217.7693,4,5,1415501103,-0.04257202,-0.00479126,-1.054306,-22.58956,97.85172,-16.46396,27.23054,13.53593,25,0.06542641,0.1029978,0.04771532,1.651912,0.0257322,0.008806345,0.008902812,0.002332681,0.004529577,-0.05734457,-0.03700065,0.02849981,0.0.0.0,10.147.103.29,5,automotive,2,2014-11-08 18:45:03.321,0,2014-11-08 18:09:32.682,0
2014-11-08 18:45:04.313,95,47.5,37.44651,-122.1671,16.91907,6.67,217.7693,4,5,1415501103,-0.0473175,-0.09783936,-1.044708,-22.62373,97.74986,-16.36536,27.19677,13.50217,25,0.0270492,0.03480059,0.03602352,1.656234,0.004968688,0.01033942,-0.02927547,0.007425701,0.001262669,-0.05251479,0.03205249,0.1516829,0.0.0.0,10.147.103.29,5,automotive,2,2014-11-08 18:45:03.321,0,2014-11-08 18:09:32.682,0
2014-11-08 18:45:04.810,96,48,37.44647,-122.1671,17.07095,7.24,217.7693,4,5,1415501104,-0.08093262,-0.04653931,-0.9442291,-23.58083,98.56482,-16.62839,27.09434,13.39974,25,0.02693255,-0.003697799,0.04676804,1.660303,-0.01676452,-0.002013696,-0.04299289,-0.03461171,0.006092349,-0.04346274,-0.02543594,0.008844879,0.0.0.0,10.147.103.29,5,automotive,2,2014-11-08 18:45:03.321,0,2014-11-08 18:09:32.682,0
2014-11-08 18:45:05.311,97,48.5,37.4464,-122.1672,17.03906,9.32,219.1629,4,5,1415501105,-0.05241394,-0.06613159,-1.068527,-22.111,98.93834,-16.98996,27.0344,13.33979,25,0.002411759,0.1020843,0.03291348,1.66657,-0.007677245,-0.004722832,-0.05160629,0.03874579,-0.009115004,0.02955819,-0.02965568,-0.1402536,0.0.0.0,10.147.103.29,5,automotive,2,2014-11-08 18:45:03.321,0,2014-11-08 18:09:32.682,0
2014-11-08 18:45:05.810,98,49,37.4464,-122.1672,17.03906,9.32,219.1629,4,5,1415501105,0.03860474,0.04374695,-0.9643555,-22.79464,99.48164,-16.79276,26.92121,13.2266,25,0.05809633,0.048216,0.02014149,1.665512,-0.01473516,0.006713309,0.02885049,0.02570415,-0.01531704,0.03545573,0.05947815,0.06171278,0.0.0.0,10.147.103.29,5,automotive,2,2014-11-08 18:45:03.321,0,2014-11-08 18:09:32.682,0
2014-11-08 18:45:06.310,99,49.5,37.44632,-122.1673,17.56384,10.17,219.1629,4,5,1415501106,0.1117706,0.06311035,-1.002502,-22.72628,99.82121,-16.39825,26.89189,13.19728,25,0.07546546,0.03811783,0.0102063,1.655076,0.02536894,-0.0009551453,0.01160979,-0.003996298,-0.02424091,0.07779846,0.01979681,0.02360355,0.0.0.0,10.147.103.29,5,automotive,2,2014-11-08 18:45:03.321,0,2014-11-08 18:09:32.682,0
2014-11-08 18:45:06.811,100,50,37.44632,-122.1673,17.56384,10.17,219.1629,4,5,1415501106,0.1413116,0.0327301,-1.021942,-22.45282,98.39503,-16.46396,26.98961,13.29501,25,0.06418058,-0.03140213,0.01944401,1.645235,0.05072507,-0.002385066,0.01291179,-0.02135667,-0.01833161,0.07064997,0.007975654,-0.02104921,0.0.0.0,10.147.103.29,5,automotive,2,2014-11-08 18:45:03.321,0,2014-11-08 18:09:32.682,0
2014-11-08 18:45:07.310,101,50.5,37.44625,-122.1673,18.00113,10.17,219.1629,4,5,1415501107,0.1244202,0.1107635,-1.012589,-22.86301,99.82121,-16.13519,27.12166,13.42706,25,0.02343369,0.06338004,0.02642229,1.640561,0.06490505,-0.01307156,-0.04400961,0.03613233,-0.006733022,0.01742143,0.05910288,-0.02129485,0.0.0.0,10.147.103.29,5,automotive,2,2014-11-08 18:45:03.321,0,2014-11-08 18:09:32.682,0
2014-11-08 18:45:07.813,102,51,37.44625,-122.1673,18.00113,10.17,219.1629,4,5,1415501107,0.1061249,0.04743958,-0.8999939,-21.97427,99.27791,-15.80643,27.29271,13.5981,25,0.07782023,0.04938912,0.03247112,1.635601,0.09024843,-0.01924402,0.006571764,0.04437582,-0.008895596,0.05195005,0.03892367,0.02055676,0.0.0.0,10.147.103.29,5,automotive,2,2014-11-08 18:45:03.321,0,2014-11-08 18:09:32.682,0
2014-11-08 18:45:08.268,103,51.5,37.44618,-122.1674,18.27075,10.76,219.1629,4,5,1415501108,0.1366425,-0.01174927,-1.024246,-23.51247,99.71935,-16.36523,27.4418,13.7472,25,0.02463903,0.02107972,0.02235697,1.630603,0.0910513,-0.01630319,-0.02952428,-0.01903214,-0.01159101,0.09918053,-0.05991209,-0.04535131,0.0.0.0,10.147.103.29,5,automotive,2,2014-11-08 18:45:03.321,0,2014-11-08 18:09:32.682,0
2014-11-08 18:45:08.810,104,52,37.44618,-122.1674,18.27075,10.76,219.1629,4,5,1415501108,0.2244263,0.04733276,-0.9674988,-21.94009,99.37978,-16.16803,27.59893,13.90432,25,0.08518973,0.04191416,0.03979588,1.626205,0.1325107,-0.01604015,0.04460647,0.01025686,0.001398937,0.111775,0.02801266,0.04313825,0.0.0.0,10.147.103.29,5,automotive,2,2014-11-08 18:45:03.321,0,2014-11-08 18:09:32.682,0
2014-11-08 18:45:09.302,105,52.5,37.44611,-122.1675,17.25034,10.2,219.1629,4,5,1415501109,0.2759552,-0.003295898,-0.9654846,-22.55537,99.37978,-16.56256,27.76159,14.06698,25,0.05312314,0.06444344,0.02767104,1.623281,0.1413298,-0.01407087,-0.002414018,0.01649467,-0.003039089,0.09423104,0.03997623,0.06924673,0.0.0.0,10.147.103.29,5,automotive,2,2014-11-08 18:45:03.321,0,2014-11-08 18:09:32.682,0
2014-11-08 18:45:09.809,106,53,37.44611,-122.1675,17.25034,10.2,219.1629,4,5,1415501109,0.3098602,0.0269165,-0.9614716,-22.82883,98.76855,-15.70792,27.96186,14.26725,25,0.1224165,0.04409476,0.02258547,1.617117,0.188797,-0.01912754,0.0457602,0.0187265,-0.01116279,0.1179752,0.09523825,0.02730861,0.0.0.0,10.147.103.29,5,automotive,2,2014-11-08 18:45:03.321,0,2014-11-08 18:09:32.682,0
2014-11-08 18:45:10.311,107,53.5,37.44604,-122.1676,18.01013,10.19,219.1629,4,5,1415501110,0.3611603,0.05140686,-0.9812469,-23.61502,98.2592,-14.88608,28.13265,14.43804,25,0.1038356,0.02182354,0.02115349,1.607803,0.2304893,-0.0006030352,0.06284948,-0.008586073,-0.007254228,0.1149299,0.03359191,-0.01837355,0.0.0.0,10.147.103.29,5,automotive,2,2014-11-08 18:45:03.321,0,2014-11-08 18:09:32.682,0
2014-11-08 18:45:10.813,108,54,37.44604,-122.1676,18.01013,10.19,219.1629,4,5,1415501110,0.3493958,0.009017944,-0.9608002,-21.735,98.4969,-15.83951,28.27245,14.57784,25,0.04697017,0.07317009,0.02405181,1.601388,0.2794645,0.00561295,-0.01258826,0.034311,-0.009178435,0.06974446,0.008649419,0.01006206,0.0.0.0,10.147.103.29,5,automotive,2,2014-11-08 18:45:03.321,0,2014-11-08 18:09:32.682,0
2014-11-08 18:45:11.311,109,54.5,37.446,-122.1676,16.25482,6.76,219.1629,4,5,1415501111,0.3762817,-0.004821777,-0.9264069,-22.111,97.78381,-16.66125,28.4122,14.7176,25,0.07289764,0.02948785,0.02367523,1.595842,0.3201065,0.006805758,0.00825118,-0.01309026,-0.01403939,0.06024807,0.02101164,-0.0190818,0.0.0.0,10.147.103.29,5,automotive,2,2014-11-08 18:45:03.321,0,2014-11-08 18:09:32.682,0
2014-11-08 18:45:11.813,110,55,37.446,-122.1676,16.25482,6.76,219.1629,4,5,1415501111,0.2988129,-0.09529114,-0.9752655,-22.72628,97.37634,-16.33252,28.50761,14.81301,25,0.08525897,0.01448413,0.02231543,1.589129,0.3278896,0.01088909,0.03393301,-0.0157995,-0.008733087,0.009165375,-0.08370036,-0.01396434,0.0.0.0,10.147.103.29,5,automotive,2,2014-11-08 18:45:03.321,0,2014-11-08 18:09:32.682,0
2014-11-08 18:45:12.312,111,55.5,37.44597,-122.1676,15.80353,4.46,219.1629,4,5,1415501112,0.2828522,0.0801239,-0.9796753,-23.75175,97.58007,-16.85849,28.59356,14.89895,25,0.05830885,0.0393522,-0.01687832,1.57707,0.3243593,0.007410552,-0.002042613,-0.00226374,-0.04386173,-0.06597675,0.09508748,0.006377059,0.0.0.0,10.147.103.29,5,automotive,2,2014-11-08 18:45:03.321,0,2014-11-08 18:09:32.682,0
2014-11-08 18:45:12.811,112,56,37.44597,-122.1676,15.80353,4.46,219.1629,4,5,1415501112,0.354599,-0.02185059,-0.9587402,-22.14519,96.66324,-16.43118,28.74317,15.04856,25,0.1066042,0.04151122,-0.02300332,1.542088,0.3324054,0.00382915,0.03969212,0.005975045,-0.05686733,0.05159912,0.01415934,-0.02966133,0.0.0.0,10.147.103.29,5,automotive,2,2014-11-08 18:45:03.321,0,2014-11-08 18:09:32.682,0
2014-11-08 18:45:13.311,113,56.5,37.44595,-122.1677,16.75809,2,219.1629,4,5,1415501113,0.3023224,-0.001586914,-1.014053,-21.56409,96.76511,-16.79285,28.92949,15.23488,25,0.08797166,0.04292376,-0.01068194,1.518054,0.3412013,0.003029724,0.009769386,0.01120638,-0.04193554,0.0005414817,0.01259698,-0.1136507,0.0.0.0,10.147.103.29,5,automotive,2,2014-11-08 18:45:03.321,0,2014-11-08 18:09:32.682,0
2014-11-08 18:45:13.814,114,57,37.44595,-122.1677,16.75809,2,219.1629,4,5,1415501113,0.2270203,-0.01953125,-0.9881287,-21.78399,95.80738,-15.72998,28.92229,15.22769,25,0.07418981,0.04313122,0.01763838,1.505385,0.2859064,0.01344448,0.008103006,0.003564902,-0.009773005,-0.04141635,0.0005504022,-0.04141271,0.0.0.0,10.147.103.29,5,automotive,2,2014-11-08 18:45:03.321,0,2014-11-08 18:09:32.682,0
2014-11-08 18:45:14.310,115,57.5,37.44594,-122.1677,16.41953,0.58,219.1629,4,5,1415501114,0.0749054,-0.02386475,-1.002426,-21.03197,96.0789,-16.91336,28.78976,15.09516,25,0.06176403,0.03702326,0.0249698,1.500856,0.2278157,0.01477567,-0.00348677,0.0007809043,-0.01154845,-0.1695969,-0.001948502,0.01102775,0.0.0.0,10.147.103.29,5,automotive,2,2014-11-08 18:45:03.321,0,2014-11-08 18:09:32.682,0
2014-11-08 18:45:14.771,116,58,37.44594,-122.1677,16.41953,0.58,219.1629,4,5,1415501114,0.05592346,-0.01797485,-0.9809723,-20.62178,96.28254,-16.97919,28.6164,14.9218,25,0.07293333,0.02821779,0.01750709,1.496856,0.1279519,0.0117029,0.008548466,-0.006097646,-0.0160802,-0.05766327,0.003508659,-0.03483867,0.0.0.0,10.147.103.29,5,automotive,2,2014-11-08 18:45:03.321,0,2014-11-08 18:09:32.682,0
2014-11-08 18:45:15.311,117,58.5,37.44594,-122.1677,16.41953,0.58,219.1629,4,5,1415501114,0.06428528,-0.008148193,-1.023575,-21.1687,95.46799,-17.17642,28.25492,14.56032,25,0.05440892,0.0382651,0.01389611,1.487859,0.08691359,0.01071659,-0.001700733,-0.00500839,-0.01615925,-0.02619132,-0.001399093,-0.01399417,0.0.0.0,10.147.103.29,5,automotive,2,2014-11-08 18:45:03.321,0,2014-11-08 18:09:32.682,0
2014-11-08 18:45:15.812,118,59,37.44594,-122.1677,16.92764,0.62,219.1629,4,5,1415501115,0.03393555,-0.008407593,-1.020645,-21.98909,94.92494,-16.38757,28.03562,14.34102,25,0.06569273,0.04306811,-0.009455287,1.474039,0.0700916,0.01060696,0.0080271,0.004747914,-0.0348643,-0.0224076,0.004961005,-0.02726128,0.0.0.0,10.147.103.29,5,automotive,2,2014-11-08 18:45:15.925,0,2014-11-08 18:09:32.682,0
2014-11-08 18:45:16.302,119,59.5,37.44594,-122.1677,16.92764,0.62,219.1629,4,5,1415501115,-0.004745483,0.04679871,-1.015457,-20.31413,94.891,-16.88074,27.8162,14.1216,25,0.06479844,-0.009441173,-0.07764366,1.441634,0.04111633,-0.0004524402,0.007000868,-0.046578,-0.1038381,-0.03902955,0.03339155,-0.0005248248,0.0.0.0,10.147.103.29,5,automotive,2,2014-11-08 18:45:15.925,0,2014-11-08 18:09:32.682,0
2014-11-08 18:45:16.809,120,60,37.44593,-122.1677,17.71503,1.25,219.1629,3,5,1415501116,-0.007751465,0.09240723,-1.075027,-19.95811,94.11947,-14.78079,27.38867,13.69406,25,0.08759776,0.006222209,-0.1612352,1.37369,0.008118037,-0.01634487,0.01101793,-0.03082477,-0.1857536,-0.02596965,-0.0178395,-0.0608965,0.0.0.0,10.147.103.29,5,automotive,2,2014-11-08 18:45:15.925,0,2014-11-08 18:09:32.682,0
2014-11-08 18:45:17.311,121,60.5,37.44592,-122.1677,17.16418,2.69,219.1629,3,5,1415501117,0.02113342,0.1167145,-1.037262,-19.47953,91.94762,-14.12335,26.71941,13.0248,25,0.1287772,0.05052309,-0.2088597,1.266703,-0.01638283,-0.02567267,0.06184614,-0.005197436,-0.2343809,0.01782628,0.06904145,-0.05415935,0.0.0.0,10.147.103.29,5,automotive,2,2014-11-08 18:45:15.925,0,2014-11-08 18:09:32.682,0
2014-11-08 18:45:17.813,122,61,37.44592,-122.1677,17.16418,2.69,219.1629,3,5,1415501117,0.05673218,0.1643524,-1.00087,-16.19246,89.79756,-13.42142,25.98303,12.28843,25,0.07849774,0.08163255,-0.2763272,1.132083,0.01008349,-0.04488979,0.0164577,0.05460062,-0.3028013,0.0428138,0.09752031,0.001779971,0.0.0.0,10.147.103.29,5,automotive,2,2014-11-08 18:45:15.925,0,2014-11-08 18:09:32.682,0
2014-11-08 18:45:18.310,123,61.5,37.4459,-122.1677,15.46716,3.45,254.8828,3,5,1415501118,0.04707336,0.1032257,-1.00943,-13.01408,86.48769,-14.73117,25.0041,11.30949,25,0.09846452,0.04529504,-0.3123515,0.97269,0.01096294,-0.06039086,0.04249861,0.004634032,-0.3497103,0.04746791,0.0580693,-0.04651491,0.0.0.0,10.147.103.29,5,automotive,2,2014-11-08 18:45:15.925,0,2014-11-08 18:09:32.682,0
2014-11-08 18:45:18.809,124,62,37.4459,-122.1677,15.46716,3.45,254.8828,3,5,1415501118,0.03605652,0.1517944,-0.9796448,-9.767427,84.21616,-14.17236,23.00887,9.314264,25,0.07636029,0.06522774,-0.3355791,0.7958605,0.008926781,-0.08048566,0.01156246,0.002366965,-0.3669634,0.02592279,0.1299894,0.01579655,0.0.0.0,10.147.103.29,5,automotive,2,2014-11-08 18:45:15.925,0,2014-11-08 18:09:32.682,0
2014-11-08 18:45:19.313,125,62.5,37.44592,-122.1678,15.82657,3.2,308.706,3,5,1415501119,0.03845215,0.2135315,-1.0401,-6.418246,84.28397,-12.4632,22.78661,9.092007,25,0.123331,0.005228318,-0.3410189,0.6071511,0.01844367,-0.0748668,0.05488725,-0.002805107,-0.3703361,0.01848953,0.1386125,0.07506263,0.0.0.0,10.147.103.29,5,automotive,2,2014-11-08 18:45:15.925,0,2014-11-08 18:09:32.682,0
2014-11-08 18:45:19.813,126,63,37.44592,-122.1678,15.82657,3.2,308.706,3,5,1415501119,-0.06938171,0.1259613,-0.9559174,-1.326127,83.77541,-10.65546,54.74122,41.04662,26,0.1244128,0.0003534015,-0.3164333,0.4130115,0.01001454,-0.0564311,0.06212609,-0.06493904,-0.3524059,-0.008731953,0.09997091,-0.03807987,0.0.0.0,10.147.103.29,5,automotive,2,2014-11-08 18:45:15.925,0,2014-11-08 18:09:32.682,0
2014-11-08 18:45:20.312,127,63.5,37.44592,-122.1678,15.82657,3.2,308.706,3,5,1415501119,-0.1094818,0.02000427,-0.9708862,2.467332,83.80932,-10.81985,27.14462,13.45001,25,0.04848231,0.1056934,-0.2182482,0.2723892,0.009475967,-0.03939747,0.008418213,-0.03306534,-0.254575,-0.1284107,0.1561389,0.1127503,0.0.0.0,10.147.103.29,5,automotive,2,2014-11-08 18:45:15.925,0,2014-11-08 18:09:32.682,0
2014-11-08 18:45:20.815,128,64,37.44593,-122.1678,16.02707,4.69,308.706,4,5,1415501120,0.02384949,0.2049255,-0.940094,4.517846,84.28397,-10.42545,15.90349,2.208887,25,0.1084556,-0.08463686,-0.1521762,0.1574772,0.007840414,-0.02165292,0.02314572,0.1934484,-0.1836208,-0.1641038,0.2270976,0.2425632,0.0.0.0,10.147.103.29,5,automotive,2,2014-11-08 18:45:15.925,0,2014-11-08 18:09:32.682,0
2014-11-08 18:45:21.290,129,64.5,37.44593,-122.1678,16.02707,4.69,308.706,4,5,1415501120,-0.03134155,-0.04608154,-1.088837,5.235532,83.97884,-10.12961,87.20725,73.51265,26,0.05344112,-0.08886596,-0.05864174,0.08299824,0.009793799,-0.01374674,-6.32476e-05,-0.1790341,-0.1004668,-0.2644314,-0.007902192,0.06411232,0.0.0.0,10.147.103.29,5,automotive,2,2014-11-08 18:45:15.925,0,2014-11-08 18:09:32.682,0
2014-11-08 18:45:21.813,130,65,37.44596,-122.1679,15.33124,6.17,308.706,3,5,1415501121,-0.04299927,0.0592041,-1.144577,6.363313,85.16546,-9.899597,24.08882,10.39421,25,0.1112056,0.09026705,0.0451531,0.06517072,-0.02928899,-0.02238686,0.0008146448,0.08983926,-0.002069036,0.02531018,-0.07025181,-0.1403278,0.0.0.0,10.147.103.29,5,automotive,2,2014-11-08 18:45:15.925,0,2014-11-08 18:09:32.682,0
2014-11-08 18:45:22.313,131,65.5,37.446,-122.168,15.47321,8.29,308.4773,3,5,1415501122,-0.0276947,-0.0435791,-1.105026,5.269702,86.99624,-11.21436,9.314661,355.6201,25,0.03584348,0.0396297,0.01513448,0.06438338,-0.02861336,-0.02749824,-0.02382503,0.06885519,-0.01067536,0.007785654,-0.01684414,-0.06455372,0.0.0.0,10.147.103.29,5,automotive,2,2014-11-08 18:45:15.925,0,2014-11-08 18:09:32.682,0
2014-11-08 18:45:22.810,132,66,37.446,-122.168,15.47321,8.29,308.4773,3,5,1415501122,-0.05612183,0.1825562,-0.9947357,6.158263,85.64011,-11.21429,8.710016,355.0154,25,0.09276589,0.04424816,0.0151904,0.0602421,-0.04223231,-0.02866014,0.01070651,0.04126795,-0.00352191,-0.02772861,-0.0701296,0.08370475,0.0.0.0,10.147.103.29,5,automotive,2,2014-11-08 18:45:15.925,0,2014-11-08 18:09:32.682,0
2014-11-08 18:45:23.314,133,66.5,37.446,-122.168,15.47321,8.29,308.4773,3,5,1415501122,-0.005249023,-0.08105469,-1.005081,5.577281,85.06374,-11.57587,9.204615,355.51,25,0.0927121,-0.07892597,-0.003130812,0.05757033,-0.03122189,-0.03848625,0.02568387,-0.08556829,-0.01535508,0.05348679,-0.1666811,-0.1352455,0.0.0.0,10.147.103.29,5,automotive,2,2014-11-08 18:45:15.925,0,2014-11-08 18:09:32.682,0
2014-11-08 18:45:23.812,134,67,37.44606,-122.168,13.91861,9.84,308.4773,3,5,1415501123,-0.0329895,0.03573608,-1.024323,6.260793,85.40278,-10.85278,9.168848,355.4742,25,0.04197195,0.02345313,0.02115109,0.05575638,-0.03729646,-0.02635502,-0.01494726,-0.01081194,-0.003362863,0.02557137,0.06076045,-0.03021727,0.0.0.0,10.147.103.29,5,automotive,2,2014-11-08 18:45:23.486,0,2014-11-08 18:09:32.682,0
2014-11-08 18:45:24.313,135,67.5,37.44611,-122.1681,14.55054,9.84,308.4773,3,5,1415501124,0.02015686,-0.02713013,-1.011353,6.602546,85.47058,-10.98425,9.065393,355.3708,25,0.05195827,0.144052,0.03329537,0.05800622,-0.03432472,-0.01723215,-0.02214734,0.0598537,0.01002329,0.0411946,-0.03081162,-0.00285839,0.0.0.0,10.147.103.29,5,automotive,2,2014-11-08 18:45:23.486,0,2014-11-08 18:09:32.682,0
2014-11-08 18:45:24.809,136,68,37.44611,-122.1681,14.55054,9.84,308.4773,3,5,1415501124,0.08874512,0.2743683,-0.9257202,6.021564,85.43668,-11.08282,9.533442,355.8388,25,0.07775791,0.0008953548,0.03204529,0.06266582,-0.03265108,-0.02283711,0.03337025,-0.1087045,0.03358237,0.06638921,0.06751216,-0.007019202,0.0.0.0,10.147.103.29,5,automotive,2,2014-11-08 18:45:23.486,0,2014-11-08 18:09:32.682,0
2014-11-08 18:45:25.312,137,68.5,37.44611,-122.1681,14.55054,9.84,308.4773,3,5,1415501124,0.04615784,-0.06497192,-1.068329,6.739242,85.674,-10.91843,9.272974,355.5784,25,0.06661418,0.02959571,0.0396827,0.06697881,-0.02020453,-0.01305473,0.004133729,-0.06072547,0.003486263,0.06471132,0.08563949,0.01280274,0.0.0.0,10.147.103.29,5,automotive,2,2014-11-08 18:45:23.486,0,2014-11-08 18:09:32.682,0
2014-11-08 18:45:25.813,138,69,37.44619,-122.1682,13.48486,11.64,308.4773,3,5,1415501125,0.07592773,0.04309082,-1.011887,6.260789,85.33497,-11.1156,9.630762,355.9362,25,0.05059207,0.01471636,0.02600231,0.07030389,-0.01438224,-0.004599477,-0.02027655,0.02310121,0.008049572,0.09691638,0.03557693,-0.07114366,0.0.0.0,10.147.103.29,5,automotive,2,2014-11-08 18:45:23.486,0,2014-11-08 18:09:32.682,0
2014-11-08 18:45:26.311,139,69.5,37.44619,-122.1682,13.48486,11.64,308.4773,3,5,1415501125,0.1747437,-0.02833557,-1.018387,6.124087,84.72471,-11.70728,9.74795,356.0533,25,0.1025583,0.06044151,0.03626906,0.07276918,-0.01002313,-0.004004012,0.01075146,-0.06108462,0.004866148,0.09458709,-0.05377817,0.1063413,0.0.0.0,10.147.103.29,5,automotive,2,2014-11-08 18:45:23.486,0,2014-11-08 18:09:32.682,0
2014-11-08 18:45:26.789,140,70,37.44625,-122.1683,15.15106,12.47,308.4773,3,5,1415501126,0.1746063,0.03942871,-1.083786,6.807597,83.84322,-9.800934,9.394617,355.7,25,0.06169532,0.01840377,0.03219469,0.07524274,0.01954429,0.0007224477,0.02836274,0.02667585,0.008018531,0.07860149,-0.06107565,-0.002922568,0.0.0.0,10.147.103.29,5,automotive,2,2014-11-08 18:45:23.486,0,2014-11-08 18:09:32.682,0
2014-11-08 18:45:27.310,141,70.5,37.44632,-122.1684,15.79688,12.48,308.4773,3,5,1415501127,0.111908,-0.04234314,-1.007828,7.183524,84.28397,-8.913544,8.73974,355.0451,25,0.05418041,-0.0001533981,0.04311232,0.08169922,0.03181203,0.01265152,-0.02480337,0.01945126,0.01405654,0.07007881,-0.01971271,0.01754149,0.0.0.0,10.147.103.29,5,automotive,2,2014-11-08 18:45:23.486,0,2014-11-08 18:09:32.682,0
2014-11-08 18:45:27.811,142,71,37.44632,-122.1684,15.79688,12.48,308.4773,3,5,1415501127,0.1392822,0.02023315,-1.050568,7.93538,83.33467,-8.650604,8.796869,355.1023,25,0.04798643,0.05216254,0.05588404,0.09287632,0.05876128,0.01610386,-0.02106743,0.05811718,0.01931831,0.119396,-0.01745092,-0.04515983,0.0.0.0,10.147.103.29,5,automotive,2,2014-11-08 18:45:23.486,0,2014-11-08 18:09:32.682,0
2014-11-08 18:45:28.312,143,71.5,37.4464,-122.1686,17.21075,11.94,308.4773,4,5,1415501128,0.1249084,-0.01338196,-0.9564056,8.345483,83.80932,-9.439453,8.684961,354.9904,25,0.06910211,0.08059818,0.04875103,0.1023538,0.06060171,0.01139327,0.001286822,0.01402281,0.02245818,0.05087424,-0.03226237,0.03623121,0.0.0.0,10.147.103.29,5,automotive,2,2014-11-08 18:45:23.486,0,2014-11-08 18:09:32.682,0
2014-11-08 18:45:28.810,144,72,37.4464,-122.1686,17.21075,11.94,308.4773,4,5,1415501128,0.1290741,0.01266479,-0.9635315,7.320228,83.94493,-9.439484,8.733667,355.0391,25,0.06909252,0.0731376,0.04868551,0.1114414,0.08995407,0.01131097,-0.006042172,0.02250834,0.02221373,-0.006453034,0.02115265,0.008634239,0.0.0.0,10.147.103.29,5,automotive,2,2014-11-08 18:45:23.486,0,2014-11-08 18:09:32.682,0
2014-11-08 18:45:29.313,145,72.5,37.44646,-122.1686,18.43066,11.17,308.4773,4,5,1415501129,0.1018372,0.004379272,-0.9561157,7.3544,84.31787,-9.406586,8.779627,355.085,25,0.08888513,-0.01161378,0.03070705,0.1182858,0.09970804,0.002645559,0.01626394,-0.02997224,0.01019327,-0.02271456,-0.00861543,0.04884754,0.0.0.0,10.147.103.29,5,automotive,2,2014-11-08 18:45:23.486,0,2014-11-08 18:09:32.682,0
2014-11-08 18:45:29.811,146,73,37.44646,-122.1686,18.43066,11.17,308.4773,4,5,1415501129,0.1512451,-0.01539612,-1.051758,8.345485,83.26686,-8.321899,8.782434,355.0878,25,0.03702007,0.04464363,0.02626143,0.1200568,0.1069472,0.005890981,-0.01827642,-0.003604591,0.00858518,0.01110205,-0.01031389,0.007681822,0.0.0.0,10.147.103.29,5,automotive,2,2014-11-08 18:45:23.486,0,2014-11-08 18:09:32.682,0
2014-11-08 18:45:30.313,147,73.5,37.44652,-122.1687,18.42715,10.45,308.4773,4,5,1415501130,0.186676,-0.0423584,-1.161804,7.79868,84.08054,-9.636658,8.925043,355.2304,25,0.1171775,-0.1523096,0.02701644,0.1214792,0.1041744,-0.008511059,0.05369962,0.0680775,0.01118244,0.1028811,-0.06577719,-0.1800026,0.0.0.0,10.147.103.29,5,automotive,2,2014-11-08 18:45:23.486,0,2014-11-08 18:09:32.682,0
2014-11-08 18:45:30.812,148,74,37.44652,-122.1687,18.42715,10.45,308.4773,4,5,1415501130,0.1013794,0.04032898,-1.079575,7.661983,84.21616,-9.373657,8.98089,355.2863,25,0.0715357,-0.01521997,0.0343649,0.1229657,0.1079403,-0.009850547,0.003055309,-0.0273848,0.001276248,0.02621606,0.05815804,-0.1341488,0.0.0.0,10.147.103.29,5,automotive,2,2014-11-08 18:45:23.486,0,2014-11-08 18:09:32.682,0
2014-11-08 18:45:31.313,149,74.5,37.44658,-122.1688,18.89105,10.44,307.6657,4,5,1415501131,0.1135406,-0.004333496,-0.9967041,8.482188,83.94493,-8.979187,9.047327,355.3527,25,0.0369684,0.0160554,0.02847319,0.124884,0.1070172,-0.007696666,-0.009197892,-0.03849235,0.001877936,0.03437965,-0.02570196,-0.04365316,0.0.0.0,10.147.103.29,5,automotive,2,2014-11-08 18:45:23.486,0,2014-11-08 18:09:32.682,0
2014-11-08 18:45:31.810,150,75,37.44658,-122.1688,18.89105,10.44,307.6657,4,5,1415501131,0.1894226,0.01286316,-1.033585,6.910119,84.35178,-8.716278,9.081446,355.3868,25,0.05782894,0.008580705,0.05550401,0.1305466,0.1095062,-0.004098351,0.003283863,0.04243715,0.02671792,0.06046751,-0.03237288,-0.06643822,0.0.0.0,10.147.103.29,5,automotive,2,2014-11-08 18:45:23.486,0,2014-11-08 18:09:32.682,0
2014-11-08 18:45:32.296,151,75.5,37.44663,-122.1689,19.08768,10.52,307.6657,4,5,1415501132,0.1652222,-0.1137238,-0.9391937,6.260789,83.77541,-8.486176,9.225489,355.5309,25,0.05504062,0.02002138,0.1097854,0.1529388,0.1297521,0.01548025,-0.006909784,-0.008098547,0.07784432,0.04424169,0.01102407,0.02687558,0.0.0.0,10.147.103.29,5,automotive,2,2014-11-08 18:45:23.486,0,2014-11-08 18:09:32.682,0
2014-11-08 18:45:32.810,152,76,37.44663,-122.1689,19.08768,10.52,307.6657,4,5,1415501132,0.2176666,-0.2130737,-1.070908,4.210271,82.69051,-8.749176,9.644495,355.9499,25,0.02992062,0.0254212,0.1726274,0.2114796,0.1510633,0.04516627,-0.007233237,-0.0225637,0.1466955,0.07904942,-0.1297759,-0.02910496,0.0.0.0,10.147.103.29,5,automotive,2,2014-11-08 18:45:23.486,0,2014-11-08 18:09:32.682,0
