time,timestamp,recordtime,lat,long,alt,speed,course,verticalAccuracy,horizontalAccuracy,locTimeStamp,accelerationX,accelerationY,accelerationZ,HeadingX,HeadingY,HeadingZ,TrueHeading,MagneticHeading,HeadingAccuracy,RotationX,RotationY,RotationZ,motionYaw,motionRoll,motionPitch,motionRotationRateX,motionRotationRateY,motionRotationRateZ,motionUserAccelerationX,motionUserAccelerationY,motionUserAccelerationZ,en0,pdp_ip0,DeviceOrientation,Activity,Activity Confidence,Activity Start,Steps,Last Step Date,State
2014-11-07 12:59:05.069,1,0.5,37.77722,-122.404,6.213593,0,330.8203,4,5,1415393944,0.05000305,-0.848877,-0.4689636,-28.70288,17.1054,-0.6781616,88.42773,74.62227,25,0.03830904,0.05580015,0.02020274,-0.5893022,0.1156648,1.040758,-0.02059419,0.02455393,-7.186387e-05,-0.01516362,0.01825925,0.01723394,0.0.0.0,10.62.21.216,1,automotive,2,2014-11-07 12:59:01.051,0,2014-11-07 12:53:30.730,0
2014-11-07 12:59:05.569,2,1,37.77722,-122.404,5.928375,0,331.1719,4,5,1415393945,0.04849243,-0.8629761,-0.4541779,-28.9082,16.0858,1.436951,90.43451,76.62904,25,-0.01005716,0.1146757,0.05149169,-0.5886102,0.07556281,1.029161,-0.0331042,0.05708505,0.02729695,-0.001900626,0.01250632,0.04255515,0.0.0.0,10.62.21.216,1,automotive,2,2014-11-07 12:59:01.051,0,2014-11-07 12:53:30.730,0
2014-11-07 12:59:06.068,3,1.5,37.77722,-122.404,5.928375,0,331.1719,4,5,1415393945,0.04994202,-0.8652039,-0.4914551,-28.46333,15.84788,0.08197021,88.62885,74.82339,25,-0.06420828,0.07373734,-0.005526858,-0.6025751,0.09469132,1.035063,-0.1046683,-0.006104676,-0.02624903,-0.005662537,0.01089528,0.03426255,0.0.0.0,10.62.21.216,1,automotive,2,2014-11-07 12:59:01.051,0,2014-11-07 12:53:30.730,0
2014-11-07 12:59:06.571,4,2,37.77722,-122.404,5.820526,0,333.9844,4,5,1415393946,0.05371094,-0.8658447,-0.5066376,-28.56599,16.35767,-0.0171814,90.59891,76.79345,25,-0.01962377,0.07094049,-0.01292778,-0.6079178,0.1035091,1.032864,-0.07616916,0.03722771,-0.03078954,-0.0002813063,0.000936201,0.005727886,0.0.0.0,10.62.21.216,1,automotive,2,2014-11-07 12:59:01.051,0,2014-11-07 12:53:30.730,0
2014-11-07 12:59:07.068,5,2.5,37.77722,-122.404,5.820526,0,333.9844,4,5,1415393946,0.05525208,-0.8578949,-0.5526581,-29.42151,16.05181,0.2803345,90.43993,76.63446,25,0.02261184,0.07304758,-0.0399887,-0.6264373,0.1380011,1.027899,-0.05761892,0.04092379,-0.04914498,-0.009925918,-0.01297098,-0.02328096,0.0.0.0,10.62.21.216,1,automotive,2,2014-11-07 12:59:01.051,0,2014-11-07 12:53:30.730,0
2014-11-07 12:59:07.568,6,3,37.77722,-122.404,5.795441,0,333.9844,4,5,1415393947,0.09487915,-0.2776184,-0.7415314,-27.67625,27.30132,-1.537384,66.71777,52.91231,25,-2.365018,1.055188,3.990978,0.05349696,-0.1668164,0.6890544,-1.515471,0.9773183,5.070372,0.4029255,0.3441206,0.008203428,0.0.0.0,10.62.21.216,1,automotive,2,2014-11-07 12:59:01.051,0,2014-11-07 12:53:30.730,0
2014-11-07 12:59:08.069,7,3.5,37.77722,-122.404,5.795441,0,333.9844,4,5,1415393947,-0.2399139,0.5901489,-1.270874,27.76151,50.00428,14.52441,349.7865,335.981,25,1.813848,-0.6614667,-0.5446721,1.197269,-0.2473439,0.08963498,1.926753,-1.652684,-0.4216242,-0.227955,0.6946023,-0.7960297,0.0.0.0,10.62.21.216,1,automotive,2,2014-11-07 12:59:01.051,0,2014-11-07 12:53:30.730,0
2014-11-07 12:59:08.571,8,4,37.7772,-122.404,5.685425,0.49,308.6719,4,5,1415393948,0.3565521,0.01669312,-0.9801178,-12.31109,54.32056,-3.288879,42.74032,28.93486,26,-2.975426,-0.8401586,-1.054872,0.2512693,0.1393581,0.3254434,-2.5769,-0.857268,-0.6830688,0.4001374,0.3061943,-0.4317481,0.0.0.0,10.62.21.216,1,automotive,2,2014-11-07 12:59:01.051,0,2014-11-07 12:53:30.730,0
2014-11-07 12:59:09.068,9,4.5,37.7772,-122.404,5.685425,0.49,308.6719,4,5,1415393948,-0.02191162,-0.1661682,-0.910965,-12.99551,56.2238,8.542603,45.73591,31.93044,26,0.2163041,-0.07711023,0.02031513,0.2268307,-0.03876789,0.1947011,0.1766908,-0.04207652,0.01342935,-0.0005788698,0.006980383,0.006781321,0.0.0.0,10.62.21.216,1,automotive,2,2014-11-07 12:59:08.934,0,2014-11-07 12:53:30.730,0
2014-11-07 12:59:09.572,10,5,37.77719,-122.404,5.646362,0.24,336.4453,4,5,1415393949,-0.07579041,-0.2384491,-1.006775,-12.99551,56.6996,7.286743,45.71194,31.90648,26,-0.03938442,0.09344047,-0.01396695,0.2277769,-0.04659901,0.1964047,-0.09032644,-0.009506241,-0.02820602,0.003618102,-0.004928805,-0.04455163,0.0.0.0,10.62.21.216,5,automotive,2,2014-11-07 12:59:08.934,0,2014-11-07 12:53:30.730,0
2014-11-07 12:59:10.070,11,5.5,37.77719,-122.404,5.646362,0.24,336.4453,4,5,1415393949,0.02886963,-0.1973572,-1.038513,-12.58486,57.65123,7.286804,45.74202,31.93656,26,-0.02346085,0.07229763,0.008016914,0.2283783,-0.04717685,0.1946152,0.05294687,0.01096058,0.009024391,-0.02651533,-0.02255334,0.003178118,0.0.0.0,10.62.21.216,5,automotive,2,2014-11-07 12:59:08.934,0,2014-11-07 12:53:30.730,0
2014-11-07 12:59:10.574,12,6,37.77719,-122.4039,5.520111,0.22,339.9609,4,5,1415393950,-0.0433197,-0.1920013,-1.0495,-12.55063,56.39373,7.386047,45.55404,31.74858,26,0.07167313,0.02201902,0.01991512,0.2287092,-0.04604926,0.18852,0.06399821,-0.04003128,0.001270115,0.01157178,0.003002858,0.03772941,0.0.0.0,10.62.21.216,5,automotive,1,2014-11-07 12:59:10.510,0,2014-11-07 12:53:30.730,0
2014-11-07 12:59:11.050,13,6.5,37.77719,-122.4039,5.520111,0.22,339.9609,4,5,1415393950,-0.0587616,-0.1807404,-0.9394989,-12.92706,55.81596,7.61731,46.04269,32.23723,26,0.1410037,0.0364917,0.01636672,0.2196791,-0.04309116,0.1859266,0.135624,0.05186091,0.02948596,0.004127391,0.02642527,-0.07330742,0.0.0.0,10.62.21.216,5,automotive,1,2014-11-07 12:59:10.510,0,2014-11-07 12:53:30.730,0
2014-11-07 12:59:11.569,14,7,37.77718,-122.4039,5.586395,0.3,340.3125,4,5,1415393951,-0.05592346,-0.1855316,-0.9483948,-12.72174,56.56366,7.286835,46.25285,32.44739,26,0.1199371,0.02295592,0.01870498,0.2183099,-0.04084081,0.1772104,0.03532881,-0.03932431,0.01052827,0.00707847,0.01997332,-0.05467428,0.0.0.0,10.62.21.216,5,automotive,1,2014-11-07 12:59:10.510,0,2014-11-07 12:53:30.730,0
2014-11-07 12:59:12.058,15,7.5,37.77718,-122.4039,5.586395,0.3,340.3125,4,5,1415393951,-0.04374695,-0.171402,-1.033264,-13.09817,56.80157,7.58432,46.33555,32.53009,26,0.08395509,-0.01408572,0.02698981,0.2176306,-0.03985607,0.1808971,0.06866891,-0.02068558,0.02203326,-0.001774504,0.004085093,0.01636402,0.0.0.0,10.62.21.216,5,automotive,1,2014-11-07 12:59:10.510,0,2014-11-07 12:53:30.730,0
2014-11-07 12:59:12.572,16,8,37.77718,-122.4039,4.917755,0,341.0156,4,5,1415393952,-0.04885864,-0.1821136,-0.9963837,-13.95369,56.69961,7.286926,46.33473,32.52927,26,0.1547717,0.06616384,-0.003071424,0.2175134,-0.04114802,0.1805383,-0.07343079,0.001369533,-0.005765403,0.00296172,0.01639687,-0.01247736,0.0.0.0,10.62.21.216,5,automotive,1,2014-11-07 12:59:10.510,0,2014-11-07 12:53:30.730,0
2014-11-07 12:59:13.075,17,8.5,37.77718,-122.4039,4.917755,0,341.0156,4,5,1415393952,-0.03633118,-0.1825562,-0.9724731,-13.50882,56.4617,7.716553,46.4081,32.60264,26,0.07676189,0.06669301,0.006763364,0.2165163,-0.03870194,0.1754052,0.01319113,-0.000330959,-0.001620112,0.001309639,-0.01071931,-0.04072437,0.0.0.0,10.62.21.216,5,automotive,1,2014-11-07 12:59:10.510,0,2014-11-07 12:53:30.730,0
2014-11-07 12:59:13.568,18,9,37.77718,-122.4039,4.948212,0,341.0156,4,5,1415393953,-0.02632141,-0.1535034,-0.9839325,-12.00311,55.51008,8.11319,46.39127,32.5858,26,0.09415287,0.01550839,-0.01584661,0.2172442,-0.03999985,0.1763646,0.05907365,0.001883873,-0.001107907,-0.003813498,-0.02044056,0.00547484,0.0.0.0,10.62.21.216,5,automotive,1,2014-11-07 12:59:10.510,0,2014-11-07 12:53:30.730,0
2014-11-07 12:59:14.069,19,9.5,37.77718,-122.4039,4.948212,0,341.0156,4,5,1415393953,-0.04325867,-0.1783295,-1.024963,-12.8244,56.4617,7.51828,46.35611,32.55065,26,0.08158913,0.03563496,0.02003736,0.217187,-0.04001615,0.1747908,-0.007798954,-0.01630744,0.01635598,0.006757353,-0.008516685,0.007351063,0.0.0.0,10.62.21.216,5,automotive,1,2014-11-07 12:59:10.510,0,2014-11-07 12:53:30.730,0
2014-11-07 12:59:14.568,20,10,37.77718,-122.4039,4.876526,0,341.0156,4,10,1415393954,-0.0533905,-0.1861115,-0.958252,-13.33772,56.83555,7.881866,46.33635,32.53089,26,-0.08164933,0.08015316,0.01545858,0.2197753,-0.04331239,0.1802915,0.1148487,-0.03456169,0.006688003,-0.007528082,-0.007039221,-0.03525861,0.0.0.0,10.62.21.216,5,automotive,1,2014-11-07 12:59:10.510,0,2014-11-07 12:53:30.730,0
2014-11-07 12:59:15.068,21,10.5,37.77718,-122.4039,4.876526,0,341.0156,4,10,1415393954,-0.04017639,-0.1759949,-1.023819,-12.55064,56.73359,7.782684,46.23655,32.43109,26,0.08043439,0.07665457,0.01547163,0.2213041,-0.04310633,0.1799774,0.007354302,-0.04640163,0.004487964,-0.0004802673,-0.003869243,0.02767258,0.0.0.0,10.62.21.216,5,automotive,1,2014-11-07 12:59:10.510,0,2014-11-07 12:53:30.730,0
2014-11-07 12:59:15.569,22,11,37.77718,-122.4039,4.911621,0,341.0156,4,10,1415393955,-0.04161072,-0.175766,-1.112518,-12.44798,56.69961,7.947937,46.14073,32.33527,26,0.1954398,-0.008648882,0.007365238,0.2224703,-0.04163548,0.1793819,-0.1544824,0.04532485,0.003053925,-0.009779903,-0.007216978,0.1027456,0.0.0.0,10.62.21.216,5,automotive,2,2014-11-07 12:59:15.240,0,2014-11-07 12:53:30.730,0
2014-11-07 12:59:16.069,23,11.5,37.77718,-122.4039,4.911621,0,341.0156,4,10,1415393955,-0.05397034,-0.1873779,-1.006195,-13.61148,56.42772,7.551453,46.12129,32.31583,26,0.1472227,-0.002151834,0.002483664,0.2236125,-0.04345544,0.1806532,-0.1098989,0.05619088,-0.0005119073,-0.009572309,0.0006408174,-0.006368397,0.0.0.0,10.62.21.216,5,automotive,2,2014-11-07 12:59:15.240,0,2014-11-07 12:53:30.730,0
2014-11-07 12:59:16.569,24,12,37.77718,-122.4039,4.958374,0,341.0156,4,10,1415393956,-0.05519104,-0.1873779,-0.9832764,-12.6533,57.17542,8.080231,46.1068,32.30134,26,0.06930078,0.04934198,0.009071792,0.2239842,-0.04234777,0.1821248,-0.03449212,0.02087928,0.00287658,0.02393474,-0.002245239,-0.0289105,0.0.0.0,10.62.21.216,5,automotive,1,2014-11-07 12:59:16.501,0,2014-11-07 12:53:30.730,0
2014-11-07 12:59:17.070,25,12.5,37.77718,-122.4039,4.958374,0,341.0156,4,10,1415393956,-0.04293823,-0.1832886,-0.9328308,-13.54304,56.15582,7.683594,46.05894,32.25348,26,-0.07790439,0.06517155,0.006708236,0.224924,-0.04072767,0.1812678,0.1114836,-0.01366398,-0.001113497,-0.005879646,-0.001333407,-0.05505679,0.0.0.0,10.62.21.216,5,automotive,1,2014-11-07 12:59:16.501,0,2014-11-07 12:53:30.730,0
2014-11-07 12:59:17.494,26,13,37.77718,-122.4039,4.99408,0,341.0156,4,10,1415393957,-0.04258728,-0.1784668,-1.093643,-13.16661,56.12183,7.848816,46.02676,32.22129,26,-0.01849832,0.08843666,0.009391371,0.2259231,-0.0415785,0.1855841,0.1028315,-0.03229801,-0.003763677,-0.005152481,-0.0030709,-0.06501786,0.0.0.0,10.62.21.216,5,automotive,1,2014-11-07 12:59:16.501,0,2014-11-07 12:53:30.730,0
2014-11-07 12:59:18.069,27,13.5,37.77718,-122.4039,4.99408,0,341.0156,4,10,1415393957,-0.0422821,-0.1758881,-0.9814453,-13.02973,56.52967,8.509766,45.96762,32.16216,26,-0.13483,0.07549023,0.01047768,0.2272817,-0.0410814,0.1840741,0.1720905,-0.04395098,-0.0001873495,0.001420333,0.005027279,-0.151726,0.0.0.0,10.62.21.216,5,automotive,1,2014-11-07 12:59:16.501,0,2014-11-07 12:53:30.730,0
2014-11-07 12:59:18.569,28,14,37.77718,-122.4039,5.028992,0,341.0156,4,10,1415393958,-0.03952026,-0.1718597,-1.026581,-12.79018,56.83555,8.014038,45.93834,32.13288,26,-0.007422762,0.04733929,0.01026489,0.2282472,-0.0408617,0.1778684,-0.01340794,0.01679169,-0.005898013,-0.003892063,0.004858684,-0.0003326152,0.0.0.0,10.62.21.216,5,automotive,1,2014-11-07 12:59:16.501,0,2014-11-07 12:53:30.730,0
2014-11-07 12:59:19.068,29,14.5,37.77718,-122.4039,5.028992,0,341.0156,4,10,1415393958,-0.04415894,-0.1707153,-1.025742,-12.37953,56.83556,8.278381,45.92211,32.11665,26,0.08282484,0.01695981,0.0161795,0.2293779,-0.04148942,0.1779586,-0.01965485,0.02174634,0.003948289,0.0001730559,0.006000284,0.01781449,0.0.0.0,10.62.21.216,5,automotive,1,2014-11-07 12:59:16.501,0,2014-11-07 12:53:30.730,0
2014-11-07 12:59:19.569,30,15,37.77718,-122.4039,5.073273,0,341.0156,4,10,1415393959,-0.06713867,-0.1841125,-0.97995,-12.41376,56.52968,7.650421,45.90014,32.09468,26,0.09538005,0.0889376,0.002038117,0.2303545,-0.04214919,0.1777762,-0.04310929,0.03293474,-0.002175284,0.00250166,0.008872509,-0.03676111,0.0.0.0,10.62.21.216,5,automotive,1,2014-11-07 12:59:16.501,0,2014-11-07 12:53:30.730,0
2014-11-07 12:59:20.069,31,15.5,37.77718,-122.4039,5.073273,0,341.0156,4,10,1415393959,-0.0680542,-0.1798096,-0.9329071,-12.89285,56.66562,8.377502,45.87563,32.07017,26,0.09783176,0.08271565,0.004446947,0.2311223,-0.04207856,0.1780525,-0.05065991,-0.03675495,0.004530534,0.009876437,0.003697102,-0.06669901,0.0.0.0,10.62.21.216,5,automotive,2,2014-11-07 12:59:19.654,0,2014-11-07 12:53:30.730,0
2014-11-07 12:59:20.569,32,16,37.77718,-122.4039,4.963043,0,341.0156,4,10,1415393960,-0.01879883,-0.1812897,-0.9456635,-12.41376,56.39373,7.914764,45.8498,32.04433,26,0.08415536,0.0604455,0.0104047,0.2318645,-0.04291319,0.1779892,-0.03335785,-0.03451322,0.009411944,0.02827574,-0.002255142,-0.05111296,0.0.0.0,10.62.21.216,5,automotive,2,2014-11-07 12:59:19.654,0,2014-11-07 12:53:30.730,0
2014-11-07 12:59:21.069,33,16.5,37.77718,-122.4039,4.963043,0,341.0156,4,10,1415393960,-0.03771973,-0.1661987,-0.9861603,-13.33772,56.56366,8.674866,45.82135,32.01589,26,0.001234642,0.05599989,0.01280608,0.2325821,-0.04338123,0.1784216,0.05339512,-0.01165546,-0.0001190553,0.02722201,-0.008116225,-0.0194406,0.0.0.0,10.62.21.216,5,automotive,2,2014-11-07 12:59:19.654,0,2014-11-07 12:53:30.730,0
2014-11-07 12:59:21.569,34,17,37.77718,-122.4039,4.91626,0,341.0156,4,10,1415393961,-0.05134583,-0.1652374,-1.02478,-13.26927,56.83556,7.947784,45.79409,31.98863,26,0.04826127,0.05694451,0.01159567,0.2335215,-0.04427838,0.1780381,0.09673181,-0.01081189,0.002426934,0.009994897,-0.01539056,0.01862879,0.0.0.0,10.62.21.216,5,automotive,2,2014-11-07 12:59:19.654,0,2014-11-07 12:53:30.730,0
2014-11-07 12:59:22.069,35,17.5,37.77718,-122.4039,4.91626,0,341.0156,4,10,1415393961,-0.04972839,-0.1710663,-1.025955,-12.68752,56.12184,7.716553,45.76258,31.95712,26,0.01108781,0.03232358,0.01506364,0.2340068,-0.04311528,0.1775533,0.05226681,0.02046125,0.002716714,-0.00948609,-0.01243455,0.007198302,0.0.0.0,10.62.21.216,5,automotive,2,2014-11-07 12:59:19.654,0,2014-11-07 12:53:30.730,0
2014-11-07 12:59:22.569,36,18,37.77718,-122.4039,4.966553,0,341.0156,4,10,1415393962,-0.04420471,-0.1832886,-1.032761,-12.72174,56.35974,8.080078,45.72982,31.92435,26,-0.01976758,0.04615178,0.005325523,0.2348277,-0.04357909,0.1783308,0.05853204,-0.007118145,-0.008584816,-0.003909042,-0.01527042,-0.002205794,0.0.0.0,10.62.21.216,5,automotive,2,2014-11-07 12:59:19.654,0,2014-11-07 12:53:30.730,0
2014-11-07 12:59:23.040,37,18.5,37.77718,-122.4039,4.966553,0,341.0156,4,10,1415393962,-0.04795837,-0.1783905,-0.9625397,-12.10577,55.54407,7.749573,45.69844,31.89297,26,0.1039911,0.06153873,0.004262656,0.2349643,-0.04218517,0.1729339,-0.05785923,-0.001477207,0.004863041,0.01128544,-0.01104747,-0.05232178,0.0.0.0,10.62.21.216,5,automotive,2,2014-11-07 12:59:19.654,0,2014-11-07 12:53:30.730,0
2014-11-07 12:59:23.568,38,19,37.77718,-122.4039,5.023376,0,341.0156,4,10,1415393963,-0.05500793,-0.1914062,-0.965271,-13.09817,56.39373,8.707947,45.66378,31.85832,26,0.1249662,0.03282453,0.007710384,0.2359862,-0.04311,0.1771948,-0.03922084,0.02065005,0.001210447,-0.003964878,0.004561823,-0.008042843,0.0.0.0,10.62.21.216,5,automotive,2,2014-11-07 12:59:19.654,0,2014-11-07 12:53:30.730,0
2014-11-07 12:59:24.057,39,19.5,37.77718,-122.4039,5.023376,0,341.0156,4,10,1415393963,-0.03916931,-0.1927643,-1.003067,-13.23505,56.05386,7.914825,45.63506,31.82959,26,0.1521682,0.02395593,0.008871255,0.236081,-0.04222965,0.1759757,-0.0948853,0.01838646,-0.001422337,0.004486247,-0.003169028,-0.01444475,0.0.0.0,10.62.21.216,5,automotive,2,2014-11-07 12:59:19.654,0,2014-11-07 12:53:30.730,0
2014-11-07 12:59:24.569,40,20,37.77718,-122.4039,5.025482,0,341.0156,3,10,1415393964,-0.06773376,-0.2243042,-0.9590912,-12.20843,56.93752,7.782562,45.60404,31.79858,26,0.05940181,0.04318129,0.007783621,0.2380331,-0.05203455,0.1973312,0.07595256,-0.01391573,-0.0005412444,-0.02117236,-0.03839826,-0.03815947,0.0.0.0,10.62.21.216,5,automotive,2,2014-11-07 12:59:24.384,0,2014-11-07 12:53:30.730,0
2014-11-07 12:59:25.069,41,20.5,37.77718,-122.4039,5.025482,0,341.0156,3,10,1415393964,-0.1073914,-0.3032379,-0.9434204,-10.80538,57.17542,7.5513,45.57812,31.77266,26,0.04457333,0.07561912,0.01175866,0.2402641,-0.06458035,0.225073,0.001829598,-0.04594241,-0.00216664,-0.04407163,-0.06913515,0.005765841,0.0.0.0,10.62.21.216,5,automotive,2,2014-11-07 12:59:24.384,0,2014-11-07 12:53:30.730,0
2014-11-07 12:59:25.569,42,21,37.77718,-122.4039,5.130981,0,345.2344,3,10,1415393965,-0.163681,-0.4273529,-0.9445343,-11.35291,57.65123,8.013947,45.55422,31.74876,26,0.04943253,0.01715768,0.01370942,0.2502523,-0.103297,0.3038037,-0.01127822,-0.009931357,0.004316199,-0.06211586,-0.1246763,0.0149609,0.0.0.0,10.62.21.216,5,automotive,2,2014-11-07 12:59:24.384,0,2014-11-07 12:53:30.730,0
2014-11-07 12:59:26.068,43,21.5,37.77718,-122.4039,5.130981,0,345.2344,3,10,1415393965,-0.1088562,-0.377533,-0.9293976,-10.97648,58.50089,7.914795,45.50539,31.69993,26,0.05193164,0.04201616,0.01515978,0.2605222,-0.1290057,0.3476663,-0.02713887,-0.001246108,0.008048858,-0.02148955,-0.06090671,-0.06733698,0.0.0.0,10.62.21.216,5,automotive,2,2014-11-07 12:59:24.384,0,2014-11-07 12:53:30.730,0
2014-11-07 12:59:26.569,44,22,37.77716,-122.4039,5.229431,0.82,345.9375,4,10,1415393966,-0.02981567,-0.3165131,-1.038406,-10.29206,58.63684,7.716522,45.4285,31.62304,26,0.004756938,-0.05092097,0.02048796,0.2582828,-0.1126679,0.3288629,-0.02850638,-0.07209323,0.006191505,0.09207663,-0.007736616,-0.1307879,0.0.0.0,10.62.21.216,5,unknown,0,2014-11-07 12:59:26.276,0,2014-11-07 12:53:30.730,0
2014-11-07 12:59:27.069,45,22.5,37.77716,-122.4039,5.229431,0.82,345.9375,4,10,1415393966,-0.1082153,-0.2921906,-0.9547729,-9.402321,59.38454,8.707977,45.20486,31.3994,26,0.1671006,0.07234104,0.005605954,0.2598566,-0.1270722,0.3301201,0.120156,0.02389225,-0.0002423895,0.01496806,0.0148152,0.007254149,0.0.0.0,10.62.21.216,5,unknown,0,2014-11-07 12:59:26.276,0,2014-11-07 12:53:30.730,0
2014-11-07 12:59:27.569,46,23,37.77717,-122.4039,5.094635,0.72,345.9375,4,10,1415393967,-0.1551056,-0.3385162,-0.9848175,-8.854786,60.87994,7.980927,45.33189,31.52643,26,0.1262083,0.01912309,0.003896205,0.2584684,-0.1372613,0.3250776,0.0546132,0.01805605,-0.005232222,-0.0216571,0.003143935,-0.05522927,0.0.0.0,10.62.21.216,5,unknown,0,2014-11-07 12:59:26.276,0,2014-11-07 12:53:30.730,0
2014-11-07 12:59:28.069,47,23.5,37.77717,-122.4039,5.094635,0.72,345.9375,4,10,1415393967,-0.06053162,-0.3495941,-0.9411926,-8.923225,62.03548,7.650421,45.51672,31.71125,26,-0.03821902,0.07232639,-0.00676363,0.2519293,-0.1250502,0.3241371,-0.002496337,-0.07101929,0.01495961,0.04414825,-0.05631072,-0.1109134,0.0.0.0,10.62.21.216,5,unknown,0,2014-11-07 12:59:26.276,0,2014-11-07 12:53:30.730,0
2014-11-07 12:59:28.574,48,24,37.77717,-122.4039,4.628204,1.25,345.9375,4,10,1415393968,-0.1282654,-0.2871704,-0.8545074,-12.79018,63.83676,5.171722,45.53503,31.72957,26,0.1620704,0.05002748,0.01402847,0.2509817,-0.1235017,0.3282191,0.06934357,-0.03165901,0.01408553,-0.01098208,-0.00891055,0.1139379,0.0.0.0,10.62.21.216,5,unknown,0,2014-11-07 12:59:26.276,0,2014-11-07 12:53:30.730,0
2014-11-07 12:59:29.069,49,24.5,37.77717,-122.4039,4.628204,1.25,345.9375,4,10,1415393968,-0.07794189,-0.2437897,-1.030746,-9.265434,63.32697,6.26236,45.37875,31.57329,26,0.01741441,0.06578834,-0.0006490123,0.2517868,-0.111084,0.3004296,-0.1507739,0.03930883,-0.005120747,0.04110159,0.06378336,0.0142024,0.0.0.0,10.62.21.216,5,unknown,0,2014-11-07 12:59:26.276,0,2014-11-07 12:53:30.730,0
2014-11-07 12:59:29.533,50,25,37.77719,-122.4039,4.806152,2.67,317.4609,4,10,1415393969,-0.04901123,-0.2513885,-1.167648,-8.820564,65.40013,5.436218,45.13855,31.33309,26,0.2114459,0.02864416,0.02863085,0.251988,-0.09157716,0.2767485,0.08524158,-0.06153245,0.01868994,0.003405259,-0.02359993,-0.1458569,0.0.0.0,10.62.21.216,5,unknown,0,2014-11-07 12:59:26.276,0,2014-11-07 12:53:30.730,0
2014-11-07 12:59:30.069,51,25.5,37.77719,-122.4039,4.806152,2.67,317.4609,4,10,1415393969,-0.07073975,-0.2450409,-0.9345245,-12.20843,62.17143,6.328552,44.77574,30.97028,26,-0.04337277,0.07001424,0.0264625,0.2618131,-0.1030812,0.3050599,-0.1136542,0.0503593,0.009828581,0.04329246,-0.0086096,0.05580627,0.0.0.0,10.62.21.216,5,unknown,0,2014-11-07 12:59:26.276,0,2014-11-07 12:53:30.730,0
2014-11-07 12:59:30.559,52,26,37.77721,-122.404,5.242767,3.66,316.4062,3,10,1415393970,-0.1029053,-0.3303223,-0.8975525,-12.55063,65.43413,7.187775,44.31528,30.50982,26,0.1198817,0.1076263,0.04653927,0.2689912,-0.09354164,0.315477,-0.07672496,0.03160854,0.02197451,0.02211469,0.02689898,-0.002543225,0.0.0.0,10.62.21.216,5,unknown,0,2014-11-07 12:59:26.276,0,2014-11-07 12:53:30.730,0
2014-11-07 12:59:31.069,53,26.5,37.77721,-122.404,5.242767,3.66,316.4062,3,10,1415393970,-0.03837585,-0.3474274,-0.9832611,-8.136149,64.2446,3.916016,43.51668,29.71122,26,0.01220633,0.07347155,0.04374748,0.2780946,-0.05792683,0.2878185,0.02352413,0.0087006,0.03416722,0.01545866,0.008989333,-0.03665464,0.0.0.0,10.62.21.216,5,unknown,0,2014-11-07 12:59:26.276,0,2014-11-07 12:53:30.730,0
2014-11-07 12:59:31.569,54,27,37.77724,-122.404,5.674316,4.37,312.1875,3,10,1415393971,-0.1328888,-0.3485107,-1.023605,-8.444136,62.10345,3.089783,42.69072,28.88526,26,-0.0619137,0.009132778,0.009914682,0.2911187,-0.05655139,0.3095613,0.05695208,-0.06615819,0.01257396,0.005082816,0.08125209,-0.3588087,0.0.0.0,10.62.21.216,5,unknown,0,2014-11-07 12:59:31.321,0,2014-11-07 12:53:30.730,0
2014-11-07 12:59:32.069,55,27.5,37.77724,-122.404,5.674316,4.37,312.1875,3,10,1415393971,-0.09075928,-0.2862549,-0.8988647,-8.273029,60.30217,2.329681,42.60198,28.79652,26,0.1286818,0.02408669,0.005171859,0.2917207,-0.06335466,0.2975749,-0.2026128,0.01251468,-0.009043118,-0.01230047,0.0299427,-0.3226927,0.0.0.0,10.62.21.216,5,unknown,0,2014-11-07 12:59:31.321,0,2014-11-07 12:53:30.730,0
2014-11-07 12:59:32.569,56,28,37.77732,-122.4042,5.875,6.1,308.6719,3,10,1415393972,-0.07688904,-0.2080231,-0.9319153,-9.470759,61.83157,3.288177,42.63351,28.82804,26,0.04704314,0.05444939,0.007879228,0.2914461,-0.0712149,0.2671375,0.0397155,-0.02130773,-0.008044654,-0.02179269,0.03074095,-0.01462942,0.0.0.0,10.62.21.216,5,unknown,0,2014-11-07 12:59:31.321,0,2014-11-07 12:53:30.730,0
2014-11-07 12:59:33.069,57,28.5,37.77732,-122.4042,5.875,6.1,308.6719,3,10,1415393972,-0.08961487,-0.1667786,-1.112991,-9.607639,62.30737,2.494995,42.64397,28.83851,26,-0.3064803,0.2094936,-0.01548282,0.2907179,-0.07278372,0.2492449,0.1957894,-0.08199187,-0.01702592,0.0006634134,-0.01060622,-0.0531201,0.0.0.0,10.62.21.216,5,unknown,0,2014-11-07 12:59:31.321,0,2014-11-07 12:53:30.730,0
2014-11-07 12:59:33.569,58,29,37.77735,-122.4043,5.512024,7.69,299.8828,4,10,1415393973,-0.1019745,-0.2239838,-1.010727,-9.094331,62.61325,2.858459,42.72111,28.91565,26,0.01614621,0.08822041,0.009398828,0.2889378,-0.06685173,0.2359125,0.01888383,0.03364541,0.008590513,-0.02724198,0.01073832,0.0104891,0.0.0.0,10.62.21.216,5,unknown,0,2014-11-07 12:59:31.321,0,2014-11-07 12:53:30.730,0
2014-11-07 12:59:34.070,59,29.5,37.77735,-122.4043,5.512024,7.69,299.8828,4,10,1415393973,-0.1305847,-0.2825775,-0.9547729,-8.512577,61.83156,2.560974,42.70431,28.89885,26,0.1608251,0.008970059,0.006279201,0.2904867,-0.07311132,0.2447113,-0.09077588,0.02687185,-0.004993401,0.01485495,-0.01710796,-0.06944813,0.0.0.0,10.62.21.216,5,automotive,0,2014-11-07 12:59:33.843,0,2014-11-07 12:53:30.730,0
2014-11-07 12:59:34.569,60,30,37.77742,-122.4044,5.439972,9.73,315,3,10,1415393974,-0.09819031,-0.28302,-1.080872,-8.889006,62.81717,4.24646,42.85865,29.05319,26,0.1585843,0.05735677,-0.02161874,0.2876531,-0.07729659,0.2480121,-0.02229481,0.004013084,-0.02604975,-0.05899319,0.07328197,-0.02415384,0.0.0.0,10.62.21.216,5,automotive,0,2014-11-07 12:59:33.843,0,2014-11-07 12:53:30.730,0
2014-11-07 12:59:35.069,61,30.5,37.77742,-122.4044,5.439972,9.73,315,3,10,1415393974,-0.1008301,-0.2539368,-0.9743652,-2.558149,58.77278,1.635529,43.3782,29.57274,26,0.02740446,0.03828054,-0.02182168,0.2743059,-0.0796788,0.2399812,-0.06427725,-0.0006815653,-0.0274167,-0.002550964,0.02776923,-0.04197796,0.0.0.0,10.62.21.216,5,automotive,0,2014-11-07 12:59:33.843,0,2014-11-07 12:53:30.730,0
2014-11-07 12:59:35.569,62,31,37.77751,-122.4045,5.052643,10.68,315,3,10,1415393975,-0.05348206,-0.2748871,-0.9702454,-2.523927,62.27338,3.915894,44.15946,30.354,26,0.04318955,-0.04997022,0.008192683,0.2632692,-0.07345868,0.244241,-0.06073673,-0.008083595,-0.002842517,0.02301191,-0.02108902,-0.01047562,0.0.0.0,10.62.21.216,5,automotive,0,2014-11-07 12:59:33.843,0,2014-11-07 12:53:30.730,0
2014-11-07 12:59:36.069,63,31.5,37.77751,-122.4045,5.052643,10.68,315,3,10,1415393975,-0.06689453,-0.2054443,-0.8948212,-7.793943,55.2042,3.188843,44.85229,31.04683,26,-0.6718687,0.1572847,0.0356789,0.2510654,-0.07611404,0.2460795,0.40874,0.17207,-0.2201693,-0.02314346,0.1072052,0.2663375,0.0.0.0,10.62.21.216,5,automotive,0,2014-11-07 12:59:33.843,0,2014-11-07 12:53:30.730,0
2014-11-07 12:59:36.577,64,32,37.77761,-122.4046,5.217194,12.01,315,4,10,1415393976,-0.1343994,-0.2496033,-0.7554932,-5.569584,54.49049,4.940399,43.69769,29.89223,26,-0.05435778,0.1234926,0.01338372,0.2727207,-0.0818777,0.2405495,-0.3134481,0.2518604,-0.06327633,0.1185702,0.02380463,-0.02191461,0.0.0.0,10.62.21.216,5,automotive,2,2014-11-07 12:59:36.365,0,2014-11-07 12:53:30.730,0
2014-11-07 12:59:36.995,65,32.5,37.77761,-122.4046,5.217194,12.01,315,4,10,1415393976,-0.01391602,-0.210968,-0.9912567,-7.485951,61.83156,5.733582,43.6529,29.84744,26,0.004987568,0.02981143,0.0002631203,0.2721624,-0.06587032,0.2560134,-0.009622226,0.00286265,-0.007494592,0.01733641,0.03098162,-0.03726954,0.0.0.0,10.62.21.216,5,automotive,2,2014-11-07 12:59:36.365,0,2014-11-07 12:53:30.730,0
2014-11-07 12:59:37.569,66,33,37.77768,-122.4047,5.340332,12.71,315,4,10,1415393977,-0.04704285,-0.234375,-0.8761597,-8.136149,62.88514,4.246429,43.73536,29.9299,26,0.2882637,0.05173723,0.01654036,0.2668262,-0.0522736,0.2382315,-0.05416403,0.06286938,-0.008214651,0.00045061,-0.003776892,0.02479652,0.0.0.0,10.62.21.216,5,automotive,2,2014-11-07 12:59:36.365,0,2014-11-07 12:53:30.730,0
2014-11-07 12:59:38.069,67,33.5,37.77768,-122.4047,5.340332,12.71,315,4,10,1415393977,-0.01795959,-0.201416,-1.145477,-6.869978,64.34656,5.799835,43.8116,30.00614,26,0.118777,0.05402276,0.01282046,0.2650592,-0.02388848,0.2306972,-0.2694918,0.05568044,0.005103369,0.07475181,0.05394315,-0.1364049,0.0.0.0,10.62.21.216,5,automotive,2,2014-11-07 12:59:36.365,0,2014-11-07 12:53:30.730,0
2014-11-07 12:59:38.569,68,34,37.77782,-122.4048,5.101044,13.53,315.4257,4,10,1415393978,0.03300476,-0.1863403,-1.012848,-5.466923,62.54528,4.775208,43.7277,29.92224,26,0.09385938,-0.03282027,0.02190237,0.2654533,-0.01374159,0.2358256,-0.1360714,-0.0657252,0.004068002,0.03592857,0.02630937,-0.06822107,0.0.0.0,10.62.21.216,5,automotive,2,2014-11-07 12:59:36.365,0,2014-11-07 12:53:30.730,0
2014-11-07 12:59:39.070,69,34.5,37.77782,-122.4048,5.101044,13.53,315.4257,4,10,1415393978,-0.02352905,-0.1562958,-1.086594,-6.664653,64.0067,3.882935,43.74734,29.94188,26,0.009859555,0.01614541,0.009995642,0.2659231,-0.02820308,0.2045802,-0.07539986,-0.05105372,0.009156227,-0.002677411,0.04701299,-0.07773108,0.0.0.0,10.62.21.216,5,automotive,2,2014-11-07 12:59:36.365,0,2014-11-07 12:53:30.730,0
2014-11-07 12:59:39.569,70,35,37.77791,-122.4049,5.619446,13.71,315.4257,4,10,1415393979,-0.001052856,-0.1365204,-1.145325,-6.698875,63.29298,3.651642,43.76532,29.95986,26,0.01233257,-0.00253746,0.006138054,0.2661406,-0.03564361,0.1796117,-0.04685247,0.03455446,-0.001174026,0.05091668,0.05106881,0.02517356,0.0.0.0,10.62.21.216,5,automotive,2,2014-11-07 12:59:36.365,0,2014-11-07 12:53:30.730,0
2014-11-07 12:59:40.069,71,35.5,37.77791,-122.4049,5.619446,13.71,315.4257,4,10,1415393979,0.006759644,-0.07806396,-0.9660034,-7.965046,62.85116,4.808319,43.93396,30.1285,26,0.1200889,0.03653777,-0.003340936,0.2620769,-0.02882275,0.1601091,0.05842607,0.03643971,-0.008491573,0.008201748,0.07142847,-0.02203498,0.0.0.0,10.62.21.216,5,automotive,2,2014-11-07 12:59:36.365,0,2014-11-07 12:53:30.730,0
2014-11-07 12:59:40.569,72,36,37.77802,-122.405,5.870056,13.41,315.4257,4,10,1415393980,-0.0004119873,-0.09289551,-1.114914,-6.596211,62.2394,4.081238,43.61827,29.81281,26,0.1099944,-0.02299986,0.01583595,0.2674389,-0.0169776,0.1433589,-0.03559873,0.07701556,0.01649602,0.02522549,0.08204678,0.09644111,0.0.0.0,10.62.21.216,5,automotive,2,2014-11-07 12:59:36.365,0,2014-11-07 12:53:30.730,0
2014-11-07 12:59:41.069,73,36.5,37.77802,-122.405,5.870056,13.41,315.4257,4,10,1415393980,0.04115295,-0.05160522,-1.068802,-7.554393,61.96751,3.420258,43.1909,29.38543,26,-0.06701738,-0.0006825682,0.03322373,0.274351,-0.01694144,0.1398321,-0.1221276,0.03915301,0.02110369,0.06001868,0.1118195,-0.06416295,0.0.0.0,10.62.21.216,5,automotive,2,2014-11-07 12:59:36.365,0,2014-11-07 12:53:30.730,0
2014-11-07 12:59:41.569,74,37,37.77812,-122.4051,6.220367,12.55,314.8847,4,10,1415393981,0.002548218,-0.06567383,-0.9808197,-7.041081,62.34137,4.312561,43.00454,29.19908,26,0.1597673,0.08476841,-0.006600911,0.2786923,0.001891802,0.1197026,-0.004259287,0.05453334,-0.005851602,0.04995584,0.05674905,0.08650087,0.0.0.0,10.62.21.216,5,automotive,2,2014-11-07 12:59:36.365,0,2014-11-07 12:53:30.730,0
2014-11-07 12:59:42.069,75,37.5,37.77812,-122.4051,6.220367,12.55,314.8847,4,10,1415393981,0.007736206,-0.0776825,-0.9645081,-6.117118,61.96751,3.816833,42.88356,29.0781,26,0.004906076,0.03609249,0.01509506,0.2768362,0.01252501,0.1069606,-0.08474974,0.05150218,-0.008677319,-0.006792095,0.007772985,0.0183771,0.0.0.0,10.62.21.216,5,automotive,2,2014-11-07 12:59:36.365,0,2014-11-07 12:53:30.730,0
2014-11-07 12:59:42.569,76,38,37.77819,-122.4052,6.574249,11.61,314.8847,4,10,1415393982,0.03930664,-0.09713745,-1.036819,-6.048676,62.91913,5.204895,42.988,29.18254,26,-0.067917,0.07624736,-0.005505819,0.2741233,0.01381787,0.1081824,-0.05390877,0.01664874,-0.01067622,-0.01230233,-0.01785245,0.01725244,0.0.0.0,10.62.21.216,5,automotive,2,2014-11-07 12:59:36.365,0,2014-11-07 12:53:30.730,0
2014-11-07 12:59:43.069,77,38.5,37.77819,-122.4052,6.574249,11.61,314.8847,4,10,1415393982,0.0027771,-0.09187317,-0.9397583,-7.314848,62.27338,4.510864,43.04403,29.23857,26,0.08540598,0.006911702,-0.003610448,0.2691934,0.02083788,0.09711745,0.1178397,-0.07515302,-0.01058726,0.01542514,0.06966688,-0.2225033,0.0.0.0,10.62.21.216,5,automotive,2,2014-11-07 12:59:36.365,0,2014-11-07 12:53:30.730,0
2014-11-07 12:59:43.535,78,39,37.77826,-122.4053,7.006042,10.35,314.8847,4,10,1415393983,0.05696106,-0.02275085,-1.02803,-6.219783,63.29298,5.105774,43.52702,29.72156,26,0.06691672,0.07916246,0.0007131945,0.2664223,0.02457264,0.09334421,-0.008338924,0.006455159,-0.0124829,0.04056976,0.08521311,-0.09935003,0.0.0.0,10.62.21.216,5,automotive,2,2014-11-07 12:59:36.365,0,2014-11-07 12:53:30.730,0
2014-11-07 12:59:44.069,79,39.5,37.77826,-122.4053,7.006042,10.35,314.8847,4,10,1415393983,0.09014893,0.04663086,-1.033813,-6.493546,62.95311,3.585632,43.53762,29.73215,26,0.06297737,0.0009400959,0.02095908,0.2667181,0.03956487,0.04320882,0.02709848,-0.03841452,0.01042139,0.03343464,0.09901202,-0.01666883,0.0.0.0,10.62.21.216,5,automotive,2,2014-11-07 12:59:36.365,0,2014-11-07 12:53:30.730,0
2014-11-07 12:59:44.569,80,40,37.77828,-122.4054,6.439636,8.84,314.8847,4,10,1415393984,0.07569885,0.05279541,-1.039856,-7.314854,61.38974,4.048157,43.45958,29.65412,26,0.09894282,0.001900964,0.007431817,0.2673797,0.04558904,0.01289223,0.009666061,-0.01848335,-0.002968042,0.03852172,0.06019412,-0.04354145,0.0.0.0,10.62.21.216,5,automotive,2,2014-11-07 12:59:36.365,0,2014-11-07 12:53:30.730,0
2014-11-07 12:59:45.071,81,40.5,37.77828,-122.4054,6.439636,8.84,314.8847,4,10,1415393984,0.06880188,0.05180359,-1.032532,-6.904201,62.13744,4.246521,43.45599,29.65052,26,0.01851163,0.01485325,0.01121803,0.2681097,0.05503002,-0.01280185,0.03296835,-0.01732993,0.001881964,0.02575177,0.04208436,-0.06704053,0.0.0.0,10.62.21.216,5,automotive,2,2014-11-07 12:59:36.365,0,2014-11-07 12:53:30.730,0
2014-11-07 12:59:45.569,82,41,37.7783,-122.4054,6.246094,7.09,314.8847,4,10,1415393985,0.07980347,0.07765198,-1.065109,-7.622838,60.60805,4.27948,43.45778,29.65232,26,-0.001195227,0.07340737,0.009264072,0.2681307,0.05985403,-0.03517059,0.0537805,-0.03482736,0.007729733,0.004305608,0.01670128,-0.09339619,0.0.0.0,10.62.21.216,5,automotive,2,2014-11-07 12:59:36.365,0,2014-11-07 12:53:30.730,0
2014-11-07 12:59:46.069,83,41.5,37.7783,-122.4054,6.246094,7.09,314.8847,4,10,1415393985,0.02799988,-0.02856445,-1.006424,-7.485954,61.21981,3.486237,43.45493,29.64947,26,0.04826074,0.05072203,0.01030963,0.268201,0.05531832,-0.02530177,0.07362709,-0.0461323,0.0013341,-0.01367696,-0.03913879,-0.06349476,0.0.0.0,10.62.21.216,5,automotive,2,2014-11-07 12:59:36.365,0,2014-11-07 12:53:30.730,0
2014-11-07 12:59:46.569,84,42,37.77834,-122.4054,6.603241,3.71,314.5019,4,10,1415393986,0.04171753,-0.01756287,-1.093536,-7.451735,60.2342,5.171692,43.42703,29.62157,26,0.1645716,0.06492787,0.01292858,0.2673613,0.04928823,-0.007644602,-0.06239161,-0.03653333,0.003770013,-0.01467516,-0.03897082,0.02382659,0.0.0.0,10.62.21.216,5,automotive,2,2014-11-07 12:59:36.365,0,2014-11-07 12:53:30.730,0
2014-11-07 12:59:47.070,85,42.5,37.77834,-122.4054,6.603241,3.71,314.5019,4,10,1415393986,-0.001403809,-0.06480408,-0.9067535,-8.033485,59.45251,4.676025,43.43246,29.62699,26,-0.001138768,0.1057259,0.007085074,0.2664376,0.0476975,0.0006717569,0.08363539,-0.06351542,0.002279696,-0.031795,-0.04452478,-0.132531,0.0.0.0,10.62.21.216,5,automotive,2,2014-11-07 12:59:47.085,0,2014-11-07 12:53:30.730,0
2014-11-07 12:59:47.569,86,43,37.77835,-122.4054,6.729309,2.55,314.5019,4,10,1415393987,-0.06089783,-0.2283325,-1.03067,-7.588618,59.4865,4.709045,43.43472,29.62926,26,0.0866076,0.02559804,0.006405169,0.2649991,0.03864403,0.02070685,-0.02248044,0.03783461,-0.004288476,-0.1086945,-0.1884011,0.02108814,0.0.0.0,10.62.21.216,5,automotive,2,2014-11-07 12:59:47.085,0,2014-11-07 12:53:30.730,0
2014-11-07 12:59:48.069,87,43.5,37.77835,-122.4054,6.729309,2.55,314.5019,4,10,1415393987,-0.05064392,-0.1989136,-1.006683,-7.896605,59.86035,5.469025,43.42683,29.62137,26,0.04827352,0.06066947,0.01039698,0.2686346,-0.0183129,0.1278394,-0.06401011,0.01301704,-0.003196375,-0.02126626,-0.07012512,0.01158608,0.0.0.0,10.62.21.216,5,automotive,2,2014-11-07 12:59:47.085,0,2014-11-07 12:53:30.730,0
2014-11-07 12:59:48.569,88,44,37.77837,-122.4055,6.230591,2.43,314.5019,4,10,1415393988,-0.05462646,-0.1973572,-0.9964752,-7.177968,59.41852,4.576721,43.40903,29.60357,26,0.0396566,0.0544691,0.001720402,0.2712294,-0.03886338,0.1674392,-0.08358496,0.02302563,-0.005437166,-0.009220911,-0.0222612,0.03095507,0.0.0.0,10.62.21.216,5,automotive,2,2014-11-07 12:59:47.085,0,2014-11-07 12:53:30.730,0
2014-11-07 12:59:49.033,89,44.5,37.77837,-122.4055,6.230591,2.43,314.5019,4,10,1415393988,-0.05976868,-0.1956177,-0.9519043,-7.52017,59.28258,4.907257,43.39665,29.59119,26,-0.01360929,0.0473779,0.01026356,0.2717397,-0.04348946,0.1764322,0.07470587,-0.005276368,-0.0007168441,-0.01376349,-0.01628472,-0.05203816,0.0.0.0,10.62.21.216,5,automotive,2,2014-11-07 12:59:48.976,0,2014-11-07 12:53:30.730,0
2014-11-07 12:59:49.569,90,45,37.77837,-122.4055,6.044098,0.3,314.5019,4,10,1415393989,-0.05174255,-0.1914368,-0.9352722,-7.622834,58.36494,4.742065,43.35687,29.55141,26,0.07914861,0.01571292,0.01001056,0.2713105,-0.04549929,0.1820253,-0.04779745,0.03404549,0.0007821631,-0.01094716,-0.0199975,-0.01041288,0.0.0.0,10.62.21.216,5,automotive,2,2014-11-07 12:59:48.976,0,2014-11-07 12:53:30.730,0
2014-11-07 12:59:50.068,91,45.5,37.77837,-122.4055,6.044098,0.3,314.5019,4,10,1415393989,-0.05754089,-0.1982117,-0.9919586,-7.314845,58.12704,5.369904,43.39879,29.59332,26,-0.009862218,0.05728619,0.00665737,0.2712186,-0.04790372,0.1870202,0.0387744,0.009855009,-0.001881577,-0.01523597,-0.01260027,-0.02805548,0.0.0.0,10.62.21.216,5,automotive,1,2014-11-07 12:59:49.607,0,2014-11-07 12:53:30.730,0
2014-11-07 12:59:50.568,92,46,37.77837,-122.4055,6.093201,0,314.5019,4,10,1415393990,-0.05184937,-0.184906,-0.9234009,-7.622834,55.30616,5.204742,43.40331,29.59784,26,0.04083425,0.03707999,0.007725032,0.2705577,-0.0483841,0.1876923,-0.01065694,0.03625595,-0.005354698,-0.004989683,-0.001823351,-0.06183361,0.0.0.0,10.62.21.216,5,automotive,1,2014-11-07 12:59:49.607,0,2014-11-07 12:53:30.730,0
2014-11-07 12:59:51.068,93,46.5,37.77837,-122.4055,6.093201,0,314.5019,4,10,1415393990,-0.05606079,-0.1991425,-1.036636,-2.626595,52.24738,5.865784,43.45466,29.6492,26,0.01732706,0.05589416,0.01157809,0.2702119,-0.04882773,0.1913296,0.05360898,-0.003939648,-0.001893539,-0.01001994,-0.006582389,-2.391397e-05,0.0.0.0,10.62.21.216,5,automotive,1,2014-11-07 12:59:49.607,0,2014-11-07 12:53:30.730,0
2014-11-07 12:59:51.570,94,47,37.77838,-122.4055,5.66687,0,314.5019,4,10,1415393991,-0.05419922,-0.192749,-1.043884,3.430492,54.11664,7.154663,11.91508,358.1096,25,0.1620363,0.0002689793,0.008665926,0.269888,-0.04980209,0.1907518,-0.08121558,0.02424552,-0.002910406,-0.007777319,-0.002877295,-0.008842092,0.0.0.0,10.62.21.216,5,automotive,1,2014-11-07 12:59:49.607,0,2014-11-07 12:53:30.730,0
2014-11-07 12:59:52.069,95,47.5,37.77838,-122.4055,5.66687,0,314.5019,4,10,1415393991,-0.05500793,-0.1874695,-1.065659,5.689068,60.30217,7.286835,9.554729,355.7493,25,0.1521901,0.05256547,0.01158528,0.2687167,-0.05008378,0.1927561,-0.09987532,0.008225426,0.001860022,-0.007810124,-0.001123269,0.06244837,0.0.0.0,10.62.21.216,5,automotive,1,2014-11-07 12:59:49.607,0,2014-11-07 12:53:30.730,0
2014-11-07 12:59:52.569,96,48,37.77838,-122.4055,5.674713,0,314.5019,4,10,1415393992,-0.05430603,-0.192337,-0.8910065,4.594002,63.63284,7.352966,10.4123,356.6068,25,0.03709943,0.01347267,0.006285327,0.2683449,-0.05110229,0.1969817,0.001699109,0.04610355,-0.002702823,-0.001802886,0.001786324,-0.01930618,0.0.0.0,10.62.21.216,5,automotive,1,2014-11-07 12:59:49.607,0,2014-11-07 12:53:30.730,0
2014-11-07 12:59:53.078,97,48.5,37.77838,-122.4055,5.674713,0,314.5019,4,10,1415393992,-0.05119324,-0.1895142,-1.014389,4.217573,67.06548,7.121643,11.64079,357.8353,25,0.02109863,0.09067637,0.009421731,0.2680335,-0.05320229,0.2021648,0.05107752,-0.04125253,-0.005924788,0.00288461,-0.005599913,0.02274275,0.0.0.0,10.62.21.216,5,automotive,2,2014-11-07 12:59:52.760,0,2014-11-07 12:53:30.730,0
2014-11-07 12:59:53.568,98,49,37.77838,-122.4055,5.70517,0,314.5019,4,10,1415393993,-0.05738831,-0.1885071,-0.9315948,2.33543,68.39095,7.947906,12.41804,358.6126,25,-0.08414257,0.05404592,0.01276586,0.2668868,-0.05095737,0.1975247,0.1203834,0.005586366,-0.001798253,0.000323318,0.005416362,-0.1180075,0.0.0.0,10.62.21.216,5,automotive,2,2014-11-07 12:59:52.760,0,2014-11-07 12:53:30.730,0
2014-11-07 12:59:54.068,99,49.5,37.77838,-122.4055,5.70517,0,314.5019,4,10,1415393993,-0.05438232,-0.1911469,-0.8930511,2.438094,67.94913,7.848724,12.34709,358.5416,25,-0.09892365,0.08271618,0.008088021,0.2662544,-0.05082669,0.1972681,0.1636402,-0.05312191,-0.0009542492,0.001876374,-0.00115236,-0.1098331,0.0.0.0,10.62.21.216,5,automotive,2,2014-11-07 12:59:52.760,0,2014-11-07 12:53:30.730,0
2014-11-07 12:59:54.580,100,50,37.77838,-122.4055,5.666931,0,314.5019,4,10,1415393994,-0.05274963,-0.1950073,-0.9318542,2.643419,68.90074,7.716553,12.24418,358.4387,25,-0.08161896,0.05150633,0.004124437,0.2659699,-0.05144472,0.1994345,0.1167235,0.003111294,-0.001702243,0.00261226,0.002878822,-0.1060789,0.0.0.0,10.62.21.216,5,automotive,2,2014-11-07 12:59:52.760,0,2014-11-07 12:53:30.730,0
2014-11-07 12:59:55.069,101,50.5,37.77838,-122.4055,5.666931,0,314.5019,4,10,1415393994,-0.05484009,-0.1898651,-0.9127655,1.616793,68.56088,7.716431,13.04658,359.2411,25,-0.07546174,0.0577115,0.01033759,0.2649941,-0.05099294,0.1981061,0.1513987,-0.05430579,-0.004448428,0.0003065447,0.0004627726,-0.08064782,0.0.0.0,10.62.21.216,5,automotive,2,2014-11-07 12:59:52.760,0,2014-11-07 12:53:30.730,0
2014-11-07 12:59:55.547,102,51,37.77838,-122.4055,5.744812,0,314.5019,4,10,1415393995,-0.05155945,-0.1916351,-0.9971619,1.411468,69.58047,8.046875,13.19191,359.3864,25,-0.1051171,0.0715586,0.006756973,0.2642573,-0.05031224,0.1953027,0.1526668,-0.0381524,-0.001730628,-0.0002866474,-0.005460469,-0.09460844,0.0.0.0,10.62.21.216,5,automotive,2,2014-11-07 12:59:52.760,0,2014-11-07 12:53:30.730,0
2014-11-07 12:59:56.069,103,51.5,37.77838,-122.4055,5.744812,0,314.5019,4,10,1415393995,-0.05470276,-0.1869202,-0.9010468,0.8639297,69.2406,8.37735,13.55525,359.7498,25,-0.1224111,0.08782599,0.005663745,0.263821,-0.05042911,0.1984661,0.177438,-0.04952892,-0.001707739,0.0002696789,0.001487065,-0.1038535,0.0.0.0,10.62.21.216,5,automotive,2,2014-11-07 12:59:52.760,0,2014-11-07 12:53:30.730,0
2014-11-07 12:59:56.569,104,52,37.77838,-122.4055,5.810425,0,314.5019,4,10,1415393996,-0.05500793,-0.1934814,-0.9586334,1.240361,69.95432,8.212158,13.4355,359.63,25,-0.1212202,0.0691828,0.009194564,0.2630129,-0.04971549,0.1972804,0.1601085,-0.03821816,0.0008519165,0.0006353848,-0.001765953,-0.1142515,0.0.0.0,10.62.21.216,5,automotive,2,2014-11-07 12:59:52.760,0,2014-11-07 12:53:30.730,0
2014-11-07 12:59:57.069,105,52.5,37.77838,-122.4055,5.810425,0,314.5019,4,10,1415393996,-0.05310059,-0.1872253,-1.016113,0.9665947,69.81837,8.674835,13.4373,359.6318,25,-0.01605087,0.0847069,0.01305348,0.2625978,-0.04934097,0.1966487,0.09085923,-0.03658475,-0.0002252665,-0.004104593,-0.008534697,0.04059898,0.0.0.0,10.62.21.216,5,automotive,2,2014-11-07 12:59:52.760,0,2014-11-07 12:53:30.730,0
2014-11-07 12:59:57.569,106,53,37.77838,-122.4055,5.865509,0,314.5019,4,10,1415393997,-0.05178833,-0.1899567,-1.046722,0.8981524,70.43014,8.807007,13.48936,359.6839,25,0.1435636,0.03890452,0.002843191,0.2621161,-0.0484173,0.1923735,-0.09222519,0.01300742,0.001506759,-0.008066921,-0.003238343,0.0633192,0.0.0.0,10.62.21.216,5,automotive,2,2014-11-07 12:59:52.760,0,2014-11-07 12:53:30.730,0
2014-11-07 12:59:58.069,107,53.5,37.77838,-122.4055,5.865509,0,314.5019,4,10,1415393997,-0.05154419,-0.188858,-1.009384,1.719457,70.29419,8.212097,13.23057,359.4251,25,0.1398708,0.05384885,0.002973419,0.2619244,-0.04976635,0.1961826,-0.07367598,0.01033582,0.001591256,-0.002996756,-0.00812208,0.02879782,0.0.0.0,10.62.21.216,5,automotive,2,2014-11-07 12:59:52.760,0,2014-11-07 12:53:30.730,0
2014-11-07 12:59:58.569,108,54,37.77838,-122.4055,5.871948,0,314.5019,4,10,1415393998,-0.05551147,-0.1908569,-1.048157,1.719457,69.88635,8.674774,13.44935,359.6439,25,-0.07788362,0.08133613,0.006850183,0.2619398,-0.05013029,0.1962579,-0.05887124,0.001454367,0.0003771648,-0.005326516,0.005440463,0.05745188,0.0.0.0,10.62.21.216,5,automotive,2,2014-11-07 12:59:52.760,0,2014-11-07 12:53:30.730,0
2014-11-07 12:59:59.069,109,54.5,37.77838,-122.4055,5.871948,0,314.5019,4,10,1415393998,-0.04933167,-0.2028503,-1.033371,1.377245,69.54649,8.674805,13.10591,359.3004,25,0.06063592,0.04068671,0.007762049,0.2617927,-0.04964163,0.1958748,-0.1083883,0.01038347,-0.0007052796,-0.0005677363,0.01328927,0.01973902,0.0.0.0,10.62.21.216,5,automotive,2,2014-11-07 12:59:52.760,0,2014-11-07 12:53:30.730,0
2014-11-07 12:59:59.569,110,55,37.77838,-122.4055,5.902679,0,314.5019,4,10,1415393999,-0.05633545,-0.2070007,-0.9644928,1.377245,70.29419,8.740936,13.14137,359.3359,25,0.08286425,0.02439908,0.01131923,0.2618161,-0.05061099,0.1937943,-0.04288633,0.02231869,0.0007270271,-0.004678912,0.003237227,-0.04754854,0.0.0.0,10.62.21.216,5,automotive,2,2014-11-07 12:59:52.760,0,2014-11-07 12:53:30.730,0
2014-11-07 13:00:00.013,111,55.5,37.77838,-122.4055,5.902679,0,314.5019,4,10,1415393999,-0.05450439,-0.1881714,-0.9323883,1.993224,69.47852,8.674896,12.54646,358.741,25,-0.07295037,0.08629494,0.01058926,0.2619437,-0.05152975,0.1972677,0.1475546,-0.04111554,0.0002687358,0.0002608155,-0.00736309,-0.08739205,0.0.0.0,10.62.21.216,5,automotive,2,2014-11-07 12:59:52.760,0,2014-11-07 12:53:30.730,0
2014-11-07 13:00:00.569,112,56,37.77838,-122.4055,5.887665,0,314.5019,4,10,1415394000,-0.05502319,-0.201889,-0.9559479,0.8639297,70.80399,9.170624,13.52598,359.7205,25,0.16821,-0.009717076,0.008579906,0.2621641,-0.05270237,0.1993809,-0.1381553,0.04882377,-0.001415362,-0.003297245,0.008502614,0.05669404,0.0.0.0,10.62.21.216,5,automotive,2,2014-11-07 12:59:52.760,0,2014-11-07 12:53:30.730,0
2014-11-07 13:00:01.065,113,56.5,37.77838,-122.4055,5.887665,0,314.5019,4,10,1415394000,-0.05317688,-0.1912537,-0.9149323,1.035036,69.54649,8.476685,13.44334,359.6379,25,-0.003641074,0.07838056,0.005612878,0.2622485,-0.05310895,0.1991552,0.05844988,0.02261075,-0.001530857,0.003832219,-0.0002940304,-0.0971368,0.0.0.0,10.62.21.216,5,automotive,2,2014-11-07 12:59:52.760,0,2014-11-07 12:53:30.730,0
2014-11-07 13:00:01.569,114,57,37.77838,-122.4055,5.899811,0,314.5019,4,10,1415394001,-0.05334473,-0.2046051,-0.9496918,1.240361,69.2746,8.542755,13.42607,359.6206,25,0.02970703,0.03216513,0.005216067,0.262079,-0.0543807,0.2000492,-0.01465107,0.03540256,-0.0001543636,-0.001173445,0.007524953,-0.0854789,0.0.0.0,10.62.21.216,5,automotive,2,2014-11-07 12:59:52.760,0,2014-11-07 12:53:30.730,0
2014-11-07 13:00:02.086,115,57.5,37.77838,-122.4055,5.899811,0,314.5019,4,10,1415394001,-0.0480957,-0.2022858,-0.9797516,0.6243887,69.61446,8.87323,13.7913,359.9858,25,0.09156321,0.03054086,0.00644991,0.2621987,-0.05414198,0.2012676,-0.04200411,-0.02293949,-0.001872756,0.006895829,0.01674504,-0.07031259,0.0.0.0,10.62.21.216,5,automotive,2,2014-11-07 12:59:52.760,0,2014-11-07 12:53:30.730,0
2014-11-07 13:00:02.569,116,58,37.77838,-122.4055,5.831299,0,314.5019,4,10,1415394002,-0.05857849,-0.1894531,-1.027222,-0.8813276,69.41054,8.013977,13.91029,0.1048288,25,-0.02842871,0.04620584,0.005323659,0.2611356,-0.05198828,0.1946304,0.07787033,-0.002672468,-0.0003795154,-0.007625285,-0.01002629,-0.02807989,0.0.0.0,10.62.21.216,5,automotive,2,2014-11-07 12:59:52.760,0,2014-11-07 12:53:30.730,0
2014-11-07 13:00:03.069,117,58.5,37.77838,-122.4055,5.831299,0,314.5019,4,10,1415394002,-0.05661011,-0.1839447,-1.077332,-3.037242,71.95953,8.377472,16.00337,2.197911,25,0.1744653,0.07855979,0.01674516,0.2604544,-0.05152067,0.1922494,-0.118904,0.02211802,0.001041584,0.0005460823,-0.01785603,0.05102949,0.0.0.0,10.62.21.216,5,automotive,2,2014-11-07 12:59:52.760,0,2014-11-07 12:53:30.730,0
2014-11-07 13:00:03.569,118,59,37.77838,-122.4055,5.83078,0,314.5019,4,10,1415394003,-0.04634094,-0.1952972,-1.064789,-5.261598,72.74121,8.344421,17.51226,3.706802,25,-0.06185724,0.04145131,0.007735684,0.2594725,-0.05130566,0.1913477,-0.05825877,0.01177458,-0.003957323,-0.003348506,0.004177532,0.02086226,0.0.0.0,10.62.21.216,5,automotive,2,2014-11-07 12:59:52.760,0,2014-11-07 12:53:30.730,0
2014-11-07 13:00:04.068,119,59.5,37.77838,-122.4055,5.83078,0,314.5019,4,10,1415394003,-0.05192566,-0.1988068,-1.025787,-5.501143,72.57128,8.509613,18.90234,5.096875,25,0.1583697,0.006482667,0.002562494,0.2584079,-0.05069355,0.1921958,-0.1226244,0.0233407,0.001074471,0.01031012,0.00186675,-0.03072118,0.0.0.0,10.62.21.216,5,automotive,2,2014-11-07 12:59:52.760,0,2014-11-07 12:53:30.730,0
2014-11-07 13:00:04.569,120,60,37.77838,-122.4055,5.842194,0,314.5019,4,10,1415394004,-0.04960632,-0.203064,-1.023911,-5.432701,72.29939,8.113098,18.77148,4.966018,25,-0.03336302,0.04622608,0.002859702,0.2573972,-0.05089021,0.1913028,-0.03723977,0.02155373,-0.001378967,-0.003923249,-0.006257823,0.01129385,0.0.0.0,10.62.21.216,5,automotive,2,2014-11-07 12:59:52.760,0,2014-11-07 12:53:30.730,0
2014-11-07 13:00:04.995,121,60.5,37.77838,-122.4055,5.842194,0,314.5019,4,10,1415394004,-0.05082703,-0.1983643,-0.9735107,-5.466923,72.87715,8.344421,18.80651,5.001047,25,0.1484755,0.02147626,0.005154282,0.2560705,-0.04991515,0.1876772,0.00723439,-0.006117581,0.0008821356,-0.002235983,-0.003074079,-0.06697062,0.0.0.0,10.62.21.216,5,automotive,2,2014-11-07 12:59:52.760,0,2014-11-07 12:53:30.730,0
2014-11-07 13:00:05.536,122,61,37.77838,-122.4055,5.837463,0,314.5019,4,10,1415394005,-0.05189514,-0.2023621,-0.9969788,-4.816728,72.0275,8.179138,18.71611,4.910653,25,0.1114032,0.04656591,0.00290178,0.2548758,-0.05014436,0.1881925,-0.06325165,0.001712681,-0.002708993,-0.003557042,-0.004597331,-0.04855386,0.0.0.0,10.62.21.216,5,automotive,2,2014-11-07 12:59:52.760,0,2014-11-07 12:53:30.730,0
2014-11-07 13:00:06.069,123,61.5,37.77838,-122.4055,5.837463,0,314.5019,4,10,1415394005,-0.05093384,-0.1938934,-0.9726715,-5.124718,72.33337,8.27832,18.75924,4.953784,25,-0.03708292,0.0574561,0.006651511,0.2534564,-0.04997215,0.1882749,0.07287196,-0.01908976,-0.002648183,-0.002353475,-0.01042144,-0.03542299,0.0.0.0,10.62.21.216,5,automotive,2,2014-11-07 12:59:52.760,0,2014-11-07 12:53:30.730,0
2014-11-07 13:00:06.568,124,62,37.77838,-122.4055,5.840149,0,314.5019,4,10,1415394006,-0.05337524,-0.1827698,-0.9536133,-4.714064,71.5177,8.146088,18.60726,4.801794,25,0.1286957,0.02905509,0.003984089,0.2521649,-0.0495888,0.1878833,0.08410519,-0.009273756,-0.0072641,-0.001001718,-0.01056202,-0.06148469,0.0.0.0,10.62.21.216,5,automotive,2,2014-11-07 12:59:52.760,0,2014-11-07 12:53:30.730,0
2014-11-07 13:00:07.068,125,62.5,37.77838,-122.4055,5.840149,0,314.5019,4,10,1415394006,-0.05430603,-0.1870422,-0.9920044,-5.432704,72.09547,8.377441,18.97696,5.171495,25,4.6339e-05,0.07090747,0.008011055,0.2504618,-0.05036974,0.189181,0.04450727,-0.01897334,-0.001071004,0.0030024,-0.001993652,-0.07739091,0.0.0.0,10.62.21.216,5,automotive,2,2014-11-07 12:59:52.760,0,2014-11-07 12:53:30.730,0
2014-11-07 13:00:07.568,126,63,37.77838,-122.4055,5.857208,0,314.5019,4,10,1415394007,-0.061203,-0.1934814,-1.048798,-4.714064,72.2654,8.608704,18.73325,4.927785,25,0.1733191,0.09717102,0.005825665,0.242843,-0.05034148,0.1910955,0.01039219,-0.001702107,-0.07586459,-0.009067456,-0.001807347,0.02852657,0.0.0.0,10.62.21.216,5,automotive,2,2014-11-07 12:59:52.760,0,2014-11-07 12:53:30.730,0
2014-11-07 13:00:08.068,127,63.5,37.77838,-122.4055,5.857208,0,314.5019,4,10,1415394007,-0.04988098,-0.184082,-1.087646,-6.425108,72.40135,8.013824,19.65059,5.845122,25,0.1621087,0.0798698,0.01429052,0.235914,-0.05021564,0.1978685,-0.0865388,-0.009509733,-0.0006726856,-0.01143856,-0.02041539,0.09795,0.0.0.0,10.62.21.216,5,automotive,2,2014-11-07 12:59:52.760,0,2014-11-07 12:53:30.730,0
2014-11-07 13:00:08.569,128,64,37.77838,-122.4055,5.876312,0,314.5019,4,10,1415394008,-0.04153442,-0.1840515,-1.162857,-7.451732,72.40135,7.947723,19.87354,6.068078,25,0.1213315,0.08133081,0.005672533,0.2342958,-0.04940493,0.2000419,-0.08415215,-0.0530114,0.008917836,0.0007773343,-0.01981073,0.02881969,0.0.0.0,10.62.21.216,5,automotive,2,2014-11-07 12:59:52.760,0,2014-11-07 12:53:30.730,0
2014-11-07 13:00:09.068,129,64.5,37.77838,-122.4055,5.876312,0,314.5019,4,10,1415394008,-0.07637024,-0.2411652,-1.019836,-10.97647,70.80399,7.980774,21.67502,7.869561,25,0.1298994,0.002935336,0.003755057,0.236336,-0.058532,0.2073943,-0.06653898,0.03257798,-0.00745502,-0.01466967,-0.03507126,0.02972088,0.0.0.0,10.62.21.216,5,automotive,2,2014-11-07 12:59:52.760,0,2014-11-07 12:53:30.730,0
2014-11-07 13:00:09.569,130,65,37.77838,-122.4055,5.888367,0,314.5019,4,10,1415394009,-0.08537292,-0.2237854,-0.9421844,-14.56967,68.05109,7.617249,23.02496,9.219501,25,0.1723795,0.003623231,-0.06395448,0.2313764,-0.06329221,0.2172667,0.05855144,0.03671312,-0.01723398,-0.02113802,0.001205963,-0.006849207,0.0.0.0,10.62.21.216,5,automotive,2,2014-11-07 13:00:09.153,0,2014-11-07 12:53:30.730,0
2014-11-07 13:00:10.069,131,65.5,37.77838,-122.4055,5.888367,0,314.5019,4,10,1415394009,-0.09016418,-0.2778931,-0.8647766,-14.1248,62.91913,7.055359,27.72568,13.92021,25,0.05188956,-0.01395949,0.009742642,0.2254188,-0.06314249,0.2293851,-0.09999892,-0.08285788,-0.007132735,-0.0137476,-0.04467015,0.02313529,0.0.0.0,10.62.21.216,5,automotive,1,2014-11-07 13:00:09.784,0,2014-11-07 12:53:30.730,0
2014-11-07 13:00:10.569,132,66,37.77838,-122.4055,6.033417,0.28,314.5019,4,10,1415394010,-0.1026611,-0.2918243,-0.9616394,-12.07155,61.2198,6.857056,27.27664,13.47118,25,0.06069238,0.05558124,0.001735848,0.226971,-0.08550949,0.2515625,0.0004611136,-0.03382372,-0.007896969,-0.01164318,-0.05390836,-0.03286255,0.0.0.0,10.62.21.216,5,automotive,1,2014-11-07 13:00:10.414,0,2014-11-07 12:53:30.730,0
2014-11-07 13:00:11.062,133,66.5,37.77838,-122.4055,6.033417,0.28,314.5019,4,10,1415394010,-0.07211304,-0.1982269,-0.9452209,-11.1818,61.35575,6.989319,27.0682,13.26273,25,0.02969052,0.03093235,0.00766804,0.2249089,-0.08445203,0.2464114,-0.01061829,0.01729111,4.83494e-05,0.01046892,0.05229024,-0.03694294,0.0.0.0,10.62.21.216,5,automotive,1,2014-11-07 13:00:10.414,0,2014-11-07 12:53:30.730,0
2014-11-07 13:00:11.569,134,67,37.77838,-122.4055,5.525818,0.54,314.5019,4,10,1415394011,-0.07546997,-0.183609,-1.017471,-9.094334,59.89433,7.286713,26.58497,12.77951,25,0.1286488,0.004197142,0.006228601,0.2213692,-0.07390433,0.2163629,-0.06519211,0.03385437,0.0001785789,0.01224005,0.05121134,-0.02836169,0.0.0.0,10.62.21.216,5,automotive,1,2014-11-07 13:00:10.414,0,2014-11-07 12:53:30.730,0
2014-11-07 13:00:12.058,135,67.5,37.77838,-122.4055,5.525818,0.54,314.5019,4,10,1415394011,-0.09017944,-0.2298584,-0.9499054,-6.869978,62.2394,6.923187,25.47889,11.67343,25,0.03837136,0.05202192,0.009086972,0.2217899,-0.07008675,0.2186382,0.04251177,0.0008790704,0.007551967,-0.0259218,-0.003283848,-0.01520132,0.0.0.0,10.62.21.216,5,automotive,2,2014-11-07 13:00:11.675,0,2014-11-07 12:53:30.730,0
2014-11-07 13:00:12.570,136,68,37.77838,-122.4055,4.535614,1.03,314.5019,4,10,1415394012,-0.07881165,-0.2881622,-1.000412,-6.972645,61.93352,6.493591,24.42358,10.61812,25,0.06194299,0.03689544,-0.004584898,0.221633,-0.07158319,0.2289505,-0.006766038,0.02596846,-0.005783875,-0.007218067,-0.05566775,-0.03042009,0.0.0.0,10.62.21.216,5,automotive,2,2014-11-07 13:00:11.675,0,2014-11-07 12:53:30.730,0
2014-11-07 13:00:13.071,137,68.5,37.77838,-122.4055,4.535614,1.03,314.5019,4,10,1415394012,-0.00793457,-0.3454742,-1.016647,-21.6876,59.01068,4.576752,35.27842,21.47295,25,0.09051499,0.07185289,-0.2197654,-0.02487186,-0.03104309,0.2582791,0.01459248,-0.07010137,-0.05194195,-0.06529779,0.06192039,0.02497415,0.0.0.0,10.62.21.216,5,automotive,2,2014-11-07 13:00:11.675,0,2014-11-07 12:53:30.730,0
2014-11-07 13:00:13.569,138,69,37.77839,-122.4055,4.605072,1.51,314.5019,4,10,1415394013,0.005752563,-0.2907104,-1.081177,-22.13247,58.229,5.336884,35.95002,22.14456,25,0.08149432,-0.02652588,0.0219543,-0.008914141,-0.02334788,0.2597491,0.0001944867,-0.05077768,0.08614361,0.01928198,0.007875658,-0.03567053,0.0.0.0,10.62.21.216,5,automotive,2,2014-11-07 13:00:11.675,0,2014-11-07 12:53:30.730,0
2014-11-07 13:00:14.068,139,69.5,37.77839,-122.4055,4.605072,1.51,314.5019,4,10,1415394013,-0.02322388,-0.2239227,-1.008682,-22.37202,59.62244,4.642944,35.87743,22.07196,25,0.04432299,0.02601509,0.04210804,-0.00518649,-0.01843349,0.2343204,-0.02420744,0.008943403,0.03132397,-0.0184177,0.003544367,-0.03318443,0.0.0.0,10.62.21.216,5,automotive,2,2014-11-07 13:00:11.675,0,2014-11-07 12:53:30.730,0
2014-11-07 13:00:14.569,140,70,37.77841,-122.4055,4.465088,2.56,314.5019,4,10,1415394014,-0.04751587,-0.2987213,-0.9492035,-21.92715,60.06427,4.213318,35.04522,21.23976,25,0.06045269,-0.008965266,0.02702842,0.00190231,-0.03052079,0.2452448,0.009144261,-0.02355908,0.03966951,0.006180708,-0.02537939,-0.006341282,0.0.0.0,10.62.21.216,5,automotive,2,2014-11-07 13:00:11.675,0,2014-11-07 12:53:30.730,0
2014-11-07 13:00:15.069,141,70.5,37.77841,-122.4055,4.465088,2.56,314.5019,4,10,1415394014,-0.02362061,-0.2464142,-0.9353943,-21.31117,57.07346,4.940369,35.11132,21.30585,25,-0.02729048,0.02137746,0.01618856,0.002148014,-0.03772686,0.2523861,-0.06453354,0.06138797,0.01984267,0.021783,-0.03512062,0.008737475,0.0.0.0,10.62.21.216,5,automotive,2,2014-11-07 13:00:11.675,0,2014-11-07 12:53:30.730,0
2014-11-07 13:00:15.569,142,71,37.77843,-122.4055,4.11908,2.7,314.5019,4,10,1415394015,-0.02578735,-0.1959839,-0.990448,-20.38721,60.37014,6.890198,33.87702,20.07156,25,0.04453072,0.030845,0.008902681,0.007097316,-0.04106532,0.2331574,0.04562014,-0.0351399,-0.003139308,0.001429747,-0.001203421,0.006469018,0.0.0.0,10.62.21.216,5,automotive,2,2014-11-07 13:00:11.675,0,2014-11-07 12:53:30.730,0
2014-11-07 13:00:16.069,143,71.5,37.77843,-122.4055,4.11908,2.7,314.5019,4,10,1415394015,-0.03500366,-0.2052917,-1.017731,-23.26176,61.86555,4.444641,34.91893,21.11347,25,0.06803151,0.02448111,0.008853147,0.009010729,-0.0328202,0.2108981,-0.03474008,0.0002455135,-0.002640276,0.01824753,0.05586524,-0.06028095,0.0.0.0,10.62.21.216,5,automotive,2,2014-11-07 13:00:11.675,0,2014-11-07 12:53:30.730,0
2014-11-07 13:00:16.569,144,72,37.77845,-122.4056,4.221008,3.14,314.5019,4,10,1415394016,-0.01132202,-0.1814575,-1.03038,-25.38345,60.9819,0.3466492,35.53871,21.73325,25,-0.01852388,0.03369378,0.001522263,0.009726664,-0.03118895,0.1996694,-0.03361209,-0.0009360932,0.008430957,0.006882702,-0.001544837,-0.01858971,0.0.0.0,10.62.21.216,5,automotive,2,2014-11-07 13:00:11.675,0,2014-11-07 12:53:30.730,0
2014-11-07 13:00:17.070,145,72.5,37.77845,-122.4056,4.221008,3.14,314.5019,4,10,1415394016,0.001831055,-0.1694183,-0.999054,-26.64962,56.86954,0.7102661,36.54915,22.74369,25,0.011295,0.08320301,-0.007886153,-0.001266472,-0.02775048,0.1962242,-0.05691298,0.01163322,-0.01096732,0.02695505,0.03163731,0.0009399064,0.0.0.0,10.62.21.216,5,automotive,2,2014-11-07 13:00:11.675,0,2014-11-07 12:53:30.730,0
2014-11-07 13:00:17.506,146,73,37.77849,-122.4056,4.665588,3.22,313.2283,4,10,1415394017,-0.04249573,-0.1513519,-0.9858704,-27.36826,55.2042,0.4789124,37.22279,23.41733,25,-0.008599347,0.07717334,0.00683234,-0.005127593,-0.02455463,0.1761421,-0.04350321,0.02780888,0.008881465,-0.01711801,0.04307629,-0.08855416,0.0.0.0,10.62.21.216,5,automotive,2,2014-11-07 13:00:11.675,0,2014-11-07 12:53:30.730,0
2014-11-07 13:00:18.090,147,73.5,37.77849,-122.4056,4.665588,3.22,313.2283,4,10,1415394017,0.03294373,-0.07064819,-1.029526,-27.12872,57.4813,3.155884,37.84811,24.04265,25,0.07054874,0.03439179,0.004015248,-0.006787111,-0.008805651,0.1270531,0.00338982,-0.03083411,-5.425893e-05,0.03020368,0.07368729,-0.003917946,0.0.0.0,10.62.21.216,5,automotive,2,2014-11-07 13:00:11.675,0,2014-11-07 12:53:30.730,0
2014-11-07 13:00:18.568,148,74,37.77851,-122.4056,5.211151,2.92,313.2283,4,10,1415394018,-0.008956909,-0.06674194,-1.095139,-27.91579,56.76758,4.444733,38.5062,24.70074,20,0.1558525,-0.003428021,0.007400392,-0.008070923,-0.007423785,0.1105771,-0.01648513,0.01904874,-0.0008565403,0.008904256,0.00473059,0.02101057,0.0.0.0,10.62.21.216,5,automotive,2,2014-11-07 13:00:11.675,0,2014-11-07 12:53:30.730,0
2014-11-07 13:00:19.069,149,74.5,37.77851,-122.4056,5.211151,2.92,313.2283,4,10,1415394018,-0.0004272461,-0.1063995,-1.005524,-28.258,57.10744,5.370148,39.981,26.17554,20,0.007432883,0.05346376,0.01032268,-0.008778628,-0.003634621,0.1006701,0.03185061,-0.0184415,0.008854275,0.01371753,0.004674994,0.005794725,0.0.0.0,10.62.21.216,5,automotive,2,2014-11-07 13:00:11.675,0,2014-11-07 12:53:30.730,0
2014-11-07 13:00:19.587,150,75,37.77851,-122.4056,4.853394,2.17,313.2283,4,10,1415394019,-0.0171051,-0.1030121,-1.044266,-28.70287,56.05386,8.972473,40.3429,26.53744,20,0.03711381,0.007239537,0.002536395,-0.007991263,-0.004471167,0.09640553,-0.007669083,0.006627613,0.0004432167,-0.01793425,0.008975991,-0.03854313,0.0.0.0,10.62.21.216,5,automotive,2,2014-11-07 13:00:11.675,0,2014-11-07 12:53:30.730,0
2014-11-07 13:00:20.069,151,75.5,37.77851,-122.4056,4.853394,2.17,313.2283,4,10,1415394019,0.01359558,-0.1175385,-0.9651642,-28.63443,55.37413,8.377625,40.67344,26.86798,20,0.02479829,0.05208024,0.002926814,-0.007982272,-0.004195118,0.09637976,0.009835792,0.02401689,0.00552451,0.005579445,0.005532369,-0.0163837,0.0.0.0,10.62.21.216,5,automotive,2,2014-11-07 13:00:11.675,0,2014-11-07 12:53:30.730,0
