time,timestamp,recordtime,lat,long,alt,speed,course,verticalAccuracy,horizontalAccuracy,locTimeStamp,accelerationX,accelerationY,accelerationZ,HeadingX,HeadingY,HeadingZ,TrueHeading,MagneticHeading,HeadingAccuracy,RotationX,RotationY,RotationZ,motionYaw,motionRoll,motionPitch,motionRotationRateX,motionRotationRateY,motionRotationRateZ,motionUserAccelerationX,motionUserAccelerationY,motionUserAccelerationZ,en0,pdp_ip0,DeviceOrientation,Activity,Activity Confidence,Activity Start,Steps,Last Step Date,State
2014-11-08 18:54:21.593,1,0.5,37.44664,-122.1716,14.86691,0,132.833,3,5,1415501661,0.1528931,-0.08059692,-1.012253,50.49858,125.6278,-25.48129,354.6046,340.91,20,0.06544505,0.04200045,0.0311715,-2.619085,0.1903546,0.1138802,-0.001769396,-0.007061048,9.177604e-05,-0.04099364,0.02723897,-0.0401397,0.0.0.0,10.147.103.29,5,automotive,2,2014-11-08 18:54:12.214,0,2014-11-08 18:09:32.682,0
2014-11-08 18:54:22.093,2,1,37.44664,-122.1716,14.86691,0,132.833,3,5,1415501661,0.2012939,-0.1238861,-1.004471,49.81416,126.4435,-25.94409,354.5172,340.8225,20,0.05928569,0.04575337,0.02750859,-2.617019,0.1761842,0.104428,-0.005548211,0.0004055864,0.001351591,0.02999586,-0.01796937,-0.02890029,0.0.0.0,10.147.103.29,5,automotive,2,2014-11-08 18:54:21.985,0,2014-11-08 18:09:32.682,0
2014-11-08 18:54:22.593,3,1.5,37.44664,-122.1716,14.3476,0,132.833,3,5,1415501662,0.2427673,-0.1319122,-0.9884186,50.36169,126.1036,-25.94403,354.4688,340.7742,20,0.05553916,0.04206756,0.03240082,-2.618847,0.2015918,0.1200918,0.0007557353,0.001773919,0.00145445,0.0201308,-0.002266921,0.01857576,0.0.0.0,10.147.103.29,5,automotive,2,2014-11-08 18:54:21.985,0,2014-11-08 18:09:32.682,0
2014-11-08 18:54:23.093,4,2,37.44664,-122.1716,14.3476,0,132.833,3,5,1415501662,0.1989746,-0.1184692,-0.9925385,50.39591,125.6618,-25.91092,354.4655,340.7709,20,0.05926705,0.03705469,0.0286636,-2.620128,0.2163695,0.1286848,0.002111834,0.003088414,-0.002116979,0.0003772957,0.009036732,0.02225753,0.0.0.0,10.147.103.29,5,automotive,1,2014-11-08 18:54:23.246,0,2014-11-08 18:09:32.682,0
2014-11-08 18:54:23.593,5,2.5,37.44663,-122.1716,14.07593,0.25,132.833,3,5,1415501663,0.1819916,-0.1073303,-0.9620209,50.08792,127.0552,-26.73721,354.4306,340.736,20,0.05682174,0.04825035,0.02629845,-2.618529,0.2056339,0.1223351,-0.004150781,0.001865492,0.001511302,-0.008035906,0.007055218,-0.004626481,0.0.0.0,10.147.103.29,5,automotive,1,2014-11-08 18:54:23.561,0,2014-11-08 18:09:32.682,0
2014-11-08 18:54:24.089,6,3,37.44663,-122.1716,14.07593,0.25,132.833,3,5,1415501663,0.1875,-0.1112518,-0.9701385,50.60125,125.5938,-26.10925,354.4437,340.7491,20,0.05676901,0.04206516,0.03363253,-2.618001,0.2003457,0.1190508,-0.005439106,-0.001871214,0.0001356198,0.01117128,-0.0008285849,-0.01483854,0.0.0.0,10.147.103.29,5,automotive,1,2014-11-08 18:54:24.192,0,2014-11-08 18:09:32.682,0
2014-11-08 18:54:24.593,7,3.5,37.44663,-122.1716,14.95297,0,132.833,3,5,1415501664,0.2009583,-0.1230164,-0.9787445,49.81416,125.7637,-26.47278,354.3983,340.7037,20,0.05432849,0.03956712,0.02745293,-2.617424,0.1970713,0.1169461,-0.002917838,0.0005703455,0.001479207,-0.009112282,0.001765788,-0.02233084,0.0.0.0,10.147.103.29,5,automotive,1,2014-11-08 18:54:24.192,0,2014-11-08 18:09:32.682,0
2014-11-08 18:54:25.091,8,4,37.44663,-122.1716,14.95297,0,132.833,3,5,1415501664,0.2026367,-0.1193085,-0.9758453,50.60126,126.0016,-26.3736,354.4158,340.7212,20,0.06298696,0.04324867,0.028719,-2.617216,0.1962421,0.1167255,-0.000378911,0.004255716,0.0003491951,-0.006615859,0.002034931,0.004542931,0.0.0.0,10.147.103.29,5,automotive,1,2014-11-08 18:54:24.192,0,2014-11-08 18:09:32.682,0
2014-11-08 18:54:25.519,9,4.5,37.44663,-122.1716,14.68506,0,132.833,3,5,1415501665,0.1848907,-0.1122284,-0.9814911,50.53281,125.4579,-25.91089,354.4056,340.711,20,0.06545251,0.04199512,0.02994006,-2.617253,0.1957131,0.1165901,0.0008944991,-0.000745576,-0.0008892796,-0.001007144,-0.003592648,-0.01158992,0.0.0.0,10.147.103.29,5,automotive,1,2014-11-08 18:54:24.192,0,2014-11-08 18:09:32.682,0
2014-11-08 18:54:26.088,10,5,37.44663,-122.1716,14.68506,0,132.833,3,5,1415501665,0.1910858,-0.1109619,-0.9949341,49.77995,126.6134,-25.97699,354.3777,340.6831,20,0.06545251,0.04199512,0.02994006,-2.616866,0.1955782,0.1163004,0.003448861,0.006672253,-0.003243037,-0.007809831,-0.003788909,0.0005388378,0.0.0.0,10.147.103.29,5,automotive,1,2014-11-08 18:54:24.192,0,2014-11-08 18:09:32.682,0
2014-11-08 18:54:26.591,11,5.5,37.44663,-122.1716,14.48199,0,132.833,3,5,1415501666,0.186676,-0.1121216,-0.9717865,49.98527,125.7977,-26.37354,354.3667,340.6721,20,0.06546636,0.04696351,0.02875229,-2.616634,0.1959321,0.1163962,-0.01016292,-0.004428574,0.001612844,0.007106396,-0.006898078,-0.005933864,0.0.0.0,10.147.103.29,5,automotive,1,2014-11-08 18:54:24.192,0,2014-11-08 18:09:32.682,0
2014-11-08 18:54:27.091,12,6,37.44663,-122.1716,14.48199,0,132.833,3,5,1415501666,0.1992493,-0.1200562,-0.9858246,50.63545,125.4919,-25.94394,354.3446,340.65,20,0.06669301,0.04447426,0.02996216,-2.616563,0.1958465,0.1164473,-0.005155118,-0.004495027,-0.002059146,0.009922263,-0.001171026,-0.001620163,0.0.0.0,10.147.103.29,5,automotive,1,2014-11-08 18:54:24.192,0,2014-11-08 18:09:32.682,0
2014-11-08 18:54:27.593,13,6.5,37.44663,-122.1716,14.16199,0,132.833,3,5,1415501667,0.2023926,-0.1221008,-0.9733582,50.3959,125.7977,-25.97693,354.3435,340.6489,20,0.06545677,0.03950293,0.02868677,-2.616635,0.1960603,0.1167721,0.00228921,-0.0008194365,0.0004485933,-0.004759231,0.00194392,-0.02892025,0.0.0.0,10.147.103.29,5,automotive,2,2014-11-08 18:54:27.344,0,2014-11-08 18:09:32.682,0
2014-11-08 18:54:28.088,14,7,37.44663,-122.1716,14.16199,0,132.833,3,5,1415501667,0.2031097,-0.1258392,-0.9788208,50.12212,126.0016,-26.50571,354.3372,340.6426,20,0.06299122,0.04075649,0.02746571,-2.616543,0.1958571,0.1168257,0.001071872,-0.003316495,0.0004334041,0.001222951,0.00123418,-0.02464515,0.0.0.0,10.147.103.29,5,automotive,2,2014-11-08 18:54:27.344,0,2014-11-08 18:09:32.682,0
2014-11-08 18:54:28.593,15,7.5,37.44663,-122.1716,11.21497,0,132.833,3,5,1415501668,0.1881866,-0.1082764,-0.991806,50.39591,126.0016,-26.04303,354.3643,340.6697,20,0.06422906,0.04697124,0.02875202,-2.616477,0.1956212,0.1164029,0.00357152,0.000372024,-0.0007599246,-0.001837433,-0.002176487,-0.005004813,0.0.0.0,10.147.103.29,5,automotive,2,2014-11-08 18:54:27.344,0,2014-11-08 18:09:32.682,0
2014-11-08 18:54:29.093,16,8,37.44663,-122.1716,11.21497,0,132.833,3,5,1415501668,0.1870422,-0.1107635,-0.9837646,50.43015,125.7637,-26.20828,354.3527,340.6581,20,0.06917348,0.04321006,0.02872033,-2.616568,0.1962101,0.116219,-0.00507379,0.006627258,0.0005285223,0.007533468,-0.01239938,-0.006944051,0.0.0.0,10.147.103.29,5,automotive,2,2014-11-08 18:54:27.344,0,2014-11-08 18:09:32.682,0
2014-11-08 18:54:29.593,17,8.5,37.44663,-122.1716,13.66586,0,132.833,3,5,1415501669,0.1504974,-0.07476807,-0.9841003,49.64309,126.2056,-26.17529,354.3565,340.6619,20,0.05926492,0.04701278,0.03121385,-2.615938,0.1913162,0.1128375,-0.01126697,-0.004571071,-0.0007972292,-0.04798126,0.01243955,-0.03292667,0.0.0.0,10.147.103.29,5,automotive,2,2014-11-08 18:54:27.344,0,2014-11-08 18:09:32.682,0
2014-11-08 18:54:30.087,18,9,37.44663,-122.1716,13.66586,0,132.833,3,5,1415501669,0.1905212,-0.1080017,-0.9893188,50.12218,125.8657,-25.91077,354.3271,340.6325,20,0.06421947,0.03951066,0.02868651,-2.613553,0.1727427,0.1012825,-0.001445904,-0.002221287,0.005389008,0.01979185,-0.01925189,-0.02778966,0.0.0.0,10.147.103.29,5,automotive,2,2014-11-08 18:54:29.865,0,2014-11-08 18:09:32.682,0
2014-11-08 18:54:30.594,19,9.5,37.44663,-122.1716,13.62604,0,132.833,3,5,1415501670,0.22995,-0.1286926,-0.9820557,49.8142,125.5598,-25.94385,354.2961,340.6015,20,0.06051075,0.04202069,0.02870755,-2.615348,0.1931752,0.114214,-0.001323817,0.00656532,0.0005454297,0.008356218,-0.01715297,0.01655517,0.0.0.0,10.147.103.29,5,automotive,2,2014-11-08 18:54:30.496,0,2014-11-08 18:09:32.682,0
2014-11-08 18:54:31.093,20,10,37.44663,-122.1716,13.62604,0,132.833,3,5,1415501670,0.2332611,-0.1218109,-0.9857178,50.1564,126.1716,-25.6796,354.2928,340.5981,20,0.05927611,0.0382928,0.02744308,-2.617024,0.2121594,0.1253787,-0.007447713,0.001728038,0.001734365,0.01855953,0.005650463,-0.001896898,0.0.0.0,10.147.103.29,5,automotive,2,2014-11-08 18:54:30.496,0,2014-11-08 18:09:32.682,0
2014-11-08 18:54:31.593,21,10.5,37.44663,-122.1716,13.46655,0.21,132.833,3,5,1415501671,0.1826324,-0.1101074,-0.9876556,49.91685,126.1376,-25.58044,354.3111,340.6165,20,0.05678339,0.03583203,0.0298836,-2.616306,0.2065005,0.1222347,0.004941703,-0.005872017,-0.003257976,-0.008178385,0.01751462,0.007477595,0.0.0.0,10.147.103.29,5,automotive,2,2014-11-08 18:54:30.496,0,2014-11-08 18:09:32.682,0
2014-11-08 18:54:32.090,22,11,37.44663,-122.1716,13.46655,0.21,132.833,3,5,1415501671,0.114151,-0.08886719,-0.9840088,50.08794,126.4435,-26.14233,354.3108,340.6162,20,0.05679564,0.039557,0.02868491,-2.613511,0.1813722,0.106725,-0.006280679,-0.005911166,0.001653561,-0.02287428,0.03881931,-0.001491477,0.0.0.0,10.147.103.29,5,automotive,2,2014-11-08 18:54:30.496,0,2014-11-08 18:09:32.682,0
2014-11-08 18:54:32.593,23,11.5,37.44663,-122.1716,14.10187,0,132.833,3,5,1415501672,0.2361145,-0.141449,-1.001328,50.0195,126.8513,-25.74564,354.2895,340.5949,20,0.06422693,0.03950533,0.02745506,-2.613455,0.1851625,0.1093282,-0.001269224,0.0002983478,0.0004639024,0.03569717,-0.01701858,-0.001477599,0.0.0.0,10.147.103.29,5,automotive,2,2014-11-08 18:54:30.496,0,2014-11-08 18:09:32.682,0
2014-11-08 18:54:33.075,24,12,37.44663,-122.1716,14.10187,0,132.833,3,5,1415501672,0.2014465,-0.1342926,-0.9655151,50.43015,127.1232,-25.61349,354.2926,340.598,20,0.06670899,0.03948456,0.02622415,-2.615817,0.2073509,0.1226873,0.005010569,0.0003800555,0.001688068,0.01909838,-0.001765814,0.01025607,0.0.0.0,10.147.103.29,5,automotive,2,2014-11-08 18:54:30.496,0,2014-11-08 18:09:32.682,0
2014-11-08 18:54:33.591,25,12.5,37.44662,-122.1716,14.44699,0.31,132.833,3,5,1415501673,0.1944275,-0.1172638,-0.987915,50.43015,127.1232,-25.67957,354.3231,340.6285,20,0.05557485,0.0407975,0.02623267,-2.616305,0.2125618,0.1261342,0.00135948,0.004140121,-0.0007526241,-0.02593912,0.009711138,-0.02250518,0.0.0.0,10.147.103.29,5,automotive,1,2014-11-08 18:54:33.648,0,2014-11-08 18:09:32.682,0
2014-11-08 18:54:34.088,26,13,37.44662,-122.1716,14.44699,0.31,132.833,3,5,1415501673,0.1408539,-0.08674622,-1.020447,50.22482,126.5794,-25.8118,354.3649,340.6703,20,0.05679297,0.04329261,0.02994911,-2.61459,0.1987191,0.117758,-0.00484822,-0.0008662738,-0.0008139097,-0.08108687,0.04175666,-0.03444926,0.0.0.0,10.147.103.29,5,automotive,1,2014-11-08 18:54:33.963,0,2014-11-08 18:09:32.682,0
2014-11-08 18:54:34.593,27,13.5,37.44662,-122.1716,14.3089,0,132.833,3,5,1415501674,0.1209259,-0.07295227,-0.9846497,51.45677,126.5794,-26.80331,354.2675,340.5729,20,0.05803614,0.04203613,0.02870701,-2.610245,0.1612024,0.09581822,-0.001221942,-0.001053366,0.001631393,-0.002221932,0.01510527,-0.03391104,0.0.0.0,10.147.103.29,5,automotive,1,2014-11-08 18:54:33.963,0,2014-11-08 18:09:32.682,0
2014-11-08 18:54:35.093,28,14,37.44662,-122.1716,14.3089,0,132.833,3,5,1415501674,0.125885,-0.07376099,-0.97435,51.25145,125.4239,-26.86948,354.0864,340.3918,20,0.05802602,0.04577707,0.03120266,-2.608357,0.1487584,0.0882917,1.101915e-05,0.005077578,-0.002005064,0.01623111,-0.00957077,-0.03490057,0.0.0.0,10.147.103.29,5,automotive,1,2014-11-08 18:54:35.224,0,2014-11-08 18:09:32.682,0
2014-11-08 18:54:35.593,29,14.5,37.44662,-122.1716,11.51672,0.56,132.833,3,5,1415501675,0.1523438,-0.07981873,-0.9745178,51.5252,125.4239,-27.06781,353.9541,340.2595,20,0.06297204,0.04325932,0.03118189,-2.606984,0.1484991,0.08866714,-0.008654138,-0.001029788,0.005319507,0.020474,-0.02296023,-0.03234692,0.0.0.0,10.147.103.29,5,unknown,0,2014-11-08 18:54:35.539,0,2014-11-08 18:09:32.682,0
2014-11-08 18:54:36.089,30,15,37.44662,-122.1716,11.51672,0.56,132.833,3,5,1415501675,0.1649628,-0.0868988,-0.9853516,51.31986,125.6278,-27.72879,353.8622,340.1676,20,0.05802549,0.0395546,0.02991662,-2.606091,0.1549873,0.09205893,-0.008484522,0.006490377,0.0004326037,0.0285066,-0.0293479,-0.03376356,0.0.0.0,10.147.103.29,5,automotive,0,2014-11-08 18:54:35.855,0,2014-11-08 18:09:32.682,0
2014-11-08 18:54:36.577,31,15.5,37.44661,-122.1716,15.21432,1.07,132.833,3,5,1415501676,0.1483765,-0.07791138,-1.018921,51.62786,125.9337,-26.50598,353.7976,340.103,20,0.05925853,0.04203906,0.03117017,-2.604365,0.1537591,0.08959876,-0.007210332,0.0002955465,0.00403117,-0.01687374,0.01141496,-0.02131582,0.0.0.0,10.147.103.29,5,automotive,0,2014-11-08 18:54:35.855,0,2014-11-08 18:09:32.682,0
2014-11-08 18:54:37.093,32,16,37.44661,-122.1716,15.21432,1.07,132.833,3,5,1415501676,0.1061707,-0.07089233,-1.01152,50.60122,125.3899,-26.57211,353.6963,340.0016,20,0.06048678,0.04079324,0.03239096,-2.600879,0.1362285,0.07938196,0.001483529,-0.001094371,0.0002648644,-0.02894977,-9.286885e-05,-0.02652957,0.0.0.0,10.147.103.29,5,automotive,0,2014-11-08 18:54:35.855,0,2014-11-08 18:09:32.682,0
2014-11-08 18:54:37.591,33,16.5,37.44661,-122.1716,15.79126,1.28,132.833,3,5,1415501677,0.0146637,-0.01553345,-1.00235,51.93583,125.22,-27.20004,353.5436,339.849,20,0.05554342,0.03957537,0.03114753,-2.596842,0.1046394,0.06319745,-0.001019572,-0.002443263,0.0026342,-0.06404843,0.04052661,-0.06287501,0.0.0.0,10.147.103.29,5,automotive,0,2014-11-08 18:54:35.855,0,2014-11-08 18:09:32.682,0
2014-11-08 18:54:38.088,34,17,37.44661,-122.1716,15.79126,1.28,132.833,3,5,1415501677,0.03588867,-0.022995,-1.029877,51.08028,125.186,-27.10086,353.3973,339.7027,20,0.0716401,0.05440146,0.03251347,-2.594207,0.07493147,0.04662332,0.01502747,-0.003930606,0.001329165,-0.03800634,0.02257384,-0.03607045,0.0.0.0,10.147.103.29,5,unknown,0,2014-11-08 18:54:38.061,0,2014-11-08 18:09:32.682,0
2014-11-08 18:54:38.593,35,17.5,37.44659,-122.1716,15.6286,2.23,132.833,3,5,1415501678,0.05126953,-0.04194641,-0.9958801,51.18295,125.152,-27.39838,353.1757,339.481,20,0.07785272,0.0456322,0.02628114,-2.592646,0.05767735,0.03725285,0.0002324961,0.0234842,0.002682344,-0.005252481,-0.008623685,-0.01972003,0.0.0.0,10.147.103.29,5,unknown,0,2014-11-08 18:54:38.061,0,2014-11-08 18:09:32.682,0
2014-11-08 18:54:39.091,36,18,37.44659,-122.1716,15.6286,2.23,132.833,3,5,1415501678,0.03947449,-0.02835083,-1.046921,51.2514,124.6082,-26.27475,352.9858,339.2912,20,0.0494075,0.07318127,0.03020957,-2.591505,0.04623259,0.03122708,0.001500137,-0.007615418,0.001055906,0.002893931,0.02186837,-0.02081213,0.0.0.0,10.147.103.29,5,unknown,0,2014-11-08 18:54:38.061,0,2014-11-08 18:09:32.682,0
2014-11-08 18:54:39.574,37,18.5,37.44658,-122.1716,13.66431,4.59,132.833,3,5,1415501679,0.03024292,-0.04042053,-1.000778,51.1145,125.8317,-27.26617,352.8192,339.1246,20,0.04196556,0.0533274,0.02880182,-2.591028,0.05369896,0.03712777,-0.007001575,0.00366316,-0.00635808,-0.01275787,-0.02580801,0.006400058,0.0.0.0,10.147.103.29,5,unknown,0,2014-11-08 18:54:38.061,0,2014-11-08 18:09:32.682,0
2014-11-08 18:54:40.091,38,19,37.44658,-122.1716,13.66431,4.59,132.833,3,5,1415501679,0.05805969,-0.01937866,-0.9943237,51.59356,125.2879,-27.46436,352.6732,338.9786,20,0.04938353,0.05452982,0.03004578,-2.590296,0.05474978,0.03794841,0.0004054645,-0.00877193,0.0008104179,0.005131417,-0.007531886,-0.05087755,0.0.0.0,10.147.103.29,5,automotive,0,2014-11-08 18:54:39.953,0,2014-11-08 18:09:32.682,0
2014-11-08 18:54:40.593,39,19.5,37.44653,-122.1715,16.39688,5.57,134.1118,3,5,1415501680,0.1173096,-0.04751587,-0.9605865,52.07265,124.8121,-26.80338,352.5542,338.8596,20,0.07781011,0.05313006,0.03496677,-2.590148,0.06862692,0.04561704,0.01401356,0.01730215,0.003273771,0.03869126,-0.01132932,0.01647521,0.0.0.0,10.147.103.29,5,unknown,0,2014-11-08 18:54:40.583,0,2014-11-08 18:09:32.682,0
2014-11-08 18:54:41.090,40,20,37.44653,-122.1715,16.39688,5.57,134.1118,3,5,1415501680,0.1003265,-0.05014038,-1.048782,51.69625,124.7102,-27.36514,352.5134,338.8188,20,0.06912395,0.004663728,0.02838184,-2.589183,0.07633954,0.05697585,-0.0009471203,0.004991303,0.006608378,0.002883609,-0.00874406,-0.03848121,0.0.0.0,10.147.103.29,5,automotive,0,2014-11-08 18:54:40.898,0,2014-11-08 18:09:32.682,0
2014-11-08 18:54:41.592,41,20.5,37.44648,-122.1714,14.38577,7.1,134.1118,3,5,1415501681,0.1421051,-0.1150055,-1.084869,52.07268,124.5402,-26.3407,352.5084,338.8138,20,0.05919195,0.01346148,0.03584482,-2.588439,0.07972981,0.06395005,-0.01838679,-0.03976787,0.00366632,0.01338243,-0.02795144,-0.02711071,0.0.0.0,10.147.103.29,5,automotive,0,2014-11-08 18:54:40.898,0,2014-11-08 18:09:32.682,0
2014-11-08 18:54:42.089,42,21,37.44648,-122.1714,14.38577,7.1,134.1118,3,5,1415501681,0.04220581,-0.05830383,-0.8769073,52.38067,125.05,-27.10083,352.4933,338.7987,20,0.05315829,0.0569509,0.02021685,-2.591341,0.08366646,0.06144492,0.006342073,0.008422612,-0.008249104,-0.002417519,0.02608217,-0.02872449,0.0.0.0,10.147.103.29,5,automotive,0,2014-11-08 18:54:40.898,0,2014-11-08 18:09:32.682,0
2014-11-08 18:54:42.593,43,21.5,37.44642,-122.1714,16.08481,8.99,134.0847,3,5,1415501682,0.1784821,-0.06065369,-0.9833069,52.27801,125.7637,-26.80334,352.5403,338.8457,20,0.07166407,0.02078091,0.02113564,-2.597809,0.1031817,0.06867338,-0.001234217,-0.003930179,-0.01086338,0.08062423,-0.02423032,-0.06540232,0.0.0.0,10.147.103.29,5,automotive,0,2014-11-08 18:54:40.898,0,2014-11-08 18:09:32.682,0
2014-11-08 18:54:43.093,44,22,37.44642,-122.1714,16.08481,8.99,134.0847,3,5,1415501682,0.131546,-0.09068298,-1.013855,51.62781,124.9141,-27.62958,352.6381,338.9435,20,0.05065066,0.03707679,0.02127307,-2.603959,0.1128981,0.07770827,-0.005032043,-0.01509969,-0.009733791,0.04818876,0.002831506,-0.07513016,0.0.0.0,10.147.103.29,5,automotive,2,2014-11-08 18:54:43.105,0,2014-11-08 18:09:32.682,0
2014-11-08 18:54:43.593,45,22.5,37.44636,-122.1713,16.69659,9.53,134.0847,3,5,1415501683,0.07110596,-0.07978821,-1.017365,52.44911,125.05,-27.23297,352.721,339.0264,20,0.05684411,0.03081038,0.01875691,-2.609162,0.11142,0.06828792,-0.01635711,-0.002766965,-0.007100113,-0.04609591,0.05007691,0.02169535,0.0.0.0,10.147.103.29,5,automotive,2,2014-11-08 18:54:43.105,0,2014-11-08 18:09:32.682,0
2014-11-08 18:54:44.088,46,23,37.44636,-122.1713,16.69659,9.53,134.0847,3,5,1415501683,0.07225037,-0.05058289,-0.9891205,52.03848,125.3899,-27.56348,352.7808,339.0862,20,0.006013418,-0.00115954,0.02831366,-2.611588,0.1037918,0.06616422,-0.05994823,-0.06106731,-0.002530139,-0.04264892,-0.0387577,-0.03178877,0.0.0.0,10.147.103.29,5,automotive,2,2014-11-08 18:54:43.105,0,2014-11-08 18:09:32.682,0
2014-11-08 18:54:44.592,47,23.5,37.4463,-122.1712,17.3631,10.25,134.0847,3,5,1415501684,0.06356812,-0.07183838,-0.9753876,52.03848,124.982,-26.9686,352.7891,339.0945,20,0.02587048,0.03974475,0.0274468,-2.610435,0.1015671,0.05209406,-0.02528703,-0.002872553,-0.002985746,-0.02613603,-0.01116192,0.006237982,0.0.0.0,10.147.103.29,5,automotive,2,2014-11-08 18:54:44.681,0,2014-11-08 18:09:32.682,0
2014-11-08 18:54:45.048,48,24,37.4463,-122.1712,17.3631,10.25,134.0847,3,5,1415501684,0.1438446,-0.04124451,-0.9882202,51.35406,126.2056,-27.29907,352.8052,339.1106,20,0.09638619,0.036823,0.02867159,-2.608834,0.097354,0.05235489,0.03770479,-0.01820438,0.004584485,0.04779984,0.01628972,0.002812257,0.0.0.0,10.147.103.29,5,automotive,2,2014-11-08 18:54:44.681,0,2014-11-08 18:09:32.682,0
2014-11-08 18:54:45.593,49,24.5,37.44624,-122.1711,15.10654,12.16,135.0003,3,5,1415501685,0.1133423,-0.0871582,-1.042419,52.41489,124.6762,-27.7287,352.8073,339.1127,20,0.03950054,0.06080343,0.0288668,-2.609518,0.1067309,0.06744539,-0.01909316,-0.0116751,0.01108014,0.002875225,-0.05987929,0.003035352,0.0.0.0,10.147.103.29,5,automotive,2,2014-11-08 18:54:45.626,0,2014-11-08 18:09:32.682,0
2014-11-08 18:54:46.084,50,25,37.44624,-122.1711,15.10654,12.16,135.0003,3,5,1415501685,0.153656,-0.06433105,-0.9293976,52.24378,124.982,-26.70422,352.8102,339.1155,20,0.0691788,0.03573882,0.02619192,-2.612155,0.1139676,0.06077027,-0.02007789,0.01184931,0.004132294,0.02058307,-0.009411781,0.03840116,0.0.0.0,10.147.103.29,5,automotive,2,2014-11-08 18:54:45.626,0,2014-11-08 18:09:32.682,0
2014-11-08 18:54:46.594,51,25.5,37.44614,-122.171,17.82358,13.05,133.3982,3,5,1415501686,0.1628571,-0.05064392,-1.023499,51.73046,124.9481,-26.73718,352.8644,339.1698,20,0.08519612,0.06431188,0.04368676,-2.61178,0.1201805,0.07575633,0.03309527,0.02272334,0.01906204,0.03545123,-0.01280183,-0.02284731,0.0.0.0,10.147.103.29,5,automotive,2,2014-11-08 18:54:45.626,0,2014-11-08 18:09:32.682,0
2014-11-08 18:54:47.094,52,26,37.44614,-122.171,17.82358,13.05,133.3982,3,5,1415501686,0.1900787,-0.04223633,-1.002579,51.93581,125.2879,-26.93555,352.8892,339.1946,20,0.01093547,-0.004904744,0.03197631,-2.608686,0.1307474,0.08503967,-0.03865588,-0.06280308,0.003517029,0.0406434,0.01186286,-0.0303066,0.0.0.0,10.147.103.29,5,automotive,2,2014-11-08 18:54:45.626,0,2014-11-08 18:09:32.682,0
2014-11-08 18:54:47.593,53,26.5,37.44606,-122.1709,15.8356,13.75,133.3982,3,5,1415501687,0.1589508,-0.1600037,-1.022675,52.1069,126.4095,-26.57202,352.9234,339.2288,20,0.03079413,0.01981898,0.02727317,-2.608261,0.1424969,0.08195814,-0.0348449,-0.02803083,0.00515652,0.05307217,-0.05389103,-0.05796807,0.0.0.0,10.147.103.29,5,automotive,2,2014-11-08 18:54:45.626,0,2014-11-08 18:09:32.682,0
2014-11-08 18:54:48.092,54,27,37.44606,-122.1709,15.8356,13.75,133.3982,3,5,1415501687,0.1596832,-0.1150665,-0.888443,51.97002,125.5258,-27.29907,353.0106,339.316,20,0.03574654,0.05712294,0.03499047,-2.608034,0.1572028,0.09493115,-0.005045594,0.005245582,0.006770696,0.02369893,-0.007658886,0.08040523,0.0.0.0,10.147.103.29,5,automotive,2,2014-11-08 18:54:45.626,0,2014-11-08 18:09:32.682,0
2014-11-08 18:54:48.587,55,27.5,37.44597,-122.1708,17.89188,14.11,133.3982,3,5,1415501688,0.154129,-0.1113434,-1.044037,52.48332,125.9677,-26.86948,353.0863,339.3917,20,0.05435139,0.06319761,0.02889184,-2.607244,0.147746,0.08480199,-0.02222264,-0.01225951,-0.001968009,-0.007703,0.02696113,0.06294359,0.0.0.0,10.147.103.29,5,automotive,2,2014-11-08 18:54:45.626,0,2014-11-08 18:09:32.682,0
2014-11-08 18:54:49.094,56,28,37.44597,-122.1708,17.89188,14.11,133.3982,3,5,1415501688,0.118042,-0.119812,-1.059631,52.10692,125.6618,-26.63806,353.1249,339.4303,20,0.05435086,0.03955114,0.02375859,-2.607363,0.147829,0.08381702,-0.002180381,0.05461824,-0.0001490675,0.04116843,-0.01225887,-0.03450546,0.0.0.0,10.147.103.29,5,automotive,2,2014-11-08 18:54:45.626,0,2014-11-08 18:09:32.682,0
2014-11-08 18:54:49.593,57,28.5,37.44588,-122.1706,16.05844,14.58,133.3982,3,5,1415501689,-0.06915283,-0.3827972,-1.15596,52.0727,125.2879,-26.3407,353.139,339.4444,20,0.1148701,0.006891462,0.03457076,-2.60808,0.1481102,0.0827868,0.05728086,0.03431953,0.0009092318,-0.2581021,-0.4226483,0.0004806332,0.0.0.0,10.147.103.29,5,automotive,2,2014-11-08 18:54:45.626,0,2014-11-08 18:09:32.682,0
2014-11-08 18:54:50.090,58,29,37.44588,-122.1706,16.05844,14.58,133.3982,3,5,1415501689,0.1775665,-0.112854,-1.097382,52.17538,125.4579,-27.3652,353.3749,339.6803,20,0.02607607,0.08938075,0.004486095,-2.612407,0.153486,0.07571671,-0.04127711,0.06953332,-0.02590161,-0.0466569,-0.08287918,0.02232368,0.0.0.0,10.147.103.29,5,automotive,2,2014-11-08 18:54:45.626,0,2014-11-08 18:09:32.682,0
2014-11-08 18:54:50.594,59,29.5,37.44579,-122.1705,17.05283,15.23,133.4743,3,5,1415501690,0.1606903,-0.1237488,-1.041367,51.79895,125.4239,-26.80341,353.3634,339.6688,20,0.08529892,0.06299388,0.0264356,-2.615474,0.1433145,0.07528001,-0.009232101,0.01099211,-0.00174676,0.06331431,0.1286147,0.03212614,0.0.0.0,10.147.103.29,5,automotive,2,2014-11-08 18:54:50.670,0,2014-11-08 18:09:32.682,0
2014-11-08 18:54:51.093,60,30,37.44579,-122.1705,17.05283,15.23,133.4743,3,5,1415501690,0.1268005,-0.1949768,-1.048096,51.62786,124.982,-26.83643,353.0334,339.3388,20,0.01842322,0.009938118,0.02472026,-2.612743,0.1430253,0.1044511,-0.06730653,-0.01967537,-0.008092437,0.07117503,-0.08023272,-0.07570948,0.0.0.0,10.147.103.29,5,automotive,2,2014-11-08 18:54:50.670,0,2014-11-08 18:09:32.682,0
2014-11-08 18:54:51.585,61,30.5,37.44569,-122.1704,16.80344,15.61,133.4743,3,5,1415501691,0.2251434,-0.1081543,-1.07756,50.73813,124.3703,-26.9025,353.1436,339.449,20,0.01844505,0.02112366,0.02358709,-2.611189,0.152835,0.1128349,-0.03876603,-0.008559119,-0.002900325,-0.01427916,-0.0459432,-0.05024439,0.0.0.0,10.147.103.29,5,automotive,2,2014-11-08 18:54:50.670,0,2014-11-08 18:09:32.682,0
2014-11-08 18:54:52.088,62,31,37.44569,-122.1704,16.80344,15.61,133.4743,3,5,1415501691,0.06781006,-0.005325317,-0.8061676,51.76477,125.3219,-27.1669,353.521,339.8264,20,0.1570365,0.1061246,0.04037911,-2.613357,0.1625992,0.09332969,0.08116101,0.09030458,0.00670264,0.0009455176,-0.007452711,-0.01717962,0.0.0.0,10.147.103.29,5,automotive,2,2014-11-08 18:54:50.670,0,2014-11-08 18:09:32.682,0
2014-11-08 18:54:52.568,63,31.5,37.44559,-122.1703,14.87744,16.11,134.0337,3,5,1415501692,0.2281647,-0.1141357,-0.9424896,51.45677,126.2395,-27.72864,353.4601,339.7655,20,0.04073092,0.03217551,0.02369015,-2.614991,0.176814,0.1135443,-0.02419117,0.004027259,-0.00268682,0.104932,-0.007686426,-0.1337462,0.0.0.0,10.147.103.29,5,automotive,2,2014-11-08 18:54:50.670,0,2014-11-08 18:09:32.682,0
2014-11-08 18:54:53.091,64,32,37.44559,-122.1703,14.87744,16.11,134.0337,3,5,1415501692,0.1260223,-0.05955505,-1.040726,50.90923,124.9481,-27.4642,353.5045,339.8098,20,0.09141407,0.01322339,0.02723162,-2.616418,0.1818668,0.107856,0.004153756,-0.02464902,0.004485902,-0.001103946,-0.004810242,-0.05406757,0.0.0.0,10.147.103.29,5,automotive,2,2014-11-08 18:54:50.670,0,2014-11-08 18:09:32.682,0
2014-11-08 18:54:53.593,65,32.5,37.44549,-122.1701,16.53616,16.21,134.0337,3,5,1415501693,0.1673889,-0.08009338,-0.9519958,51.69631,125.7298,-26.70413,353.5635,339.8689,20,0.0716385,0.03573403,0.02865535,-2.617151,0.1770487,0.1069106,0.00904987,0.005068022,0.002319079,-0.02761288,0.0233025,0.04053037,0.0.0.0,10.147.103.29,5,automotive,2,2014-11-08 18:54:50.670,0,2014-11-08 18:09:32.682,0
2014-11-08 18:54:54.091,66,33,37.44549,-122.1701,16.53616,16.21,134.0337,3,5,1415501693,0.1442871,-0.1433716,-0.9778442,51.6963,125.118,-27.29907,353.5682,339.8736,20,0.07660156,0.04067153,0.02746864,-2.61736,0.1684976,0.1031732,0.01525648,0.004971005,-0.005042418,0.009459898,-0.0005711528,-0.05039509,0.0.0.0,10.147.103.29,5,automotive,2,2014-11-08 18:54:50.670,0,2014-11-08 18:09:32.682,0
2014-11-08 18:54:54.593,67,33.5,37.44539,-122.17,14.79468,16.52,134.0337,3,5,1415501694,0.1777039,-0.1712646,-0.953125,51.21721,124.8461,-27.10071,353.559,339.8644,20,0.05806064,0.03206206,0.02246243,-2.61851,0.1724477,0.1033308,-0.02069798,0.004034309,-0.003861341,-0.005746775,-0.0008111204,0.03226584,0.0.0.0,10.147.103.29,5,automotive,2,2014-11-08 18:54:50.670,0,2014-11-08 18:09:32.682,0
2014-11-08 18:54:55.093,68,34,37.44539,-122.17,14.79468,16.52,134.0337,3,5,1415501694,0.1841888,-0.1240692,-0.9802246,51.18297,124.6082,-27.19983,353.5797,339.885,20,0.06425302,0.06562269,0.0289158,-2.619675,0.177514,0.1095016,0.01877884,0.01632053,0.00106129,0.03882994,0.02200264,0.0005768108,0.0.0.0,10.147.103.29,5,automotive,2,2014-11-08 18:54:50.670,0,2014-11-08 18:09:32.682,0
2014-11-08 18:54:55.593,69,34.5,37.44528,-122.1699,16.83685,16.68,134.0337,3,5,1415501695,0.228241,-0.1559143,-1.012589,51.01186,125.3899,-27.10062,353.6851,339.9904,20,0.09021512,0.04307343,0.02749341,-2.621438,0.1901099,0.1059599,0.01377088,0.02145012,-9.438152e-05,-0.002955256,-0.0166595,0.008641535,0.0.0.0,10.147.103.29,5,automotive,2,2014-11-08 18:54:50.670,0,2014-11-08 18:09:32.682,0
2014-11-08 18:54:56.093,70,35,37.44528,-122.1699,16.83685,16.68,134.0337,3,5,1415501695,0.2055359,-0.09729004,-0.9515533,51.28561,125.8657,-26.4397,353.7444,340.0497,20,0.08274388,0.04688735,0.03614469,-2.621189,0.2065238,0.1107906,0.01745917,0.00790915,0.01098424,0.01093535,-0.01187248,0.09640617,0.0.0.0,10.147.103.29,5,automotive,2,2014-11-08 18:54:50.670,0,2014-11-08 18:09:32.682,0
2014-11-08 18:54:56.593,71,35.5,37.44518,-122.1697,17.32883,16.72,134.1616,3,5,1415501696,0.2113495,-0.1538696,-0.9932251,52.58601,125.8657,-26.8363,353.7613,340.0667,20,0.08148474,0.05313352,0.0411248,-2.617135,0.2106773,0.1113501,-0.007134548,0.01802869,0.00255549,0.02860778,-0.0356236,-0.007674033,0.0.0.0,10.147.103.29,5,automotive,2,2014-11-08 18:54:50.670,0,2014-11-08 18:09:32.682,0
2014-11-08 18:54:57.091,72,36,37.44518,-122.1697,17.32883,16.72,134.1616,3,5,1415501696,0.245224,-0.09484863,-0.9619904,52.00425,125.7637,-26.73715,353.852,340.1574,20,0.06053791,0.063159,0.02889317,-2.614053,0.2160223,0.1106926,-0.00324276,0.02418245,0.001466202,-0.02582417,-0.007132836,0.0531468,0.0.0.0,10.147.103.29,5,automotive,2,2014-11-08 18:54:50.670,0,2014-11-08 18:09:32.682,0
2014-11-08 18:54:57.593,73,36.5,37.44508,-122.1696,17.12958,16.46,134.1616,3,5,1415501697,0.2432861,-0.07905579,-0.9815521,52.68867,125.4239,-26.40668,353.8508,340.1562,20,0.08137821,-0.0239538,0.04167927,-2.612461,0.22317,0.1266773,0.01781772,-0.05058531,0.01314025,0.08588646,-0.03538916,-0.1507622,0.0.0.0,10.147.103.29,5,automotive,2,2014-11-08 18:54:50.670,0,2014-11-08 18:09:32.682,0
2014-11-08 18:54:58.091,74,37,37.44508,-122.1696,17.12958,16.46,134.1616,3,5,1415501697,0.2323608,-0.1699066,-0.9931946,51.93581,125.3559,-26.86932,353.838,340.1434,20,0.07902984,0.03944461,0.03484693,-2.610734,0.2297582,0.127866,0.00703657,-0.004639297,0.007337835,0.01065886,0.00352492,-0.07168803,0.0.0.0,10.147.103.29,5,automotive,2,2014-11-08 18:54:50.670,0,2014-11-08 18:09:32.682,0
2014-11-08 18:54:58.593,75,37.5,37.44498,-122.1695,16.78107,16.12,134.1616,3,5,1415501698,0.2747955,-0.1092377,-1.087112,52.10691,124.5062,-28.02612,353.7983,340.1037,20,0.04067233,0.00981508,0.02841939,-2.608651,0.2264445,0.1330784,-0.03731683,0.005397354,-0.0001989751,0.01207479,-0.02960652,-0.06457136,0.0.0.0,10.147.103.29,5,automotive,2,2014-11-08 18:54:50.670,0,2014-11-08 18:09:32.682,0
2014-11-08 18:54:59.068,76,38,37.44498,-122.1695,16.78107,16.12,134.1616,3,5,1415501698,0.2584381,-0.07427979,-0.9886475,52.278,125.8997,-26.47281,353.7994,340.1048,20,0.1197666,0.01817661,0.04575044,-2.607164,0.2240916,0.1322659,0.05160951,-0.04868198,0.01392036,0.01508699,0.03523138,-0.03869236,0.0.0.0,10.147.103.29,5,automotive,2,2014-11-08 18:54:50.670,0,2014-11-08 18:09:32.682,0
2014-11-08 18:54:59.592,77,38.5,37.44488,-122.1693,16.48886,15.84,133.6196,3,10,1415501699,0.2234192,-0.1224365,-1.013458,52.10689,125.186,-25.44833,353.7781,340.0835,20,0.1249278,0.1075262,0.03053154,-2.606733,0.2186447,0.1251186,0.08136877,0.03801949,0.005799922,0.05940122,-0.03315136,0.0467626,0.0.0.0,10.147.103.29,5,automotive,2,2014-11-08 18:54:50.670,0,2014-11-08 18:09:32.682,0
2014-11-08 18:55:00.081,78,39,37.44488,-122.1693,16.48886,15.84,133.6196,3,10,1415501699,0.283371,-0.1287384,-0.955246,51.18291,126.3755,-26.40671,353.8182,340.1236,20,0.09389773,0.03187005,0.02985883,-2.609173,0.225245,0.145975,0.03315689,-0.009046819,-0.005847448,0.04894287,-0.09549443,-0.126997,0.0.0.0,10.147.103.29,5,automotive,2,2014-11-08 18:54:50.670,0,2014-11-08 18:09:32.682,0
2014-11-08 18:55:00.594,79,39.5,37.44478,-122.1692,14.38037,15.34,133.6196,3,10,1415501700,0.3642883,-0.182724,-0.9836426,51.25134,125.9677,-26.34061,353.97,340.2754,20,0.02966548,0.06953194,0.02032098,-2.613503,0.2372147,0.1441658,-0.01750105,-4.118432e-05,-0.009574455,0.07891924,-0.05585704,-0.00355647,0.0.0.0,10.147.103.29,5,automotive,2,2014-11-08 18:54:50.670,0,2014-11-08 18:09:32.682,0
2014-11-08 18:55:01.092,80,40,37.44478,-122.1692,14.38037,15.34,133.6196,3,10,1415501700,0.3194275,-0.2050781,-0.9386292,51.38823,125.7637,-26.80325,354.1462,340.4516,20,0.07912251,0.04186755,0.02009142,-2.616692,0.2360473,0.1525858,0.03448022,0.01207832,-0.008219846,0.08504843,-0.1003249,0.06996702,0.0.0.0,10.147.103.29,5,automotive,2,2014-11-08 18:54:50.670,0,2014-11-08 18:09:32.682,0
2014-11-08 18:55:01.593,81,40.5,37.44469,-122.1691,16.65094,13.96,133.6196,3,10,1415501701,0.3434601,-0.2183075,-0.8681641,51.49089,125.3219,-25.97702,354.3061,340.6115,20,0.06420242,0.01463141,0.02600523,-2.618915,0.2344452,0.1543083,-0.0211325,-0.01128835,-0.013491,0.1092477,-0.08723962,-0.04089715,0.0.0.0,10.147.103.29,5,automotive,2,2014-11-08 18:54:50.670,0,2014-11-08 18:09:32.682,0
2014-11-08 18:55:02.093,82,41,37.44469,-122.1691,16.65094,13.96,133.6196,3,10,1415501701,0.2814484,-0.06982422,-0.9061584,51.28556,125.2539,-26.77023,354.4448,340.7502,20,0.05051164,0.01601838,0.03955913,-2.627738,0.2691562,0.1712335,-0.001493498,-0.0360428,0.009641376,0.06872036,0.05185239,0.01068852,0.0.0.0,10.147.103.29,5,automotive,2,2014-11-08 18:54:50.670,0,2014-11-08 18:09:32.682,0
2014-11-08 18:55:02.578,83,41.5,37.44461,-122.169,16.10703,12.44,133.6196,3,10,1415501702,0.2537384,-0.09985352,-0.8561096,51.04601,125.7637,-26.0101,354.5831,340.8885,20,0.1199733,0.09760432,0.02921168,-2.629362,0.2636276,0.1573057,0.05782714,0.03697317,-0.0009214913,0.007250886,0.05642274,0.03936127,0.0.0.0,10.147.103.29,5,automotive,2,2014-11-08 18:54:50.670,0,2014-11-08 18:09:32.682,0
2014-11-08 18:55:03.093,84,42,37.44461,-122.169,16.10703,12.44,133.6196,3,10,1415501702,0.3102417,-0.1310883,-0.9294891,50.73802,125.5938,-26.10928,354.6424,340.9478,20,0.05432156,0.02837092,0.02612321,-2.632272,0.2616703,0.1572151,-0.001901492,-0.04463049,-0.005494826,-0.003657612,-0.009599937,-0.002512045,0.0.0.0,10.147.103.29,5,automotive,2,2014-11-08 18:54:50.670,0,2014-11-08 18:09:32.682,0
2014-11-08 18:55:03.593,85,42.5,37.44453,-122.1689,16.58963,10.91,133.6196,3,10,1415501703,0.282547,-0.1657104,-1.001923,51.55933,126.5454,-26.30753,354.7052,341.0106,20,0.03079893,0.00612527,0.02345872,-2.636787,0.2773564,0.1617251,-0.037953,-0.008209593,-0.005265727,0.01541878,-0.05392954,-0.09079147,0.0.0.0,10.147.103.29,5,automotive,2,2014-11-08 18:54:50.670,0,2014-11-08 18:09:32.682,0
2014-11-08 18:55:04.088,86,43,37.44453,-122.1689,16.58963,10.91,133.6196,3,10,1415501703,0.2902679,-0.1611633,-1.004303,50.56692,125.6958,-26.40668,354.748,341.0534,20,0.04206623,0.07939149,0.01794811,-2.640998,0.2861047,0.1653417,0.006485518,0.02026452,-0.01362813,0.03548941,-0.003516705,-0.0430671,0.0.0.0,10.147.103.29,5,automotive,2,2014-11-08 18:54:50.670,0,2014-11-08 18:09:32.682,0
2014-11-08 18:55:04.589,87,43.5,37.44448,-122.1688,16.60022,10.26,133.6196,3,10,1415501704,0.2786865,-0.1691284,-1.018768,50.87491,127.0892,-26.17538,354.8069,341.1122,20,0.08280194,0.04560131,0.0262822,-2.639648,0.2749432,0.1518823,0.003861312,0.02910814,-0.00365052,-0.01793959,0.005333451,0.01053463,0.0.0.0,10.147.103.29,5,automotive,2,2014-11-08 18:54:50.670,0,2014-11-08 18:09:32.682,0
2014-11-08 18:55:05.068,88,44,37.44448,-122.1688,16.60022,10.26,133.6196,3,10,1415501704,0.2444916,-0.0975647,-0.9268036,52.03843,126.4095,-26.37372,354.8124,341.1178,20,0.05186453,0.0594881,0.03008999,-2.639888,0.2709622,0.1450959,0.001210134,-0.001844271,0.002337944,0.03401251,0.03226734,-0.01325505,0.0.0.0,10.147.103.29,5,automotive,2,2014-11-08 18:54:50.670,0,2014-11-08 18:09:32.682,0
2014-11-08 18:55:05.593,89,44.5,37.44441,-122.1687,16.88083,9.52,133.7724,3,10,1415501705,0.2118683,-0.1286011,-0.8768768,50.60116,125.4579,-26.43976,354.8138,341.1192,20,0.1100221,0.05663292,0.02884923,-2.63833,0.2698896,0.1481574,0.03959028,0.01543397,0.007635032,-0.02140975,0.05844363,-0.01376882,0.0.0.0,10.147.103.29,5,automotive,2,2014-11-08 18:54:50.670,0,2014-11-08 18:09:32.682,0
2014-11-08 18:55:06.091,90,45,37.44441,-122.1687,16.88083,9.52,133.7724,3,10,1415501705,0.1763763,-0.1430817,-0.9391022,51.59356,125.4918,-27.13379,354.757,341.0624,20,0.04449024,0.06323276,0.02273248,-2.632154,0.2373862,0.1305117,-0.01837903,0.01069014,-0.001934741,-0.04343522,-0.006043186,-0.03765288,0.0.0.0,10.147.103.29,5,automotive,2,2014-11-08 18:54:50.670,0,2014-11-08 18:09:32.682,0
2014-11-08 18:55:06.592,91,45.5,37.44436,-122.1686,16.14487,9.01,133.7724,3,10,1415501706,0.2046661,-0.1250916,-0.9918365,52.03843,125.7298,-26.70422,354.6464,340.9518,20,0.02840581,0.06955564,0.02401506,-2.628972,0.2288069,0.1138125,-0.0379644,0.02569756,-0.00274661,-0.04508088,-0.003315415,0.01570186,0.0.0.0,10.147.103.29,5,automotive,2,2014-11-08 18:54:50.670,0,2014-11-08 18:09:32.682,0
2014-11-08 18:55:07.093,92,46,37.44436,-122.1686,16.14487,9.01,133.7724,3,10,1415501706,0.239151,-0.05619812,-1.019501,52.44907,125.2539,-26.37372,354.4882,340.7935,20,0.07282361,0.01833959,0.03342853,-2.626317,0.2239718,0.1080289,-0.0007410299,-0.0005814646,0.005879452,0.01580879,0.01205476,0.01314711,0.0.0.0,10.147.103.29,5,automotive,2,2014-11-08 18:54:50.670,0,2014-11-08 18:09:32.682,0
2014-11-08 18:55:07.576,93,46.5,37.44429,-122.1685,13.53055,8.96,133.7724,3,10,1415501707,0.1501923,-0.1430817,-0.9558563,53.44147,125.22,-28.38971,354.2839,340.5893,20,0.1197384,0.001940113,0.0468426,-2.624237,0.2175576,0.1143671,0.02167363,-0.006929677,0.008341665,0.06774544,0.00695549,0.03077873,0.0.0.0,10.147.103.29,5,automotive,2,2014-11-08 18:54:50.670,0,2014-11-08 18:09:32.682,0
2014-11-08 18:55:08.088,94,47,37.44429,-122.1685,13.53055,8.96,133.7724,3,10,1415501707,0.2257843,-0.09367371,-0.9709015,50.73803,126.8853,-25.64664,354.2592,340.5645,20,0.06920064,0.06434836,0.02890595,-2.621278,0.2047456,0.1084696,0.01310113,0.02661868,-0.002446311,-0.002355111,-0.03726605,0.01875333,0.0.0.0,10.147.103.29,5,automotive,2,2014-11-08 18:54:50.670,0,2014-11-08 18:09:32.682,0
2014-11-08 18:55:08.586,95,47.5,37.44424,-122.1685,17.89484,9.18,133.7724,3,10,1415501708,0.3245239,-0.09040833,-1.035873,51.11446,126.4435,-25.28308,354.237,340.5424,20,0.117333,0.009373528,0.03705602,-2.624329,0.2341081,0.1204794,0.02438785,0.01556828,0.009856625,0.03855065,-0.04439314,0.07721224,0.0.0.0,10.147.103.29,5,automotive,2,2014-11-08 18:55:08.321,0,2014-11-08 18:09:32.682,0
2014-11-08 18:55:09.093,96,48,37.44424,-122.1685,17.89484,9.18,133.7724,3,10,1415501708,0.2059174,-0.1306152,-1.027893,51.42246,126.8173,-24.85339,354.244,340.5493,20,0.06549512,0.05192126,0.02510162,-2.623245,0.2311415,0.1255343,0.008395221,0.00817889,-0.002520789,-0.01734044,0.01981238,-0.03225539,0.0.0.0,10.147.103.29,5,automotive,2,2014-11-08 18:55:08.321,0,2014-11-08 18:09:32.682,0
2014-11-08 18:55:09.594,97,48.5,37.44418,-122.1684,17.34705,8.68,133.7724,3,10,1415501709,0.2197723,-0.1364899,-0.9976196,51.93578,127.531,-25.67957,354.2467,340.5521,20,0.07033142,0.02210131,0.03715509,-2.618525,0.2212356,0.1227213,0.01357386,-0.01293155,0.01099165,-0.02956774,-0.00292225,0.03439064,0.0.0.0,10.147.103.29,5,automotive,2,2014-11-08 18:55:08.321,0,2014-11-08 18:09:32.682,0
2014-11-08 18:55:10.087,98,49,37.44418,-122.1684,17.34705,8.68,133.7724,3,10,1415501709,0.2356262,-0.1103058,-0.9703674,52.44909,125.6618,-23.20093,354.2415,340.5468,20,0.04438744,0.02970277,0.03228923,-2.613414,0.2155582,0.1265249,-0.01222913,-0.02768032,0.005998372,0.0005703667,0.008893305,-0.04178519,0.0.0.0,10.147.103.29,5,automotive,2,2014-11-08 18:55:10.212,0,2014-11-08 18:09:32.682,0
2014-11-08 18:55:10.578,99,49.5,37.44418,-122.1684,17.34705,8.68,133.7724,3,10,1415501709,0.2113953,-0.127533,-1.052338,50.87494,126.9533,-25.3822,354.2034,340.5088,20,0.05566699,0.08926996,0.02173273,-2.609884,0.2108125,0.1263362,-0.008258187,0.05188659,0.003045282,0.002480959,-0.01685238,-0.08419241,0.0.0.0,10.147.103.29,5,automotive,2,2014-11-08 18:55:10.212,0,2014-11-08 18:09:32.682,0
2014-11-08 18:55:11.089,100,50,37.44413,-122.1683,13.53912,8.34,133.7724,3,10,1415501710,0.1895752,-0.1312866,-0.986084,52.48331,124.8121,-27.92694,354.0341,340.3394,20,0.03580833,0.06454623,0.02643587,-2.606636,0.2061789,0.1197331,-0.01815767,0.03324636,-0.0008085369,-0.0123223,0.02856586,-0.0281112,0.0.0.0,10.147.103.29,5,automotive,2,2014-11-08 18:55:10.842,0,2014-11-08 18:09:32.682,0
2014-11-08 18:55:11.593,101,50.5,37.44408,-122.1683,18.21469,8.1,133.7724,3,10,1415501711,0.2315674,-0.0773468,-0.9918518,51.1487,125.186,-27.29907,354.04,340.3454,20,0.07904369,0.044413,0.03365916,-2.604753,0.2073408,0.1152746,0.007907301,0.00579379,0.003918553,0.002722192,0.03790158,0.0003006725,0.0.0.0,10.147.103.29,5,automotive,2,2014-11-08 18:55:11.473,0,2014-11-08 18:09:32.682,0
2014-11-08 18:55:12.088,102,51,37.44408,-122.1683,18.21469,8.1,133.7724,3,10,1415501711,0.2080078,-0.08334351,-0.9971313,50.4985,125.7637,-26.14224,354.0352,340.3406,20,0.06424396,0.06438458,0.03013633,-2.602237,0.2054152,0.1080957,-0.0005612113,0.02829194,0.0004433796,-0.006875491,-0.005289093,0.02279247,0.0.0.0,10.147.103.29,5,automotive,2,2014-11-08 18:55:11.473,0,2014-11-08 18:09:32.682,0
2014-11-08 18:55:12.590,103,51.5,37.44403,-122.1682,17.99036,8.05,133.7724,3,10,1415501712,0.2197876,-0.08613586,-0.9754791,51.42247,124.9141,-23.20102,354.0468,340.3522,20,0.06915324,0.03326794,0.02986442,-2.601298,0.2079201,0.1137137,0.002008372,0.009746485,0.008926696,0.04062024,0.02919455,-0.02157034,0.0.0.0,10.147.103.29,5,automotive,2,2014-11-08 18:55:11.473,0,2014-11-08 18:09:32.682,0
2014-11-08 18:55:13.093,104,52,37.44403,-122.1682,17.99036,8.05,133.7724,3,10,1415501712,0.2135468,-0.1435699,-0.9283295,50.8065,127.0892,-24.12634,354.0826,340.388,20,0.05806756,0.04325826,0.02379215,-2.600726,0.2160238,0.118788,-0.01150996,0.02228692,0.0004133803,0.02709213,-0.03647472,-0.02206912,0.0.0.0,10.147.103.29,5,automotive,2,2014-11-08 18:55:11.473,0,2014-11-08 18:09:32.682,0
2014-11-08 18:55:13.594,105,52.5,37.44398,-122.1681,11.36896,7.72,133.7724,3,10,1415501713,0.2621613,-0.114563,-0.9681244,50.56697,126.9872,-25.87793,354.0606,340.366,20,0.0654818,0.05317534,0.02757544,-2.600865,0.2285888,0.1229518,0.002274096,0.006172493,0.0002937898,0.02081964,-0.03678161,0.03320856,0.0.0.0,10.147.103.29,5,automotive,2,2014-11-08 18:55:13.364,0,2014-11-08 18:09:32.682,0
2014-11-08 18:55:14.092,106,53,37.44398,-122.1681,11.36896,7.72,133.7724,3,10,1415501713,0.2686462,-0.1485291,-0.9398499,52.24378,125.8657,-24.19241,354.0504,340.3557,20,0.0704044,0.03822861,0.02867692,-2.60161,0.241048,0.1356094,0.001054035,0.01128516,0.007729929,0.03552012,-0.04609556,0.01814213,0.0.0.0,10.147.103.29,5,automotive,2,2014-11-08 18:55:13.364,0,2014-11-08 18:09:32.682,0
2014-11-08 18:55:14.593,107,53.5,37.44394,-122.1681,17.47668,7.29,133.7724,3,10,1415501714,0.346405,-0.1565704,-0.990921,51.69622,127.3611,-24.91946,354.1098,340.4152,20,0.05693306,0.04194798,0.006540724,-2.607372,0.2701802,0.1433705,-0.003364192,-0.007160645,-0.01950975,0.07932396,0.01966514,0.0002370448,0.0.0.0,10.147.103.29,5,automotive,2,2014-11-08 18:55:13.364,0,2014-11-08 18:09:32.682,0
2014-11-08 18:55:15.074,108,54,37.44394,-122.1681,17.47668,7.29,133.7724,3,10,1415501714,0.3032684,-0.2056122,-0.9497833,52.24375,126.3415,-25.31604,354.1579,340.4633,20,0.06185032,0.05189649,0.01401781,-2.619493,0.2889284,0.1576684,0.007855266,0.02028966,-0.01186492,0.07290283,0.009127793,-0.01865681,0.0.0.0,10.147.103.29,5,automotive,2,2014-11-08 18:55:13.364,0,2014-11-08 18:09:32.682,0
2014-11-08 18:55:15.593,109,54.5,37.4439,-122.168,17.97922,6.01,133.7724,3,10,1415501715,0.2561798,-0.1351776,-0.9454803,51.90152,126.0016,-26.04309,354.2956,340.601,20,0.04940537,0.03086737,0.0212182,-2.624959,0.2865781,0.1557003,-0.009323285,-0.01190411,-0.009646068,-0.0421611,0.0106323,-0.01335475,0.0.0.0,10.147.103.29,5,automotive,2,2014-11-08 18:55:13.364,0,2014-11-08 18:09:32.682,0
2014-11-08 18:55:16.088,110,55,37.4439,-122.168,17.97922,6.01,133.7724,3,10,1415501715,0.2870941,-0.1539307,-0.9385376,51.93575,127.1912,-25.01843,354.4181,340.7235,20,0.075409,0.04064729,0.0200797,-2.629552,0.2815823,0.1522373,0.01543123,-0.009577739,-0.008208601,0.00956329,0.02092793,0.0002726913,0.0.0.0,10.147.103.29,5,automotive,2,2014-11-08 18:55:13.364,0,2014-11-08 18:09:32.682,0
2014-11-08 18:55:16.593,111,55.5,37.44386,-122.168,17.55576,5,134.3096,3,10,1415501716,0.3435974,-0.1734161,-0.9488373,51.49088,125.7298,-25.38196,354.4576,340.7629,20,0.06552921,0.04940777,0.01892256,-2.635329,0.2916412,0.158216,0.01294355,-0.009501302,-0.004216425,0.04361186,0.01218621,0.00766977,0.0.0.0,10.147.103.29,5,automotive,2,2014-11-08 18:55:13.364,0,2014-11-08 18:09:32.682,0
2014-11-08 18:55:17.093,112,56,37.44386,-122.168,17.55576,5,134.3096,3,10,1415501716,0.3792877,-0.1524658,-0.973877,51.21711,126.7493,-25.18362,354.5535,340.8589,20,0.06920277,0.03696628,0.02250851,-2.640751,0.3061012,0.1679267,0.003043901,-0.0006465378,-0.001304072,0.09910524,0.04425953,-0.01520402,0.0.0.0,10.147.103.29,5,automotive,2,2014-11-08 18:55:13.364,0,2014-11-08 18:09:32.682,0
2014-11-08 18:55:17.589,113,56.5,37.44384,-122.1679,17.2984,3.88,134.3096,3,10,1415501717,0.3563843,-0.2135162,-0.9456177,51.96997,126.2056,-26.83603,354.6757,340.981,20,0.06673455,0.04195544,0.02255165,-2.645425,0.3199843,0.1782145,0.01042815,0.009296217,-0.0008164091,0.09919803,0.001384533,-0.04420271,0.0.0.0,10.147.103.29,5,automotive,2,2014-11-08 18:55:13.364,0,2014-11-08 18:09:32.682,0
2014-11-08 18:55:18.088,114,57,37.44384,-122.1679,17.2984,3.88,134.3096,3,10,1415501717,0.3722382,-0.1777344,-0.9488525,50.73802,127.1572,-25.51401,354.8553,341.1607,20,0.07784739,0.03567943,0.02496234,-2.650941,0.3388597,0.1843011,0.01037993,-0.003053137,0.0005617195,0.0389861,-0.02480934,-0.0169146,0.0.0.0,10.147.103.29,5,automotive,2,2014-11-08 18:55:13.364,0,2014-11-08 18:09:32.682,0
2014-11-08 18:55:18.596,115,57.5,37.44382,-122.1679,16.7778,2.31,133.7681,4,10,1415501718,0.2556458,-0.1516571,-0.9572601,51.49088,126.9533,-24.98523,354.9565,341.2618,20,0.04568333,0.03463148,0.02371305,-2.653057,0.3474178,0.1899369,-0.01202141,-0.009101681,0.00212873,-0.04035698,0.02215566,-0.04975315,0.0.0.0,10.147.103.29,5,automotive,2,2014-11-08 18:55:13.364,0,2014-11-08 18:09:32.682,0
2014-11-08 18:55:19.090,116,58,37.44382,-122.1679,16.7778,2.31,133.7681,4,10,1415501718,0.1958313,-0.1009979,-0.96492,51.38823,126.8513,-25.48102,354.9744,341.2798,20,0.06795269,0.04445055,0.02626809,-2.638608,0.2613118,0.1443783,0.003632887,-0.002221212,0.0012968,-0.05638024,0.03927826,-0.03315033,0.0.0.0,10.147.103.29,5,automotive,2,2014-11-08 18:55:13.364,0,2014-11-08 18:09:32.682,0
2014-11-08 18:55:19.589,117,58.5,37.44381,-122.1679,17.95914,0.74,133.7681,3,10,1415501719,0.2479858,-0.1363678,-0.9951324,52.03844,126.8173,-24.7869,354.9036,341.209,20,0.06548074,0.04073039,0.02500335,-2.634947,0.2372297,0.1316905,0.005862407,0.0001760405,0.003998278,-0.01793387,0.009468776,0.005339884,0.0.0.0,10.147.103.29,5,automotive,2,2014-11-08 18:55:13.364,0,2014-11-08 18:09:32.682,0
2014-11-08 18:55:20.088,118,59,37.44381,-122.1679,17.95914,0.74,133.7681,3,10,1415501719,0.2757874,-0.1580963,-0.9959412,51.66201,126.8513,-24.88605,354.7705,341.0759,20,0.06299228,0.03577744,0.02619059,-2.635275,0.2446995,0.1366449,-0.002891254,0.002806506,0.0005610574,0.004439265,-0.0008191472,0.005569536,0.0.0.0,10.147.103.29,5,automotive,2,2014-11-08 18:55:13.364,0,2014-11-08 18:09:32.682,0
2014-11-08 18:55:20.592,119,59.5,37.44381,-122.1679,17.76855,0.46,133.7681,3,10,1415501720,0.2548676,-0.1394196,-0.9685822,51.69624,127.0212,-25.24963,354.6764,340.9818,20,0.05927611,0.0382928,0.02744308,-2.63508,0.2505423,0.1406879,-0.004189906,0.0003948422,-0.001697157,-0.01388191,-0.001850353,0.01072002,0.0.0.0,10.147.103.29,5,automotive,2,2014-11-08 18:55:13.364,0,2014-11-08 18:09:32.682,0
2014-11-08 18:55:21.093,120,60,37.44381,-122.1679,17.76855,0.46,133.7681,3,10,1415501720,0.2024231,-0.1074829,-0.983078,52.17534,127.1572,-24.65479,354.6029,340.9083,20,0.06051927,0.03703631,0.02620098,-2.631815,0.2375642,0.1327453,0.001875374,-0.008372436,0.00342243,-0.0272566,0.01815904,-0.03012105,0.0.0.0,10.147.103.29,5,automotive,1,2014-11-08 18:55:21.245,0,2014-11-08 18:09:32.682,0
2014-11-08 18:55:21.573,121,60.5,37.44381,-122.1679,18.31155,0,133.7681,3,5,1415501721,0.1943054,-0.1003418,-0.9903564,52.14111,127.0552,-25.34882,354.4989,340.8043,20,0.06298802,0.03826962,0.02744387,-2.62746,0.2146356,0.1193649,0.001715169,0.0002606934,0.003541236,-0.01488166,0.007738238,-0.013495,0.0.0.0,10.147.103.29,5,automotive,1,2014-11-08 18:55:21.245,0,2014-11-08 18:09:32.682,0
2014-11-08 18:55:22.093,122,61,37.44381,-122.1679,18.31155,0,133.7681,3,5,1415501721,0.2011108,-0.1196136,-0.9821777,51.59356,126.7833,-24.68787,354.3561,340.6615,20,0.0605214,0.04450222,0.02749794,-2.6246,0.2051945,0.1137817,-0.00583301,0.0003085267,0.001013577,0.002165065,-0.006428251,-0.003459643,0.0.0.0,10.147.103.29,5,automotive,1,2014-11-08 18:55:21.875,0,2014-11-08 18:09:32.682,0
2014-11-08 18:55:22.593,123,61.5,37.44381,-122.1679,18.16376,0,133.7681,4,5,1415501722,0.1897888,-0.1014252,-0.9931488,52.20954,126.5114,-25.15057,354.2422,340.5476,20,0.06175498,0.03578516,0.02619033,-2.622496,0.2008879,0.1111106,0.003951075,0.005261718,0.003433707,0.003335845,-0.01288196,-0.01196196,0.0.0.0,10.147.103.29,5,automotive,1,2014-11-08 18:55:21.875,0,2014-11-08 18:09:32.682,0
2014-11-08 18:55:23.090,124,62,37.44381,-122.1679,18.16376,0,133.7681,4,5,1415501722,0.193985,-0.0983429,-0.9877167,52.10688,126.6134,-25.18347,354.1609,340.4663,20,0.0667074,0.03824113,0.02621323,-2.620767,0.1997406,0.1105719,-0.003573339,-0.0008667403,0.004498011,0.007935775,-0.01256277,-0.01193608,0.0.0.0,10.147.103.29,5,automotive,1,2014-11-08 18:55:21.875,0,2014-11-08 18:09:32.682,0
2014-11-08 18:55:23.593,125,62.5,37.44381,-122.1679,18.52606,0.16,133.7681,3,5,1415501723,0.1913147,-0.1074677,-0.9697571,52.1069,127.1572,-25.38177,354.1127,340.4181,20,0.06176616,0.04448917,0.02626676,-2.619251,0.1988588,0.1096378,-0.007314925,0.001652645,0.00197569,-0.005629748,0.01041925,-0.005741531,0.0.0.0,10.147.103.29,5,automotive,1,2014-11-08 18:55:21.875,0,2014-11-08 18:09:32.682,0
2014-11-08 18:55:24.089,126,63,37.44381,-122.1679,18.52606,0.16,133.7681,3,5,1415501723,0.1909943,-0.1069794,-0.974762,51.7989,126.7833,-25.01831,354.0637,340.3691,20,0.06546316,0.04447665,0.02873045,-2.617687,0.198824,0.1097518,0.001280363,-0.003355647,0.001804866,0.005438706,0.002964169,-0.01618395,0.0.0.0,10.147.103.29,5,automotive,1,2014-11-08 18:55:21.875,0,2014-11-08 18:09:32.682,0
2014-11-08 18:55:24.594,127,63.5,37.44381,-122.1679,18.42496,0,133.7681,4,5,1415501724,0.2012939,-0.1068115,-0.9872742,51.69624,127.0892,-25.11743,354.0363,340.3417,20,0.06301199,0.03949708,0.02376046,-2.616252,0.1983702,0.1098085,0.004960964,0.007821231,0.005527223,-0.001625143,0.01528862,-0.01112667,0.0.0.0,10.147.103.29,5,automotive,1,2014-11-08 18:55:21.875,0,2014-11-08 18:09:32.682,0
2014-11-08 18:55:25.093,128,64,37.44381,-122.1679,18.42496,0,133.7681,4,5,1415501724,0.2048492,-0.1055908,-0.9883575,51.97001,127.0892,-25.64624,353.9954,340.3008,20,0.0567983,0.03582138,0.02742071,-2.614708,0.1976239,0.1096322,-0.001176336,0.004081271,0.001824182,0.001158284,-0.01473279,-0.00569755,0.0.0.0,10.147.103.29,5,automotive,2,2014-11-08 18:55:25.027,0,2014-11-08 18:09:32.682,0
2014-11-08 18:55:25.590,129,64.5,37.44381,-122.1679,18.55423,0,133.7681,4,5,1415501725,0.187439,-0.09498596,-0.9895325,51.86734,127.1912,-25.08435,353.9729,340.2783,20,0.0629779,0.04201057,0.02993952,-2.613284,0.1973776,0.110157,-0.00241644,-0.003398142,0.002972533,0.004217234,-0.01825478,-0.01411354,0.0.0.0,10.147.103.29,5,automotive,2,2014-11-08 18:55:25.027,0,2014-11-08 18:09:32.682,0
2014-11-08 18:55:26.088,130,65,37.44381,-122.1679,18.55423,0,133.7681,4,5,1415501725,0.1938934,-0.09893799,-0.9922333,49.643,126.6134,-24.25818,354.0248,340.3302,20,0.061739,0.04077486,0.02992834,-2.612029,0.1971945,0.1095803,0.002560204,0.003990289,-0.0007085346,-0.00535178,0.0003981463,0.00141077,0.0.0.0,10.147.103.29,5,automotive,2,2014-11-08 18:55:25.027,0,2014-11-08 18:09:32.682,0
2014-11-08 18:55:26.587,131,65.5,37.44381,-122.1679,18.45825,0,133.7681,4,5,1415501726,0.1864471,-0.1074829,-0.9778137,53.16775,125.9677,-24.02689,353.9443,340.2497,20,0.06544931,0.03950826,0.02991822,-2.610601,0.1978824,0.1099072,-0.004961499,-0.007117148,0.005205893,0.009197829,-0.0001161753,-0.00556394,0.0.0.0,10.147.103.29,5,automotive,2,2014-11-08 18:55:25.027,0,2014-11-08 18:09:32.682,0
2014-11-08 18:55:27.091,132,66,37.44381,-122.1679,18.45825,0,133.7681,4,5,1415501726,0.2003021,-0.1191406,-0.989624,51.7647,127.7689,-24.65475,353.9084,340.2138,20,0.06175125,0.04449983,0.02872965,-2.608882,0.1975486,0.1093418,0.004966952,-0.0009762,0.001569724,-0.002711271,0.00870596,-0.03226306,0.0.0.0,10.147.103.29,5,automotive,2,2014-11-08 18:55:25.027,0,2014-11-08 18:09:32.682,0
2014-11-08 18:55:27.590,133,66.5,37.44381,-122.1679,18.5553,0,133.7681,3,5,1415501727,0.2054138,-0.1204376,-0.9737091,52.17536,126.4095,-24.91907,353.8587,340.1641,20,0.06668236,0.04199272,0.03117177,-2.607242,0.197463,0.1095427,0.002497883,-0.003441216,0.003973047,0.01075837,-0.002462178,0.001774471,0.0.0.0,10.147.103.29,5,automotive,2,2014-11-08 18:55:25.027,0,2014-11-08 18:09:32.682,0
2014-11-08 18:55:28.048,134,67,37.44381,-122.1679,18.5553,0,133.7681,3,5,1415501727,0.2038422,-0.112915,-0.9737701,52.10691,126.7493,-24.7207,353.8319,340.1373,20,0.05434233,0.04453551,0.02626516,-2.605796,0.1973114,0.1090844,0.005049814,-0.0009882401,0.0002341499,-0.009031652,0.009365614,-0.002144757,0.0.0.0,10.147.103.29,5,automotive,2,2014-11-08 18:55:25.027,0,2014-11-08 18:09:32.682,0
2014-11-08 18:55:28.593,135,67.5,37.44381,-122.1679,18.45868,0,133.7681,4,5,1415501728,0.1920471,-0.09422302,-0.9859161,51.66203,126.4435,-25.15027,353.8339,340.1393,20,0.06544133,0.03329111,0.02986362,-2.604526,0.1974784,0.1086778,0.001307403,0.0002955305,-3.580973e-06,0.001111847,-0.003779614,0.003008219,0.0.0.0,10.147.103.29,5,automotive,2,2014-11-08 18:55:25.027,0,2014-11-08 18:09:32.682,0
2014-11-08 18:55:29.093,136,68,37.44381,-122.1679,18.45868,0,133.7681,4,5,1415501728,0.1938171,-0.098526,-0.9935913,51.55936,127.0212,-25.51379,353.8247,340.1301,20,0.06298856,0.0444921,0.02872992,-2.603516,0.197957,0.1090292,0.002450896,-0.008394535,0.0008589473,0.008175399,0.004138074,-0.00942126,0.0.0.0,10.147.103.29,5,automotive,2,2014-11-08 18:55:25.027,0,2014-11-08 18:09:32.682,0
2014-11-08 18:55:29.592,137,68.5,37.44381,-122.1679,18.47903,0,133.7681,4,5,1415501729,0.1869354,-0.10849,-0.9718781,51.76466,126.5454,-25.24939,353.8172,340.1226,20,0.06052407,0.0407666,0.02623373,-2.60255,0.1980741,0.109143,0.004907559,0.01148955,0.0008618818,0.009559094,-0.00963439,-0.006297722,0.0.0.0,10.147.103.29,5,automotive,2,2014-11-08 18:55:25.027,0,2014-11-08 18:09:32.682,0
2014-11-08 18:55:30.087,138,69,37.44381,-122.1679,18.47903,0,133.7681,4,5,1415501729,0.187149,-0.1068878,-0.969574,52.75704,127.2591,-25.54684,353.7897,340.0951,20,0.06177362,0.04448384,0.02503531,-2.601886,0.1983969,0.1095294,-0.0001505569,0.002844474,0.006711848,0.004385299,-0.01410253,-0.005913969,0.0.0.0,10.147.103.29,5,automotive,2,2014-11-08 18:55:25.027,0,2014-11-08 18:09:32.682,0
2014-11-08 18:55:30.594,139,69.5,37.44381,-122.1679,18.50793,0,133.7681,3,5,1415501730,0.2088013,-0.1168671,-0.969574,51.28555,127.0892,-25.24942,353.7751,340.0805,20,0.06425516,0.0382406,0.02251836,-2.601171,0.1986828,0.109626,-0.0001373339,0.004046777,0.0004344538,-0.007472713,0.00648604,0.001862626,0.0.0.0,10.147.103.29,5,automotive,2,2014-11-08 18:55:25.027,0,2014-11-08 18:09:32.682,0
2014-11-08 18:55:31.093,140,70,37.44381,-122.1679,18.50793,0,133.7681,3,5,1415501730,0.2007141,-0.1070099,-0.9935303,51.83308,126.5454,-25.44775,353.7834,340.0887,20,0.06794203,0.04196902,0.0274777,-2.600715,0.1991089,0.1099366,-0.001360248,0.00029958,0.002865801,0.007255631,0.00731356,-0.02202759,0.0.0.0,10.147.103.29,5,automotive,2,2014-11-08 18:55:25.027,0,2014-11-08 18:09:32.682,0
2014-11-08 18:55:31.591,141,70.5,37.44381,-122.1679,18.19437,0,133.7681,4,5,1415501731,0.2026367,-0.1060944,-0.9876709,51.90154,127.0212,-25.51382,353.7718,340.0771,20,0.05803081,0.03208337,0.02738822,-2.599837,0.1987641,0.1099424,0.001118704,0.006467038,0.001611747,-0.002891091,-0.005604876,0.006176718,0.0.0.0,10.147.103.29,5,automotive,2,2014-11-08 18:55:25.027,0,2014-11-08 18:09:32.682,0
2014-11-08 18:55:32.090,142,71,37.44381,-122.1679,18.19437,0,133.7681,4,5,1415501731,0.2061768,-0.1079559,-0.9837646,51.69621,126.7493,-25.31552,353.7369,340.0423,20,0.0630056,0.05194736,0.02756398,-2.599208,0.1987176,0.1102075,-0.002691702,0.003998517,0.003849301,-0.005693481,-0.004929421,0.01058234,0.0.0.0,10.147.103.29,5,automotive,2,2014-11-08 18:55:25.027,0,2014-11-08 18:09:32.682,0
2014-11-08 18:55:32.593,143,71.5,37.44381,-122.1679,18.12112,0,133.7681,3,5,1415501732,0.1866455,-0.1067963,-0.9700623,51.62778,127.1572,-25.51379,353.7313,340.0367,20,0.06300347,0.04448145,0.02626702,-2.598627,0.1991458,0.1106072,0.003411024,-0.001028853,0.004873849,0.005418467,-0.001404097,-0.002484385,0.0.0.0,10.147.103.29,5,automotive,2,2014-11-08 18:55:25.027,0,2014-11-08 18:09:32.682,0
2014-11-08 18:55:33.093,144,72,37.44381,-122.1679,18.12112,0,133.7681,3,5,1415501732,0.198288,-0.1199036,-0.9780731,52.20953,126.9193,-24.95193,353.7299,340.0353,20,0.05804093,0.04576642,0.02873977,-2.598151,0.1989652,0.1106871,0.0008678274,-0.003529024,0.003470883,-0.006534589,0.01451398,-0.015397,0.0.0.0,10.147.103.29,5,automotive,2,2014-11-08 18:55:25.027,0,2014-11-08 18:09:32.682,0
2014-11-08 18:55:33.586,145,72.5,37.44381,-122.1679,17.97345,0,133.7681,4,5,1415501733,0.2003021,-0.1265717,-0.970932,51.8331,127.2931,-24.91882,353.7228,340.0282,20,0.06671219,0.04197142,0.02624599,-2.597654,0.1991919,0.1101274,0.003295655,0.001391651,0.00092804,-0.008339339,0.01662797,-0.007034557,0.0.0.0,10.147.103.29,5,automotive,2,2014-11-08 18:55:25.027,0,2014-11-08 18:09:32.682,0
2014-11-08 18:55:34.097,146,73,37.44381,-122.1679,17.97345,0,133.7681,4,5,1415501733,0.1886444,-0.0949707,-0.9787598,52.41485,126.9872,-25.34851,353.7115,340.0169,20,0.06668981,0.0419874,0.02994032,-2.597159,0.1993931,0.1109438,-0.001751445,-0.008545034,0.003192834,0.009442112,-0.0128341,0.008264229,0.0.0.0,10.147.103.29,5,automotive,2,2014-11-08 18:55:25.027,0,2014-11-08 18:09:32.682,0
2014-11-08 18:55:34.572,147,73.5,37.44381,-122.1679,17.97345,0,133.7681,4,5,1415501733,0.1935883,-0.1190338,-0.9701233,51.62778,126.3415,-25.05103,353.7214,340.0268,20,0.06422426,0.04324095,0.02871926,-2.596844,0.1992182,0.1107558,0.008125821,6.289383e-05,0.0007426104,0.0110122,-0.0099997,0.01005853,0.0.0.0,10.147.103.29,5,automotive,2,2014-11-08 18:55:25.027,0,2014-11-08 18:09:32.682,0
2014-11-08 18:55:35.094,148,74,37.44381,-122.1679,17.70963,0,133.7681,3,5,1415501734,0.1929626,-0.1144867,-0.9704132,52.4833,126.9873,-25.41458,353.7099,340.0153,20,0.07040333,0.04320766,0.02995204,-2.596588,0.1993304,0.1112375,0.004351947,-0.002441806,-0.0006022833,0.0113712,-0.006942236,0.01540102,0.0.0.0,10.147.103.29,5,automotive,2,2014-11-08 18:55:25.027,0,2014-11-08 18:09:32.682,0
2014-11-08 18:55:35.590,149,74.5,37.44381,-122.1679,18.27341,0,133.7681,3,5,1415501735,0.1608276,-0.0874176,-1.005539,53.40725,126.1376,-26.10864,353.643,339.9484,20,0.06794363,0.04321245,0.02748862,-2.593449,0.1752087,0.09626802,0.004215239,0.007356748,0.0006327098,-0.04545483,0.02241944,-0.004915514,0.0.0.0,10.147.103.29,5,automotive,1,2014-11-08 18:55:35.744,0,2014-11-08 18:09:32.682,0
2014-11-08 18:55:36.094,150,75,37.44381,-122.1679,18.27341,0,133.7681,3,5,1415501735,0.1583557,-0.08076477,-1.018005,53.03083,125.9677,-26.53833,353.5171,339.8225,20,0.06422586,0.04448438,0.02873018,-2.591439,0.1574157,0.0852036,0.002888669,0.00353982,0.001806156,-0.02961075,0.01825178,-0.001023965,0.0.0.0,10.147.103.29,5,automotive,2,2014-11-08 18:55:36.059,0,2014-11-08 18:09:32.682,0
2014-11-08 18:55:36.579,151,75.5,37.44379,-122.1679,17.82761,0.31,133.7681,3,5,1415501736,0.06039429,-0.02630615,-1.020584,52.75707,125.9677,-26.60443,353.3706,339.676,20,0.06423119,0.03701315,0.02620178,-2.58981,0.1358095,0.07121683,-0.0033454,-0.008989788,-0.004503434,-0.06086094,0.04247012,-0.03826974,0.0.0.0,10.147.103.29,5,automotive,1,2014-11-08 18:55:36.689,0,2014-11-08 18:09:32.682,0
